Vers 57
USE_SERIAL_FEEDBACK=false
DEVELOPMENT_MODE=false
USE_RMC_ONLY=false

$GPRMC,212137.800,A,4305.1624,N,07740.8741,W,0.00,238.90,280319,,,D*79
$GPGGA,212138.000,4305.1624,N,07740.8741,W,2,09,1.13,157.4,M,-34.4,M,0000,0000*58
lng=-77.681236, lat=43.086044, altitude=157.40, speed=0.00, satellites=9, angle=238.9000, fixquality=2
$GPRMC,212138.200,A,4305.1624,N,07740.8741,W,0.01,238.90,280319,,,D*7D
$GPGGA,212138.400,4305.1624,N,07740.8741,W,2,09,1.12,157.4,M,-34.4,M,0000,0000*5D
lng=-77.681236, lat=43.086044, altitude=157.40, speed=0.01, satellites=9, angle=238.9000, fixquality=2
$GPRMC,212138.600,A,4305.1624,N,07740.8741,W,0.01,238.90,280319,,,D*79
$GPGGA,212138.800,4305.1624,N,07740.8741,W,2,09,1.12,157.4,M,-34.4,M,0000,0000*51
lng=-77.681236, lat=43.086044, altitude=157.40, speed=0.01, satellites=9, angle=238.9000, fixquality=2
$GPRMC,212139.000,A,4305.1624,N,07740.8741,W,0.00,238.90,280319,,,D*7F
$GPGGA,212139.200,4305.1624,N,07740.8741,W,2,09,1.13,157.4,M,-34.4,M,0000,0000*5B
lng=-77.681236, lat=43.086044, altitude=157.40, speed=0.00, satellites=9, angle=238.9000, fixquality=2
$GPRMC,212139.400,A,4305.1624,N,07740.8741,W,0.01,238.90,280319,,,D*7A
$GPGGA,212139.600,4305.1624,N,07740.8741,W,2,09,1.13,157.4,M,-34.4,M,0000,0000*5F
lng=-77.681236, lat=43.086044, altitude=157.40, speed=0.01, satellites=9, angle=238.9000, fixquality=2
$GPRMC,212139.800,A,4305.1624,N,07740.8741,W,0.00,238.90,280319,,,D*77
$GPGGA,212140.000,4305.1624,N,07740.8741,W,2,09,1.13,157.4,M,-34.4,M,0000,0000*57
lng=-77.681236, lat=43.086044, altitude=157.40, speed=0.00, satellites=9, angle=238.9000, fixquality=2
$GPRMC,212140.200,A,4305.1624,N,07740.8741,W,0.01,238.90,280319,,,D*72
$GPGGA,212140.400,4305.1624,N,07740.8741,W,2,09,1.13,157.4,M,-34.4,M,0000,0000*53
lng=-77.681236, lat=43.086044, altitude=157.40, speed=0.01, satellites=9, angle=238.9000, fixquality=2
$GPRMC,212140.600,A,4305.1624,N,07740.8741,W,0.01,238.90,280319,,,D*76
$GPGGA,212140.800,4305.1624,N,07740.8741,W,2,09,1.12,157.4,M,-34.4,M,0000,0000*5E
lng=-77.681236, lat=43.086044, altitude=157.40, speed=0.01, satellites=9, angle=238.9000, fixquality=2
$GPRMC,212141.000,A,4305.1624,N,07740.8741,W,0.00,238.90,280319,,,D*70
$GPGGA,212141.200,4305.1624,N,07740.8741,W,2,09,1.13,157.4,M,-34.4,M,0000,0000*54
lng=-77.681236, lat=43.086044, altitude=157.40, speed=0.00, satellites=9, angle=238.9000, fixquality=2
$GPRMC,212141.400,A,4305.1624,N,07740.8741,W,0.01,238.90,280319,,,D*75
$GPGGA,212141.600,4305.1624,N,07740.8741,W,2,09,1.13,157.4,M,-34.4,M,0000,0000*50
lng=-77.681236, lat=43.086044, altitude=157.40, speed=0.01, satellites=9, angle=238.9000, fixquality=2
$GPRMC,212141.800,A,4305.1624,N,07740.8741,W,0.01,238.90,280319,,,D*79
$GPGGA,212142.000,4305.1624,N,07740.8741,W,2,09,1.12,157.4,M,-34.4,M,0000,0000*54
lng=-77.681236, lat=43.086044, altitude=157.40, speed=0.01, satellites=9, angle=238.9000, fixquality=2
$GPRMC,212142.200,A,4305.1624,N,07740.8741,W,0.00,238.90,280319,,,D*71
$GPGGA,212142.400,4305.1624,N,07740.8741,W,2,09,1.12,157.4,M,-34.4,M,0000,0000*50
lng=-77.681236, lat=43.086044, altitude=157.40, speed=0.00, satellites=9, angle=238.9000, fixquality=2
$GPRMC,212142.600,A,4305.1624,N,07740.8741,W,0.01,238.90,280319,,,D*74
$GPGGA,212142.800,4305.1624,N,07740.8741,W,2,09,1.12,157.4,M,-34.4,M,0000,0000*5C
lng=-77.681236, lat=43.086044, altitude=157.40, speed=0.01, satellites=9, angle=238.9000, fixquality=2
$GPRMC,212143.000,A,4305.1624,N,07740.8741,W,0.01,238.90,280319,,,D*73
$GPGGA,212143.200,4305.1624,N,07740.8741,W,2,09,1.12,157.3,M,-34.4,M,0000,0000*50
lng=-77.681236, lat=43.086044, altitude=157.40, speed=0.01, satellites=9, angle=238.9000, fixquality=2
$GPRMC,212143.400,A,4305.1624,N,07740.8741,W,0.00,238.90,280319,,,D*76
$GPGGA,212143.600,4305.1624,N,07740.8741,W,2,09,1.12,157.3,M,-34.4,M,0000,0000*54
lng=-77.681236, lat=43.086044, altitude=157.30, speed=0.00, satellites=9, angle=238.9000, fixquality=2
$GPRMC,212143.800,A,4305.1624,N,07740.8741,W,0.01,238.90,280319,,,D*7B
$GPGGA,212144.000,4305.1624,N,07740.8741,W,2,09,1.12,157.3,M,-34.4,M,0000,0000*55
lng=-77.681236, lat=43.086044, altitude=157.30, speed=0.01, satellites=9, angle=238.9000, fixquality=2
$GPRMC,212144.200,A,4305.1624,N,07740.8741,W,0.01,238.90,280319,,,D*76
$GPGGA,212144.400,4305.1624,N,07740.8741,W,2,09,1.13,157.3,M,-34.4,M,0000,0000*50
lng=-77.681236, lat=43.086044, altitude=157.30, speed=0.01, satellites=9, angle=238.9000, fixquality=2
$GPRMC,212144.600,A,4305.1624,N,07740.8741,W,0.01,238.90,280319,,,D*72
$GPGGA,212144.800,4305.1624,N,07740.8741,W,2,09,1.12,157.3,M,-34.4,M,0000,0000*5D
lng=-77.681236, lat=43.086044, altitude=157.30, speed=0.01, satellites=9, angle=238.9000, fixquality=2
$GPRMC,212145.000,A,4305.1624,N,07740.8741,W,0.00,238.90,280319,,,D*74
$GPGGA,212145.200,4305.1624,N,07740.8741,W,2,09,1.13,157.3,M,-34.4,M,0000,0000*57
lng=-77.681236, lat=43.086044, altitude=157.30, speed=0.00, satellites=9, angle=238.9000, fixquality=2
$GPRMC,212145.400,A,4305.1624,N,07740.8741,W,0.00,238.90,280319,,,D*70
$GPGGA,212145.600,4305.1624,N,07740.8741,W,2,09,1.13,157.3,M,-34.4,M,0000,0000*53
lng=-77.681236, lat=43.086044, altitude=157.30, speed=0.00, satellites=9, angle=238.9000, fixquality=2
$GPRMC,212145.800,A,4305.1624,N,07740.8741,W,0.00,238.90,280319,,,D*7C
$GPGGA,212146.000,4305.1624,N,07740.8741,W,2,09,1.13,157.3,M,-34.4,M,0000,0000*56
lng=-77.681236, lat=43.086044, altitude=157.30, speed=0.00, satellites=9, angle=238.9000, fixquality=2
$GPRMC,212146.200,A,4305.1624,N,07740.8741,W,0.01,238.90,280319,,,D*74
$GPGGA,212146.400,4305.1624,N,07740.8741,W,2,09,1.13,157.3,M,-34.4,M,0000,0000*52
lng=-77.681236, lat=43.086044, altitude=157.30, speed=0.01, satellites=9, angle=238.9000, fixquality=2
$GPRMC,212146.600,A,4305.1624,N,07740.8741,W,0.02,238.90,280319,,,D*73
$GPGGA,212146.800,4305.1624,N,07740.8741,W,2,09,1.12,157.3,M,-34.4,M,0000,0000*5F
lng=-77.681236, lat=43.086044, altitude=157.30, speed=0.02, satellites=9, angle=238.9000, fixquality=2
$GPRMC,212147.000,A,4305.1624,N,07740.8741,W,0.04,238.90,280319,,,D*72
$GPGGA,212147.200,4305.1624,N,07740.8741,W,2,09,1.13,157.3,M,-34.4,M,0000,0000*55
lng=-77.681236, lat=43.086044, altitude=157.30, speed=0.04, satellites=9, angle=238.9000, fixquality=2
$GPRMC,212147.400,A,4305.1624,N,07740.8741,W,0.01,238.90,280319,,,D*73
$GPGGA,212147.600,4305.1624,N,07740.8741,W,2,07,1.20,157.3,M,-34.4,M,0000,0000*5F
lng=-77.681236, lat=43.086044, altitude=157.30, speed=0.01, satellites=9, angle=238.9000, fixquality=2
$GPRMC,212147.800,A,4305.1624,N,07740.8741,W,0.01,238.90,280319,,,D*7F
$GPGGA,212148.000,4305.1624,N,07740.8741,W,2,07,1.20,157.3,M,-34.4,M,0000,0000*56
lng=-77.681236, lat=43.086044, altitude=157.30, speed=0.01, satellites=7, angle=238.9000, fixquality=2
$GPRMC,212148.200,A,4305.1624,N,07740.8741,W,0.00,238.90,280319,,,D*7B
$GPGGA,212148.400,4305.1624,N,07740.8741,W,2,07,1.20,157.3,M,-34.4,M,0000,0000*52
lng=-77.681236, lat=43.086044, altitude=157.30, speed=0.00, satellites=7, angle=238.9000, fixquality=2
$GPRMC,212148.600,A,4305.1624,N,07740.8741,W,0.00,238.90,280319,,,D*7F
$GPGGA,212148.800,4305.1624,N,07740.8741,W,2,07,1.20,157.3,M,-34.4,M,0000,0000*5E
lng=-77.681236, lat=43.086044, altitude=157.30, speed=0.00, satellites=7, angle=238.9000, fixquality=2
$GPRMC,212149.000,A,4305.1624,N,07740.8741,W,0.00,238.90,280319,,,D*78
$GPGGA,212149.200,4305.1624,N,07740.8741,W,2,08,1.13,157.3,M,-34.4,M,0000,0000*5A
lng=-77.681236, lat=43.086044, altitude=157.30, speed=0.00, satellites=7, angle=238.9000, fixquality=2
$GPRMC,212149.400,A,4305.1624,N,07740.8741,W,0.00,238.90,280319,,,D*7C
$GPGGA,212149.600,4305.1624,N,07740.8741,W,2,08,1.13,157.3,M,-34.4,M,0000,0000*5E
lng=-77.681236, lat=43.086044, altitude=157.30, speed=0.00, satellites=8, angle=238.9000, fixquality=2
$GPRMC,212149.800,A,4305.1624,N,07740.8741,W,0.01,238.90,280319,,,D*71
$GPGGA,212150.000,4305.1624,N,07740.8741,W,2,08,1.13,157.3,M,-34.4,M,0000,0000*50
lng=-77.681236, lat=43.086044, altitude=157.30, speed=0.01, satellites=8, angle=238.9000, fixquality=2
$GPRMC,212150.200,A,4305.1624,N,07740.8741,W,0.01,238.90,280319,,,D*73
$GPGGA,212150.400,4305.1624,N,07740.8741,W,2,08,1.13,157.4,M,-34.4,M,0000,0000*53
lng=-77.681236, lat=43.086044, altitude=157.30, speed=0.01, satellites=8, angle=238.9000, fixquality=2
$GPRMC,212150.600,A,4305.1624,N,07740.8741,W,0.01,238.90,280319,,,D*77
$GPGGA,212150.800,4305.1624,N,07740.8741,W,2,08,1.13,157.4,M,-34.4,M,0000,0000*5F
lng=-77.681236, lat=43.086044, altitude=157.40, speed=0.01, satellites=8, angle=238.9000, fixquality=2
$GPRMC,212151.000,A,4305.1624,N,07740.8741,W,0.01,238.90,280319,,,D*70
$GPGGA,212151.200,4305.1624,N,07740.8741,W,2,08,1.13,157.4,M,-34.4,M,0000,0000*54
lng=-77.681236, lat=43.086044, altitude=157.40, speed=0.01, satellites=8, angle=238.9000, fixquality=2
$GPRMC,212151.400,A,4305.1624,N,07740.8741,W,0.01,238.90,280319,,,D*74
$GPGGA,212151.600,4305.1624,N,07740.8741,W,2,08,1.13,157.4,M,-34.4,M,0000,0000*50
lng=-77.681236, lat=43.086044, altitude=157.40, speed=0.01, satellites=8, angle=238.9000, fixquality=2
$GPRMC,212151.800,A,4305.1624,N,07740.8741,W,0.01,238.90,280319,,,D*78
$GPGGA,212152.000,4305.1624,N,07740.8741,W,2,08,1.13,157.4,M,-34.4,M,0000,0000*55
lng=-77.681236, lat=43.086044, altitude=157.40, speed=0.01, satellites=8, angle=238.9000, fixquality=2
$GPRMC,212152.200,A,4305.1624,N,07740.8741,W,0.01,238.90,280319,,,D*71
$GPGGA,212152.400,4305.1624,N,07740.8741,W,2,08,1.13,157.4,M,-34.4,M,0000,0000*51
lng=-77.681236, lat=43.086044, altitude=157.40, speed=0.01, satellites=8, angle=238.9000, fixquality=2
$GPRMC,212152.600,A,4305.1624,N,07740.8741,W,0.01,238.90,280319,,,D*75
$GPGGA,212152.800,4305.1624,N,07740.8741,W,2,08,1.13,157.4,M,-34.4,M,0000,0000*5D
lng=-77.681236, lat=43.086044, altitude=157.40, speed=0.01, satellites=8, angle=238.9000, fixquality=2
$GPRMC,212153.000,A,4305.1624,N,07740.8741,W,0.01,238.90,280319,,,D*72
$GPGGA,212153.200,4305.1624,N,07740.8741,W,2,08,1.13,157.4,M,-34.4,M,0000,0000*56
lng=-77.681236, lat=43.086044, altitude=157.40, speed=0.01, satellites=8, angle=238.9000, fixquality=2
$GPRMC,212153.400,A,4305.1624,N,07740.8741,W,0.02,238.90,280319,,,D*75
$GPGGA,212153.600,4305.1624,N,07740.8741,W,2,08,1.13,157.4,M,-34.4,M,0000,0000*52
lng=-77.681236, lat=43.086044, altitude=157.40, speed=0.02, satellites=8, angle=238.9000, fixquality=2
$GPRMC,212153.800,A,4305.1624,N,07740.8741,W,0.01,238.90,280319,,,D*7A
$GPGGA,212154.000,4305.1624,N,07740.8741,W,2,08,1.13,157.4,M,-34.4,M,0000,0000*53
lng=-77.681236, lat=43.086044, altitude=157.40, speed=0.01, satellites=8, angle=238.9000, fixquality=2
$GPRMC,212154.200,A,4305.1624,N,07740.8741,W,0.02,238.90,280319,,,D*74
$GPGGA,212154.400,4305.1624,N,07740.8741,W,2,08,1.13,157.4,M,-34.4,M,0000,0000*57
lng=-77.681236, lat=43.086044, altitude=157.40, speed=0.02, satellites=8, angle=238.9000, fixquality=2
$GPRMC,212154.600,A,4305.1624,N,07740.8741,W,0.01,238.90,280319,,,D*73
$GPGGA,212154.800,4305.1624,N,07740.8741,W,2,08,1.13,157.4,M,-34.4,M,0000,0000*5B
lng=-77.681236, lat=43.086044, altitude=157.40, speed=0.01, satellites=8, angle=238.9000, fixquality=2
$GPRMC,212155.000,A,4305.1624,N,07740.8741,W,0.00,238.90,280319,,,D*75
$GPGGA,212155.200,4305.1624,N,07740.8741,W,2,08,1.13,157.4,M,-34.4,M,0000,0000*50
lng=-77.681236, lat=43.086044, altitude=157.40, speed=0.00, satellites=8, angle=238.9000, fixquality=2
$GPRMC,212155.400,A,4305.1624,N,07740.8741,W,0.01,238.90,280319,,,D*70
$GPGGA,212155.600,4305.1624,N,07740.8741,W,2,08,1.13,157.4,M,-34.4,M,0000,0000*54
lng=-77.681236, lat=43.086044, altitude=157.40, speed=0.01, satellites=8, angle=238.9000, fixquality=2
$GPRMC,212155.800,A,4305.1624,N,07740.8741,W,0.00,238.90,280319,,,D*7D
$GPGGA,212156.000,4305.1624,N,07740.8741,W,2,08,1.13,157.4,M,-34.4,M,0000,0000*51
lng=-77.681236, lat=43.086044, altitude=157.40, speed=0.00, satellites=8, angle=238.9000, fixquality=2
$GPRMC,212156.200,A,4305.1624,N,07740.8741,W,0.00,238.90,280319,,,D*74
$GPGGA,212156.400,4305.1624,N,07740.8741,W,2,08,1.13,157.4,M,-34.4,M,0000,0000*55
lng=-77.681236, lat=43.086044, altitude=157.40, speed=0.00, satellites=8, angle=238.9000, fixquality=2
$GPRMC,212156.600,A,4305.1624,N,07740.8741,W,0.00,238.90,280319,,,D*70
$GPGGA,212156.800,4305.1624,N,07740.8741,W,2,08,1.13,157.4,M,-34.4,M,0000,0000*59
lng=-77.681236, lat=43.086044, altitude=157.40, speed=0.00, satellites=8, angle=238.9000, fixquality=2
$GPRMC,212157.000,A,4305.1624,N,07740.8741,W,0.01,238.90,280319,,,D*76
$GPGGA,212157.200,4305.1624,N,07740.8741,W,2,08,1.13,157.4,M,-34.4,M,0000,0000*52
lng=-77.681236, lat=43.086044, altitude=157.40, speed=0.01, satellites=8, angle=238.9000, fixquality=2
$GPRMC,212157.400,A,4305.1624,N,07740.8741,W,0.01,238.90,280319,,,D*72
$GPGGA,212157.600,4305.1624,N,07740.8741,W,2,08,1.13,157.4,M,-34.4,M,0000,0000*56
lng=-77.681236, lat=43.086044, altitude=157.40, speed=0.01, satellites=8, angle=238.9000, fixquality=2
$GPRMC,212157.800,A,4305.1624,N,07740.8741,W,0.00,238.90,280319,,,D*7F
$GPGGA,212158.000,4305.1624,N,07740.8741,W,2,08,1.13,157.4,M,-34.4,M,0000,0000*5F
lng=-77.681236, lat=43.086044, altitude=157.40, speed=0.00, satellites=8, angle=238.9000, fixquality=2
$GPRMC,212158.200,A,4305.1624,N,07740.8741,W,0.01,238.90,280319,,,D*7B
$GPGGA,212158.400,4305.1624,N,07740.8741,W,2,08,1.13,157.4,M,-34.4,M,0000,0000*5B
lng=-77.681236, lat=43.086044, altitude=157.40, speed=0.01, satellites=8, angle=238.9000, fixquality=2
$GPRMC,212158.600,A,4305.1624,N,07740.8741,W,0.01,238.90,280319,,,D*7F
$GPGGA,212158.800,4305.1624,N,07740.8741,W,2,08,1.13,157.4,M,-34.4,M,0000,0000*57
lng=-77.681236, lat=43.086044, altitude=157.40, speed=0.01, satellites=8, angle=238.9000, fixquality=2
$GPRMC,212159.000,A,4305.1624,N,07740.8741,W,0.00,238.90,280319,,,D*79
$GPGGA,212159.200,4305.1624,N,07740.8741,W,2,08,1.13,157.4,M,-34.4,M,0000,0000*5C
lng=-77.681236, lat=43.086044, altitude=157.40, speed=0.00, satellites=8, angle=238.9000, fixquality=2
$GPRMC,212159.400,A,4305.1624,N,07740.8741,W,0.00,238.90,280319,,,D*7D
$GPGGA,212159.600,4305.1624,N,07740.8741,W,2,08,1.13,157.4,M,-34.4,M,0000,0000*58
lng=-77.681236, lat=43.086044, altitude=157.40, speed=0.00, satellites=8, angle=238.9000, fixquality=2
$GPRMC,212159.800,A,4305.1624,N,07740.8741,W,0.00,238.90,280319,,,D*71
$GPGGA,212200.000,4305.1624,N,07740.8741,W,2,08,1.13,157.4,M,-34.4,M,0000,0000*51
lng=-77.681236, lat=43.086044, altitude=157.40, speed=0.00, satellites=8, angle=238.9000, fixquality=2
$GPRMC,212200.200,A,4305.1624,N,07740.8741,W,0.00,238.90,280319,,,D*74
$GPGGA,212200.400,4305.1624,N,07740.8741,W,2,08,1.13,157.4,M,-34.4,M,0000,0000*55
lng=-77.681236, lat=43.086044, altitude=157.40, speed=0.00, satellites=8, angle=238.9000, fixquality=2
$GPRMC,212200.600,A,4305.1624,N,07740.8741,W,0.01,238.90,280319,,,D*71
$GPGGA,212200.800,4305.1624,N,07740.8741,W,2,08,1.13,157.4,M,-34.4,M,0000,0000*59
lng=-77.681236, lat=43.086044, altitude=157.40, speed=0.01, satellites=8, angle=238.9000, fixquality=2
$GPRMC,212201.000,A,4305.1624,N,07740.8741,W,0.00,238.90,280319,,,D*77
$GPGGA,212201.200,4305.1624,N,07740.8741,W,2,08,1.13,157.4,M,-34.4,M,0000,0000*52
lng=-77.681236, lat=43.086044, altitude=157.40, speed=0.00, satellites=8, angle=238.9000, fixquality=2
$GPRMC,212201.400,A,4305.1624,N,07740.8741,W,0.00,238.90,280319,,,D*73
$GPGGA,212201.600,4305.1624,N,07740.8741,W,2,08,1.13,157.4,M,-34.4,M,0000,0000*56
lng=-77.681236, lat=43.086044, altitude=157.40, speed=0.00, satellites=8, angle=238.9000, fixquality=2
$GPRMC,212201.800,A,4305.1624,N,07740.8741,W,0.01,238.90,280319,,,D*7E
$GPGGA,212202.000,4305.1624,N,07740.8741,W,2,08,1.13,157.4,M,-34.4,M,0000,0000*53
lng=-77.681236, lat=43.086044, altitude=157.40, speed=0.01, satellites=8, angle=238.9000, fixquality=2
$GPRMC,212202.200,A,4305.1624,N,07740.8741,W,0.01,238.90,280319,,,D*77
$GPGGA,212202.400,4305.1624,N,07740.8741,W,2,08,1.13,157.4,M,-34.4,M,0000,0000*57
lng=-77.681236, lat=43.086044, altitude=157.40, speed=0.01, satellites=8, angle=238.9000, fixquality=2
$GPRMC,212202.600,A,4305.1624,N,07740.8741,W,0.00,238.90,280319,,,D*72
$GPGGA,212202.800,4305.1624,N,07740.8741,W,2,08,1.13,157.4,M,-34.4,M,0000,0000*5B
lng=-77.681236, lat=43.086044, altitude=157.40, speed=0.00, satellites=8, angle=238.9000, fixquality=2
$GPRMC,212203.000,A,4305.1624,N,07740.8741,W,0.01,238.90,280319,,,D*74
$GPGGA,212203.200,4305.1624,N,07740.8741,W,2,08,1.13,157.4,M,-34.4,M,0000,0000*50
lng=-77.681236, lat=43.086044, altitude=157.40, speed=0.01, satellites=8, angle=238.9000, fixquality=2
$GPRMC,212203.400,A,4305.1624,N,07740.8741,W,0.00,238.90,280319,,,D*71
$GPGGA,212203.600,4305.1624,N,07740.8741,W,2,08,1.13,157.4,M,-34.4,M,0000,0000*54
lng=-77.681236, lat=43.086044, altitude=157.40, speed=0.00, satellites=8, angle=238.9000, fixquality=2
$GPRMC,212203.800,A,4305.1624,N,07740.8741,W,0.01,238.90,280319,,,D*7C
$GPGGA,212204.000,4305.1624,N,07740.8741,W,2,08,1.13,157.4,M,-34.4,M,0000,0000*55
lng=-77.681236, lat=43.086044, altitude=157.40, speed=0.01, satellites=8, angle=238.9000, fixquality=2
$GPRMC,212204.200,A,4305.1624,N,07740.8741,W,0.00,238.90,280319,,,D*70
$GPGGA,212204.400,4305.1624,N,07740.8741,W,2,08,1.13,157.4,M,-34.4,M,0000,0000*51
lng=-77.681236, lat=43.086044, altitude=157.40, speed=0.00, satellites=8, angle=238.9000, fixquality=2
$GPRMC,212204.600,A,4305.1624,N,07740.8741,W,0.04,238.90,280319,,,D*70
$GPGGA,212204.800,4305.1624,N,07740.8741,W,2,08,1.13,157.4,M,-34.4,M,0000,0000*5D
lng=-77.681236, lat=43.086044, altitude=157.40, speed=0.04, satellites=8, angle=238.9000, fixquality=2
$GPRMC,212205.000,A,4305.1624,N,07740.8741,W,0.07,238.90,280319,,,D*74
$GPGGA,212205.200,4305.1624,N,07740.8741,W,2,08,1.13,157.4,M,-34.4,M,0000,0000*56
lng=-77.681236, lat=43.086044, altitude=157.40, speed=0.07, satellites=8, angle=238.9000, fixquality=2
$GPRMC,212205.400,A,4305.1624,N,07740.8741,W,0.26,238.90,280319,,,D*73
$GPGGA,212205.600,4305.1624,N,07740.8741,W,2,08,1.13,157.4,M,-34.4,M,0000,0000*52
lng=-77.681236, lat=43.086044, altitude=157.40, speed=0.26, satellites=8, angle=238.9000, fixquality=2
$GPRMC,212205.800,A,4305.1625,N,07740.8741,W,1.25,238.90,280319,,,D*7C
$GPGGA,212206.000,4305.1626,N,07740.8741,W,2,08,1.13,157.4,M,-34.4,M,0000,0000*55
lng=-77.681236, lat=43.086044, altitude=157.40, speed=1.25, satellites=8, angle=238.9000, fixquality=2
$GPRMC,212206.200,A,4305.1626,N,07740.8740,W,1.80,5.58,280319,,,D*70
$GPGGA,212206.400,4305.1628,N,07740.8740,W,2,08,1.13,157.4,M,-34.4,M,0000,0000*5E
lng=-77.681236, lat=43.086044, altitude=157.40, speed=1.80, satellites=8, angle=5.5800, fixquality=2
$GPRMC,212206.600,A,4305.1629,N,07740.8740,W,2.09,9.96,280319,,,D*77
$GPGGA,212206.800,4305.1630,N,07740.8739,W,2,08,1.13,157.4,M,-34.4,M,0000,0000*55
lng=-77.681236, lat=43.086051, altitude=157.40, speed=2.09, satellites=8, angle=9.9600, fixquality=2
$GPRMC,212207.000,A,4305.1631,N,07740.8738,W,2.72,14.62,280319,,,D*4D
$GPGGA,212207.200,4305.1633,N,07740.8737,W,2,08,1.13,157.3,M,-34.4,M,0000,0000*54
lng=-77.681236, lat=43.086051, altitude=157.40, speed=2.72, satellites=8, angle=14.6200, fixquality=2
$GPRMC,212207.400,A,4305.1635,N,07740.8736,W,3.05,20.42,280319,,,D*47
$GPGGA,212207.600,4305.1636,N,07740.8736,W,2,08,1.05,157.3,M,-34.4,M,0000,0000*53
lng=-77.681228, lat=43.086059, altitude=157.30, speed=3.05, satellites=8, angle=20.4200, fixquality=2
$GPRMC,212207.800,A,4305.1638,N,07740.8734,W,3.52,24.20,280319,,,D*46
$GPGGA,212208.000,4305.1640,N,07740.8733,W,2,07,1.15,157.3,M,-34.4,M,0000,0000*50
lng=-77.681228, lat=43.086059, altitude=157.30, speed=3.52, satellites=8, angle=24.2000, fixquality=2
$GPRMC,212208.200,A,4305.1642,N,07740.8731,W,3.35,30.21,280319,,,D*4E
$GPGGA,212208.400,4305.1643,N,07740.8730,W,2,06,1.63,157.2,M,-34.4,M,0000,0000*55
lng=-77.681221, lat=43.086067, altitude=157.30, speed=3.35, satellites=7, angle=30.2100, fixquality=2
$GPRMC,212208.600,A,4305.1645,N,07740.8727,W,3.66,36.35,280319,,,D*4F
$GPGGA,212208.800,4305.1646,N,07740.8725,W,2,07,1.15,157.2,M,-34.4,M,0000,0000*58
lng=-77.681205, lat=43.086074, altitude=157.20, speed=3.66, satellites=6, angle=36.3500, fixquality=2
$GPRMC,212209.000,A,4305.1647,N,07740.8723,W,3.44,45.74,280319,,,D*4F
$GPGGA,212209.200,4305.1649,N,07740.8721,W,2,08,1.05,157.2,M,-34.4,M,0000,0000*56
lng=-77.681198, lat=43.086074, altitude=157.20, speed=3.44, satellites=7, angle=45.7400, fixquality=2
$GPRMC,212209.400,A,4305.1650,N,07740.8719,W,3.41,53.36,280319,,,D*40
$GPGGA,212209.600,4305.1651,N,07740.8717,W,2,07,1.15,157.1,M,-34.4,M,0000,0000*53
lng=-77.681198, lat=43.086082, altitude=157.20, speed=3.41, satellites=8, angle=53.3600, fixquality=2
$GPRMC,212209.800,A,4305.1652,N,07740.8714,W,3.30,58.16,280319,,,D*4C
$GPGGA,212210.000,4305.1652,N,07740.8712,W,2,08,1.05,157.0,M,-34.4,M,0000,0000*54
lng=-77.681190, lat=43.086082, altitude=157.10, speed=3.30, satellites=7, angle=58.1600, fixquality=2
$GPRMC,212210.200,A,4305.1653,N,07740.8710,W,2.93,68.79,280319,,,D*49
$GPGGA,212210.400,4305.1653,N,07740.8707,W,2,08,1.05,156.9,M,-34.4,M,0000,0000*5D
lng=-77.681182, lat=43.086093, altitude=157.00, speed=2.93, satellites=8, angle=68.7900, fixquality=2
$GPRMC,212210.600,A,4305.1654,N,07740.8704,W,2.98,75.39,280319,,,D*4C
$GPGGA,212210.800,4305.1654,N,07740.8701,W,2,08,1.05,156.7,M,-34.4,M,0000,0000*5E
lng=-77.681175, lat=43.086093, altitude=156.90, speed=2.98, satellites=8, angle=75.3900, fixquality=2
$GPRMC,212211.000,A,4305.1654,N,07740.8698,W,3.25,80.60,280319,,,D*4E
$GPGGA,212211.200,4305.1654,N,07740.8696,W,2,07,1.10,156.7,M,-34.4,M,0000,0000*51
lng=-77.681159, lat=43.086093, altitude=156.70, speed=3.25, satellites=8, angle=80.6000, fixquality=2
$GPRMC,212211.400,A,4305.1654,N,07740.8693,W,3.25,84.76,280319,,,D*42
$GPGGA,212211.600,4305.1655,N,07740.8690,W,2,08,1.05,156.6,M,-34.4,M,0000,0000*58
lng=-77.681152, lat=43.086093, altitude=156.70, speed=3.25, satellites=7, angle=84.7600, fixquality=2
$GPRMC,212211.800,A,4305.1654,N,07740.8687,W,2.67,89.05,280319,,,D*45
$GPGGA,212212.000,4305.1654,N,07740.8686,W,2,08,1.05,156.6,M,-34.4,M,0000,0000*5B
lng=-77.681144, lat=43.086093, altitude=156.60, speed=2.67, satellites=8, angle=89.0500, fixquality=2
$GPRMC,212212.200,A,4305.1653,N,07740.8684,W,1.50,96.43,280319,,,D*43
$GPGGA,212212.400,4305.1653,N,07740.8684,W,2,08,1.05,156.5,M,-34.4,M,0000,0000*59
lng=-77.681137, lat=43.086093, altitude=156.60, speed=1.50, satellites=8, angle=96.4300, fixquality=2
$GPRMC,212212.600,A,4305.1653,N,07740.8683,W,0.85,97.99,280319,,,D*4F
$GPGGA,212212.800,4305.1653,N,07740.8683,W,2,08,1.05,156.5,M,-34.4,M,0000,0000*52
lng=-77.681137, lat=43.086093, altitude=156.50, speed=0.85, satellites=8, angle=97.9900, fixquality=2
$GPRMC,212213.000,A,4305.1653,N,07740.8684,W,0.24,97.99,280319,,,D*44
$GPGGA,212213.200,4305.1654,N,07740.8685,W,2,08,1.05,156.4,M,-34.4,M,0000,0000*59
lng=-77.681137, lat=43.086093, altitude=156.50, speed=0.24, satellites=8, angle=97.9900, fixquality=2
$GPRMC,212213.400,A,4305.1654,N,07740.8686,W,0.60,311.96,280319,,,D*77
$GPGGA,212213.600,4305.1654,N,07740.8687,W,2,07,1.10,156.4,M,-34.4,M,0000,0000*54
lng=-77.681144, lat=43.086093, altitude=156.40, speed=0.60, satellites=8, angle=311.9600, fixquality=2
$GPRMC,212213.800,A,4305.1654,N,07740.8689,W,1.03,287.61,280319,,,D*76
$GPGGA,212214.000,4305.1654,N,07740.8690,W,2,07,1.10,156.4,M,-34.4,M,0000,0000*53
lng=-77.681152, lat=43.086093, altitude=156.40, speed=1.03, satellites=7, angle=287.6100, fixquality=2
$GPRMC,212214.200,A,4305.1654,N,07740.8692,W,1.28,278.33,280319,,,D*7F
$GPGGA,212214.400,4305.1653,N,07740.8693,W,2,08,1.05,156.3,M,-34.4,M,0000,0000*5F
lng=-77.681152, lat=43.086093, altitude=156.40, speed=1.28, satellites=7, angle=278.3300, fixquality=2
$GPRMC,212214.600,A,4305.1653,N,07740.8696,W,2.00,276.71,280319,,,D*79
$GPGGA,212214.800,4305.1653,N,07740.8699,W,2,08,1.05,156.3,M,-34.4,M,0000,0000*59
lng=-77.681159, lat=43.086093, altitude=156.30, speed=2.00, satellites=8, angle=276.7100, fixquality=2
$GPRMC,212215.000,A,4305.1653,N,07740.8703,W,4.09,272.43,280319,,,D*79
$GPGGA,212215.200,4305.1653,N,07740.8707,W,2,08,1.05,156.3,M,-34.4,M,0000,0000*54
lng=-77.681167, lat=43.086093, altitude=156.30, speed=4.09, satellites=8, angle=272.4300, fixquality=2
$GPRMC,212215.400,A,4305.1652,N,07740.8711,W,5.33,267.21,280319,,,D*77
$GPGGA,212215.600,4305.1652,N,07740.8715,W,2,08,1.05,156.2,M,-34.4,M,0000,0000*53
lng=-77.681182, lat=43.086082, altitude=156.30, speed=5.33, satellites=8, angle=267.2100, fixquality=2
$GPRMC,212215.800,A,4305.1652,N,07740.8720,W,5.74,269.02,280319,,,D*75
$GPGGA,212216.000,4305.1651,N,07740.8724,W,2,08,1.05,156.2,M,-34.4,M,0000,0000*57
lng=-77.681198, lat=43.086082, altitude=156.20, speed=5.74, satellites=8, angle=269.0200, fixquality=2
$GPRMC,212216.200,A,4305.1651,N,07740.8729,W,6.19,270.23,280319,,,D*75
$GPGGA,212216.400,4305.1651,N,07740.8734,W,2,07,1.18,156.2,M,-34.4,M,0000,0000*51
lng=-77.681221, lat=43.086082, altitude=156.20, speed=6.19, satellites=8, angle=270.2300, fixquality=2
$GPRMC,212216.600,A,4305.1651,N,07740.8739,W,6.57,271.34,280319,,,D*7D
$GPGGA,212216.800,4305.1651,N,07740.8745,W,2,07,1.18,156.1,M,-34.4,M,0000,0000*58
lng=-77.681236, lat=43.086082, altitude=156.20, speed=6.57, satellites=7, angle=271.3400, fixquality=2
$GPRMC,212217.000,A,4305.1651,N,07740.8751,W,6.87,272.19,280319,,,D*75
$GPGGA,212217.200,4305.1651,N,07740.8757,W,2,07,1.18,156.1,M,-34.4,M,0000,0000*50
lng=-77.681251, lat=43.086082, altitude=156.10, speed=6.87, satellites=7, angle=272.1900, fixquality=2
$GPRMC,212217.400,A,4305.1650,N,07740.8763,W,7.46,271.58,280319,,,D*7B
$GPGGA,212217.600,4305.1650,N,07740.8769,W,2,07,1.18,156.0,M,-34.4,M,0000,0000*59
lng=-77.681274, lat=43.086082, altitude=156.10, speed=7.46, satellites=7, angle=271.5800, fixquality=2
$GPRMC,212217.800,A,4305.1650,N,07740.8777,W,7.77,270.74,280319,,,D*7F
$GPGGA,212218.000,4305.1649,N,07740.8783,W,2,08,1.13,155.9,M,-34.4,M,0000,0000*52
lng=-77.681297, lat=43.086082, altitude=156.00, speed=7.77, satellites=7, angle=270.7400, fixquality=2
$GPRMC,212218.200,A,4305.1649,N,07740.8789,W,8.13,267.76,280319,,,D*7A
$GPGGA,212218.400,4305.1649,N,07740.8795,W,2,08,1.13,155.9,M,-34.4,M,0000,0000*51
lng=-77.681312, lat=43.086082, altitude=155.90, speed=8.13, satellites=8, angle=267.7600, fixquality=2
$GPRMC,212218.600,A,4305.1648,N,07740.8801,W,7.99,261.12,280319,,,D*79
$GPGGA,212218.800,4305.1647,N,07740.8807,W,2,08,1.13,156.0,M,-34.4,M,0000,0000*5D
lng=-77.681327, lat=43.086082, altitude=155.90, speed=7.99, satellites=8, angle=261.1200, fixquality=2
$GPRMC,212219.000,A,4305.1647,N,07740.8813,W,8.73,254.86,280319,,,D*72
$GPGGA,212219.200,4305.1646,N,07740.8820,W,2,08,1.13,155.9,M,-34.4,M,0000,0000*58
lng=-77.681358, lat=43.086074, altitude=156.00, speed=8.73, satellites=8, angle=254.8600, fixquality=2
$GPRMC,212219.400,A,4305.1644,N,07740.8826,W,8.44,247.98,280319,,,D*7A
$GPGGA,212219.600,4305.1643,N,07740.8831,W,2,08,1.05,155.9,M,-34.4,M,0000,0000*5E
lng=-77.681381, lat=43.086074, altitude=155.90, speed=8.44, satellites=8, angle=247.9800, fixquality=2
$GPRMC,212219.800,A,4305.1641,N,07740.8835,W,8.22,244.63,280319,,,D*76
$GPGGA,212220.000,4305.1639,N,07740.8840,W,2,08,1.05,156.0,M,-34.4,M,0000,0000*53
lng=-77.681388, lat=43.086067, altitude=155.90, speed=8.22, satellites=8, angle=244.6300, fixquality=2
$GPRMC,212220.200,A,4305.1636,N,07740.8844,W,8.08,237.84,280319,,,D*75
$GPGGA,212220.400,4305.1632,N,07740.8850,W,2,07,1.15,156.0,M,-34.4,M,0000,0000*53
lng=-77.681404, lat=43.086059, altitude=156.00, speed=8.08, satellites=8, angle=237.8400, fixquality=2
$GPRMC,212220.600,A,4305.1629,N,07740.8855,W,8.15,233.68,280319,,,D*75
$GPGGA,212220.800,4305.1625,N,07740.8860,W,2,06,1.24,156.1,M,-34.4,M,0000,0000*58
lng=-77.681427, lat=43.086051, altitude=156.00, speed=8.15, satellites=7, angle=233.6800, fixquality=2
$GPRMC,212221.000,A,4305.1621,N,07740.8863,W,8.14,223.61,280319,,,D*76
$GPGGA,212221.200,4305.1616,N,07740.8867,W,2,08,1.05,156.1,M,-34.4,M,0000,0000*59
lng=-77.681434, lat=43.086036, altitude=156.10, speed=8.14, satellites=6, angle=223.6100, fixquality=2
$GPRMC,212221.400,A,4305.1611,N,07740.8870,W,8.61,209.82,280319,,,D*74
$GPGGA,212221.600,4305.1607,N,07740.8873,W,2,08,1.05,156.2,M,-34.4,M,0000,0000*5B
lng=-77.681449, lat=43.086017, altitude=156.10, speed=8.61, satellites=8, angle=209.8200, fixquality=2
$GPRMC,212221.800,A,4305.1602,N,07740.8876,W,8.61,204.29,280319,,,D*70
$GPGGA,212222.000,4305.1597,N,07740.8878,W,2,08,1.05,156.2,M,-34.4,M,0000,0000*5F
lng=-77.681465, lat=43.086002, altitude=156.20, speed=8.61, satellites=8, angle=204.2900, fixquality=2
$GPRMC,212222.200,A,4305.1591,N,07740.8880,W,8.60,197.61,280319,,,D*7D
$GPGGA,212222.400,4305.1586,N,07740.8882,W,2,08,1.05,156.3,M,-34.4,M,0000,0000*5F
lng=-77.681472, lat=43.085987, altitude=156.20, speed=8.60, satellites=8, angle=197.6100, fixquality=2
$GPRMC,212222.600,A,4305.1581,N,07740.8883,W,8.58,193.33,280319,,,D*73
$GPGGA,212222.800,4305.1577,N,07740.8884,W,2,08,1.05,156.4,M,-34.4,M,0000,0000*5C
lng=-77.681472, lat=43.085971, altitude=156.30, speed=8.58, satellites=8, angle=193.3300, fixquality=2
$GPRMC,212223.000,A,4305.1571,N,07740.8885,W,8.54,187.30,280319,,,D*77
$GPGGA,212223.200,4305.1566,N,07740.8886,W,2,08,1.05,156.4,M,-34.4,M,0000,0000*55
lng=-77.681480, lat=43.085952, altitude=156.40, speed=8.54, satellites=8, angle=187.3000, fixquality=2
$GPRMC,212223.400,A,4305.1561,N,07740.8887,W,9.14,182.73,280319,,,D*77
$GPGGA,212223.600,4305.1556,N,07740.8887,W,2,08,1.05,156.5,M,-34.4,M,0000,0000*52
lng=-77.681480, lat=43.085937, altitude=156.40, speed=9.14, satellites=8, angle=182.7300, fixquality=2
$GPRMC,212223.800,A,4305.1550,N,07740.8887,W,9.35,180.73,280319,,,D*78
$GPGGA,212224.000,4305.1545,N,07740.8887,W,2,08,1.05,156.6,M,-34.4,M,0000,0000*52
lng=-77.681480, lat=43.085914, altitude=156.50, speed=9.35, satellites=8, angle=180.7300, fixquality=2
$GPRMC,212224.200,A,4305.1539,N,07740.8886,W,9.83,183.24,280319,,,D*77
$GPGGA,212224.400,4305.1534,N,07740.8887,W,2,08,1.13,156.7,M,-34.4,M,0000,0000*56
lng=-77.681480, lat=43.085895, altitude=156.60, speed=9.83, satellites=8, angle=183.2400, fixquality=2
$GPRMC,212224.600,A,4305.1528,N,07740.8888,W,9.82,186.22,280319,,,D*7F
$GPGGA,212224.800,4305.1523,N,07740.8890,W,2,08,1.05,156.7,M,-34.4,M,0000,0000*5D
lng=-77.681480, lat=43.085880, altitude=156.70, speed=9.82, satellites=8, angle=186.2200, fixquality=2
$GPRMC,212225.000,A,4305.1517,N,07740.8890,W,9.57,194.06,280319,,,D*70
$GPGGA,212225.200,4305.1511,N,07740.8891,W,2,08,1.05,156.8,M,-34.4,M,0000,0000*59
lng=-77.681488, lat=43.085865, altitude=156.70, speed=9.57, satellites=8, angle=194.0600, fixquality=2
$GPRMC,212225.400,A,4305.1506,N,07740.8892,W,9.41,201.45,280319,,,D*79
$GPGGA,212225.600,4305.1501,N,07740.8894,W,2,06,1.24,156.8,M,-34.4,M,0000,0000*54
lng=-77.681488, lat=43.085838, altitude=156.80, speed=9.41, satellites=8, angle=201.4500, fixquality=2
$GPRMC,212225.800,A,4305.1497,N,07740.8897,W,9.95,206.83,280319,,,D*7D
$GPGGA,212226.000,4305.1493,N,07740.8901,W,2,06,1.24,156.8,M,-34.4,M,0000,0000*56
lng=-77.681495, lat=43.085830, altitude=156.80, speed=9.95, satellites=6, angle=206.8300, fixquality=2
$GPRMC,212226.200,A,4305.1489,N,07740.8905,W,9.16,220.77,280319,,,D*75
$GPGGA,212226.400,4305.1484,N,07740.8909,W,2,07,1.16,156.8,M,-34.4,M,0000,0000*5C
lng=-77.681510, lat=43.085815, altitude=156.80, speed=9.16, satellites=6, angle=220.7700, fixquality=2
$GPRMC,212226.600,A,4305.1481,N,07740.8913,W,9.19,222.18,280319,,,D*7A
$GPGGA,212226.800,4305.1477,N,07740.8919,W,2,07,1.16,156.8,M,-34.4,M,0000,0000*5D
lng=-77.681518, lat=43.085800, altitude=156.80, speed=9.19, satellites=7, angle=222.1800, fixquality=2
$GPRMC,212227.000,A,4305.1474,N,07740.8924,W,9.18,230.48,280319,,,D*74
$GPGGA,212227.200,4305.1472,N,07740.8930,W,2,07,1.16,156.7,M,-34.4,M,0000,0000*57
lng=-77.681541, lat=43.085792, altitude=156.80, speed=9.18, satellites=7, angle=230.4800, fixquality=2
$GPRMC,212227.400,A,4305.1469,N,07740.8935,W,8.89,240.68,280319,,,D*70
$GPGGA,212227.600,4305.1468,N,07740.8940,W,2,08,1.05,156.7,M,-34.4,M,0000,0000*52
lng=-77.681556, lat=43.085781, altitude=156.70, speed=8.89, satellites=7, angle=240.6800, fixquality=2
$GPRMC,212227.800,A,4305.1467,N,07740.8945,W,8.89,248.03,280319,,,D*70
$GPGGA,212228.000,4305.1466,N,07740.8952,W,2,08,1.05,156.7,M,-34.4,M,0000,0000*56
lng=-77.681571, lat=43.085773, altitude=156.70, speed=8.89, satellites=8, angle=248.0300, fixquality=2
$GPRMC,212228.200,A,4305.1465,N,07740.8958,W,9.88,259.71,280319,,,D*7E
$GPGGA,212228.400,4305.1463,N,07740.8966,W,2,08,1.05,156.6,M,-34.4,M,0000,0000*51
lng=-77.681602, lat=43.085773, altitude=156.70, speed=9.88, satellites=8, angle=259.7100, fixquality=2
$GPRMC,212228.600,A,4305.1462,N,07740.8974,W,10.50,263.14,280319,,,D*44
$GPGGA,212228.800,4305.1461,N,07740.8983,W,2,07,1.10,156.6,M,-34.4,M,0000,0000*5F
lng=-77.681625, lat=43.085765, altitude=156.60, speed=10.50, satellites=8, angle=263.1400, fixquality=2
$GPRMC,212229.000,A,4305.1460,N,07740.8991,W,10.94,269.45,280319,,,D*4C
$GPGGA,212229.200,4305.1460,N,07740.8999,W,2,08,1.05,156.5,M,-34.4,M,0000,0000*56
lng=-77.681648, lat=43.085765, altitude=156.60, speed=10.94, satellites=7, angle=269.4500, fixquality=2
$GPRMC,212229.400,A,4305.1460,N,07740.9008,W,11.34,274.17,280319,,,D*40
$GPGGA,212229.600,4305.1460,N,07740.9016,W,2,08,1.05,156.5,M,-34.4,M,0000,0000*5D
lng=-77.681678, lat=43.085765, altitude=156.50, speed=11.34, satellites=8, angle=274.1700, fixquality=2
$GPRMC,212229.800,A,4305.1460,N,07740.9024,W,10.88,277.87,280319,,,D*4E
$GPGGA,212230.000,4305.1460,N,07740.9032,W,2,08,1.05,156.4,M,-34.4,M,0000,0000*54
lng=-77.681709, lat=43.085765, altitude=156.50, speed=10.88, satellites=8, angle=277.8700, fixquality=2
$GPRMC,212230.200,A,4305.1460,N,07740.9040,W,10.52,280.30,280319,,,D*4D
$GPGGA,212230.400,4305.1460,N,07740.9048,W,2,08,1.05,156.4,M,-34.4,M,0000,0000*5D
lng=-77.681732, lat=43.085765, altitude=156.40, speed=10.52, satellites=8, angle=280.3000, fixquality=2
$GPRMC,212230.600,A,4305.1460,N,07740.9055,W,10.59,281.28,280319,,,D*4E
$GPGGA,212230.800,4305.1460,N,07740.9062,W,2,08,1.05,156.3,M,-34.4,M,0000,0000*5E
lng=-77.681755, lat=43.085765, altitude=156.40, speed=10.59, satellites=8, angle=281.2800, fixquality=2
$GPRMC,212231.000,A,4305.1460,N,07740.9070,W,10.66,284.00,280319,,,D*4D
$GPGGA,212231.200,4305.1461,N,07740.9078,W,2,08,1.05,156.2,M,-34.4,M,0000,0000*5E
lng=-77.681785, lat=43.085765, altitude=156.30, speed=10.66, satellites=8, angle=284.0000, fixquality=2
$GPRMC,212231.400,A,4305.1461,N,07740.9086,W,11.00,283.81,280319,,,D*4E
$GPGGA,212231.600,4305.1462,N,07740.9094,W,2,08,1.05,156.1,M,-34.4,M,0000,0000*58
lng=-77.681808, lat=43.085765, altitude=156.20, speed=11.00, satellites=8, angle=283.8100, fixquality=2
$GPRMC,212231.800,A,4305.1462,N,07740.9102,W,10.86,287.14,280319,,,D*4B
$GPGGA,212232.000,4305.1463,N,07740.9110,W,2,08,1.05,156.0,M,-34.4,M,0000,0000*50
lng=-77.681838, lat=43.085765, altitude=156.10, speed=10.86, satellites=8, angle=287.1400, fixquality=2
$GPRMC,212232.200,A,4305.1465,N,07740.9118,W,11.59,286.71,280319,,,D*4F
$GPGGA,212232.400,4305.1467,N,07740.9127,W,2,08,1.05,156.0,M,-34.4,M,0000,0000*54
lng=-77.681861, lat=43.085773, altitude=156.00, speed=11.59, satellites=8, angle=286.7100, fixquality=2
$GPRMC,212232.600,A,4305.1468,N,07740.9137,W,12.02,287.10,280319,,,D*40
$GPGGA,212232.800,4305.1470,N,07740.9146,W,2,08,1.05,155.8,M,-34.4,M,0000,0000*52
lng=-77.681892, lat=43.085781, altitude=156.00, speed=12.02, satellites=8, angle=287.1000, fixquality=2
$GPRMC,212233.000,A,4305.1471,N,07740.9156,W,12.50,287.14,280319,,,D*4B
$GPGGA,212233.200,4305.1473,N,07740.9165,W,2,08,1.13,155.7,M,-34.4,M,0000,0000*53
lng=-77.681922, lat=43.085781, altitude=155.80, speed=12.50, satellites=8, angle=287.1400, fixquality=2
$GPRMC,212233.400,A,4305.1474,N,07740.9175,W,12.96,286.24,280319,,,D*43
$GPGGA,212233.600,4305.1476,N,07740.9184,W,2,08,1.13,155.5,M,-34.4,M,0000,0000*5F
lng=-77.681961, lat=43.085792, altitude=155.70, speed=12.96, satellites=8, angle=286.2400, fixquality=2
$GPRMC,212233.800,A,4305.1477,N,07740.9194,W,13.42,284.46,280319,,,D*4D
$GPGGA,212234.000,4305.1478,N,07740.9204,W,2,08,1.13,155.4,M,-34.4,M,0000,0000*5A
lng=-77.681991, lat=43.085792, altitude=155.50, speed=13.42, satellites=8, angle=284.4600, fixquality=2
$GPRMC,212234.200,A,4305.1480,N,07740.9214,W,13.80,283.94,280319,,,D*45
$GPGGA,212234.400,4305.1481,N,07740.9224,W,2,08,1.13,155.3,M,-34.4,M,0000,0000*5D
lng=-77.682022, lat=43.085800, altitude=155.40, speed=13.80, satellites=8, angle=283.9400, fixquality=2
$GPRMC,212234.600,A,4305.1482,N,07740.9235,W,13.86,281.91,280319,,,D*41
$GPGGA,212234.800,4305.1483,N,07740.9245,W,2,08,1.13,155.2,M,-34.4,M,0000,0000*55
lng=-77.682052, lat=43.085807, altitude=155.30, speed=13.86, satellites=8, angle=281.9100, fixquality=2
$GPRMC,212235.000,A,4305.1485,N,07740.9256,W,13.88,279.80,280319,,,D*4D
$GPGGA,212235.200,4305.1486,N,07740.9267,W,2,08,1.13,155.1,M,-34.4,M,0000,0000*58
lng=-77.682098, lat=43.085807, altitude=155.20, speed=13.88, satellites=8, angle=279.8000, fixquality=2
$GPRMC,212235.400,A,4305.1487,N,07740.9277,W,13.92,279.61,280319,,,D*4C
$GPGGA,212235.600,4305.1488,N,07740.9288,W,2,08,1.13,155.0,M,-34.4,M,0000,0000*52
lng=-77.682128, lat=43.085815, altitude=155.10, speed=13.92, satellites=8, angle=279.6100, fixquality=2
$GPRMC,212235.800,A,4305.1489,N,07740.9299,W,13.96,276.77,280319,,,D*42
$GPGGA,212236.000,4305.1490,N,07740.9310,W,2,08,1.13,154.8,M,-34.4,M,0000,0000*57
lng=-77.682159, lat=43.085815, altitude=155.00, speed=13.96, satellites=8, angle=276.7700, fixquality=2
$GPRMC,212236.200,A,4305.1491,N,07740.9321,W,13.98,275.49,280319,,,D*40
$GPGGA,212236.400,4305.1493,N,07740.9334,W,2,08,1.13,154.7,M,-34.4,M,0000,0000*59
lng=-77.682205, lat=43.085815, altitude=154.80, speed=13.98, satellites=8, angle=275.4900, fixquality=2
$GPRMC,212236.600,A,4305.1493,N,07740.9345,W,13.97,272.73,280319,,,D*45
$GPGGA,212236.800,4305.1494,N,07740.9358,W,2,08,1.13,154.7,M,-34.4,M,0000,0000*58
lng=-77.682243, lat=43.085823, altitude=154.70, speed=13.97, satellites=8, angle=272.7300, fixquality=2
$GPRMC,212237.000,A,4305.1494,N,07740.9370,W,13.79,271.58,280319,,,D*49
$GPGGA,212237.200,4305.1494,N,07740.9381,W,2,07,1.18,154.6,M,-34.4,M,0000,0000*52
lng=-77.682281, lat=43.085823, altitude=154.70, speed=13.79, satellites=8, angle=271.5800, fixquality=2
$GPRMC,212237.400,A,4305.1494,N,07740.9393,W,13.68,270.23,280319,,,D*4D
$GPGGA,212237.600,4305.1494,N,07740.9404,W,2,07,1.18,154.6,M,-34.4,M,0000,0000*5C
lng=-77.682327, lat=43.085823, altitude=154.60, speed=13.68, satellites=7, angle=270.2300, fixquality=2
$GPRMC,212237.800,A,4305.1494,N,07740.9415,W,13.37,269.73,280319,,,D*4F
$GPGGA,212238.000,4305.1494,N,07740.9426,W,2,07,1.18,154.4,M,-34.4,M,0000,0000*57
lng=-77.682357, lat=43.085823, altitude=154.60, speed=13.37, satellites=7, angle=269.7300, fixquality=2
$GPRMC,212238.200,A,4305.1494,N,07740.9436,W,13.33,269.16,280319,,,D*4C
$GPGGA,212238.400,4305.1494,N,07740.9447,W,2,07,1.18,154.4,M,-34.4,M,0000,0000*54
lng=-77.682388, lat=43.085823, altitude=154.40, speed=13.33, satellites=7, angle=269.1600, fixquality=2
$GPRMC,212238.600,A,4305.1494,N,07740.9457,W,13.12,269.54,280319,,,D*4A
$GPGGA,212238.800,4305.1494,N,07740.9467,W,2,08,1.13,154.3,M,-34.4,M,0000,0000*59
lng=-77.682426, lat=43.085823, altitude=154.40, speed=13.12, satellites=7, angle=269.5400, fixquality=2
$GPRMC,212239.000,A,4305.1494,N,07740.9477,W,13.33,267.51,280319,,,D*47
$GPGGA,212239.200,4305.1495,N,07740.9488,W,2,08,1.13,154.2,M,-34.4,M,0000,0000*53
lng=-77.682464, lat=43.085823, altitude=154.30, speed=13.33, satellites=8, angle=267.5100, fixquality=2
$GPRMC,212239.400,A,4305.1495,N,07740.9497,W,12.93,269.01,280319,,,D*4C
$GPGGA,212239.600,4305.1495,N,07740.9507,W,2,08,1.13,154.2,M,-34.4,M,0000,0000*51
lng=-77.682495, lat=43.085823, altitude=154.20, speed=12.93, satellites=8, angle=269.0100, fixquality=2
$GPRMC,212239.800,A,4305.1495,N,07740.9517,W,12.63,267.16,280319,,,D*4E
$GPGGA,212240.000,4305.1496,N,07740.9526,W,2,08,1.13,154.0,M,-34.4,M,0000,0000*5B
lng=-77.682525, lat=43.085823, altitude=154.20, speed=12.63, satellites=8, angle=267.1600, fixquality=2
$GPRMC,212240.200,A,4305.1496,N,07740.9536,W,13.01,266.74,280319,,,D*4A
$GPGGA,212240.400,4305.1496,N,07740.9545,W,2,08,1.13,154.1,M,-34.4,M,0000,0000*5B
lng=-77.682563, lat=43.085823, altitude=154.00, speed=13.01, satellites=8, angle=266.7400, fixquality=2
$GPRMC,212240.600,A,4305.1497,N,07740.9554,W,12.54,267.05,280319,,,D*4D
$GPGGA,212240.800,4305.1497,N,07740.9563,W,2,08,1.13,154.1,M,-34.4,M,0000,0000*52
lng=-77.682594, lat=43.085830, altitude=154.10, speed=12.54, satellites=8, angle=267.0500, fixquality=2
$GPRMC,212241.000,A,4305.1497,N,07740.9572,W,12.43,267.32,280319,,,D*4C
$GPGGA,212241.200,4305.1497,N,07740.9581,W,2,08,1.13,154.1,M,-34.4,M,0000,0000*55
lng=-77.682617, lat=43.085830, altitude=154.10, speed=12.43, satellites=8, angle=267.3200, fixquality=2
$GPRMC,212241.400,A,4305.1497,N,07740.9590,W,11.83,269.20,280319,,,D*46
$GPGGA,212241.600,4305.1497,N,07740.9599,W,2,08,1.13,154.1,M,-34.4,M,0000,0000*58
lng=-77.682647, lat=43.085830, altitude=154.10, speed=11.83, satellites=8, angle=269.2000, fixquality=2
$GPRMC,212241.800,A,4305.1497,N,07740.9608,W,11.81,268.90,280319,,,D*40
$GPGGA,212242.000,4305.1497,N,07740.9616,W,2,08,1.13,154.1,M,-34.4,M,0000,0000*59
lng=-77.682685, lat=43.085830, altitude=154.10, speed=11.81, satellites=8, angle=268.9000, fixquality=2
$GPRMC,212242.200,A,4305.1497,N,07740.9625,W,11.34,270.45,280319,,,D*49
$GPGGA,212242.400,4305.1497,N,07740.9634,W,2,08,1.13,154.1,M,-34.4,M,0000,0000*5D
lng=-77.682708, lat=43.085830, altitude=154.10, speed=11.34, satellites=8, angle=270.4500, fixquality=2
$GPRMC,212242.600,A,4305.1497,N,07740.9643,W,11.10,270.79,280319,,,D*44
$GPGGA,212242.800,4305.1497,N,07740.9651,W,2,08,1.13,154.2,M,-34.4,M,0000,0000*51
lng=-77.682739, lat=43.085830, altitude=154.10, speed=11.10, satellites=8, angle=270.7900, fixquality=2
$GPRMC,212243.000,A,4305.1498,N,07740.9659,W,10.88,271.16,280319,,,D*4F
$GPGGA,212243.200,4305.1498,N,07740.9668,W,2,08,1.13,154.2,M,-34.4,M,0000,0000*5F
lng=-77.682762, lat=43.085830, altitude=154.20, speed=10.88, satellites=8, angle=271.1600, fixquality=2
$GPRMC,212243.400,A,4305.1498,N,07740.9676,W,10.69,270.56,280319,,,D*4C
$GPGGA,212243.600,4305.1499,N,07740.9684,W,2,08,1.13,154.2,M,-34.4,M,0000,0000*58
lng=-77.682792, lat=43.085830, altitude=154.20, speed=10.69, satellites=8, angle=270.5600, fixquality=2
$GPRMC,212243.800,A,4305.1498,N,07740.9692,W,10.26,270.65,280319,,,D*41
$GPGGA,212244.000,4305.1498,N,07740.9700,W,2,08,1.13,154.2,M,-34.4,M,0000,0000*55
lng=-77.682823, lat=43.085830, altitude=154.20, speed=10.26, satellites=8, angle=270.6500, fixquality=2
$GPRMC,212244.200,A,4305.1498,N,07740.9707,W,10.05,270.16,280319,,,D*44
$GPGGA,212244.400,4305.1499,N,07740.9714,W,2,08,1.13,154.3,M,-34.4,M,0000,0000*54
lng=-77.682846, lat=43.085830, altitude=154.20, speed=10.05, satellites=8, angle=270.1600, fixquality=2
$GPRMC,212244.600,A,4305.1499,N,07740.9721,W,9.91,268.86,280319,,,D*70
$GPGGA,212244.800,4305.1499,N,07740.9728,W,2,08,1.13,154.5,M,-34.4,M,0000,0000*51
lng=-77.682868, lat=43.085830, altitude=154.30, speed=9.91, satellites=8, angle=268.8600, fixquality=2
$GPRMC,212245.000,A,4305.1499,N,07740.9735,W,9.74,263.49,280319,,,D*71
$GPGGA,212245.200,4305.1498,N,07740.9741,W,2,08,1.13,154.4,M,-34.4,M,0000,0000*55
lng=-77.682891, lat=43.085830, altitude=154.50, speed=9.74, satellites=8, angle=263.4900, fixquality=2
$GPRMC,212245.400,A,4305.1498,N,07740.9748,W,9.45,259.44,280319,,,D*78
$GPGGA,212245.600,4305.1497,N,07740.9755,W,2,08,1.13,154.4,M,-34.4,M,0000,0000*5B
lng=-77.682907, lat=43.085830, altitude=154.40, speed=9.45, satellites=8, angle=259.4400, fixquality=2
$GPRMC,212245.800,A,4305.1496,N,07740.9761,W,8.90,252.50,280319,,,D*76
$GPGGA,212246.000,4305.1494,N,07740.9767,W,2,08,1.05,154.4,M,-34.4,M,0000,0000*5B
lng=-77.682937, lat=43.085823, altitude=154.40, speed=8.90, satellites=8, angle=252.5000, fixquality=2
$GPRMC,212246.200,A,4305.1493,N,07740.9772,W,8.83,249.97,280319,,,D*7B
$GPGGA,212246.400,4305.1493,N,07740.9777,W,2,07,1.16,154.4,M,-34.4,M,0000,0000*54
lng=-77.682952, lat=43.085823, altitude=154.40, speed=8.83, satellites=8, angle=249.9700, fixquality=2
$GPRMC,212246.600,A,4305.1492,N,07740.9782,W,8.79,247.78,280319,,,D*7B
$GPGGA,212246.800,4305.1490,N,07740.9787,W,2,07,1.16,154.4,M,-34.4,M,0000,0000*54
lng=-77.682968, lat=43.085823, altitude=154.40, speed=8.79, satellites=7, angle=247.7800, fixquality=2
$GPRMC,212247.000,A,4305.1487,N,07740.9791,W,8.92,238.26,280319,,,D*7C
$GPGGA,212247.200,4305.1485,N,07740.9795,W,2,07,1.16,154.5,M,-34.4,M,0000,0000*59
lng=-77.682983, lat=43.085815, altitude=154.40, speed=8.92, satellites=7, angle=238.2600, fixquality=2
$GPRMC,212247.400,A,4305.1482,N,07740.9799,W,8.70,232.29,280319,,,D*7C
$GPGGA,212247.600,4305.1479,N,07740.9803,W,2,06,1.24,154.5,M,-34.4,M,0000,0000*5E
lng=-77.682998, lat=43.085807, altitude=154.50, speed=8.70, satellites=7, angle=232.2900, fixquality=2
$GPRMC,212247.800,A,4305.1476,N,07740.9807,W,8.56,226.93,280319,,,D*73
$GPGGA,212248.000,4305.1472,N,07740.9810,W,2,07,1.15,154.6,M,-34.4,M,0000,0000*5E
lng=-77.683006, lat=43.085792, altitude=154.50, speed=8.56, satellites=6, angle=226.9300, fixquality=2
$GPRMC,212248.200,A,4305.1468,N,07740.9813,W,9.09,215.15,280319,,,D*79
$GPGGA,212248.400,4305.1463,N,07740.9817,W,2,07,1.15,154.7,M,-34.4,M,0000,0000*5C
lng=-77.683021, lat=43.085781, altitude=154.60, speed=9.09, satellites=7, angle=215.1500, fixquality=2
$GPRMC,212248.600,A,4305.1458,N,07740.9820,W,9.88,208.54,280319,,,D*7E
$GPGGA,212248.800,4305.1453,N,07740.9820,W,2,08,1.05,154.7,M,-34.4,M,0000,0000*59
lng=-77.683029, lat=43.085765, altitude=154.70, speed=9.88, satellites=7, angle=208.5400, fixquality=2
$GPRMC,212249.000,A,4305.1448,N,07740.9823,W,10.61,202.99,280319,,,D*4F
$GPGGA,212249.200,4305.1442,N,07740.9825,W,2,07,1.18,154.7,M,-34.4,M,0000,0000*54
lng=-77.683036, lat=43.085750, altitude=154.70, speed=10.61, satellites=8, angle=202.9900, fixquality=2
$GPRMC,212249.400,A,4305.1435,N,07740.9829,W,11.47,197.94,280319,,,D*4C
$GPGGA,212249.600,4305.1428,N,07740.9832,W,2,07,1.11,154.8,M,-34.4,M,0000,0000*5C
lng=-77.683052, lat=43.085727, altitude=154.70, speed=11.47, satellites=7, angle=197.9400, fixquality=2
$GPRMC,212249.800,A,4305.1421,N,07740.9835,W,11.68,195.93,280319,,,D*40
$GPGGA,212250.000,4305.1414,N,07740.9838,W,2,07,1.11,154.9,M,-34.4,M,0000,0000*56
lng=-77.683059, lat=43.085700, altitude=154.80, speed=11.68, satellites=7, angle=195.9300, fixquality=2
$GPRMC,212250.200,A,4305.1407,N,07740.9840,W,12.37,192.99,280319,,,D*40
$GPGGA,212250.400,4305.1400,N,07740.9843,W,2,07,1.11,155.0,M,-34.4,M,0000,0000*53
lng=-77.683067, lat=43.085678, altitude=154.90, speed=12.37, satellites=7, angle=192.9900, fixquality=2
$GPRMC,212250.600,A,4305.1394,N,07740.9845,W,12.48,194.68,280319,,,D*4C
$GPGGA,212250.800,4305.1388,N,07740.9847,W,2,06,1.22,155.1,M,-34.4,M,0000,0000*5C
lng=-77.683074, lat=43.085651, altitude=155.00, speed=12.48, satellites=7, angle=194.6800, fixquality=2
$GPRMC,212251.000,A,4305.1382,N,07740.9849,W,12.53,198.46,280319,,,D*4A
$GPGGA,212251.200,4305.1375,N,07740.9852,W,2,08,1.13,155.1,M,-34.4,M,0000,0000*5D
lng=-77.683082, lat=43.085636, altitude=155.10, speed=12.53, satellites=6, angle=198.4600, fixquality=2
$GPRMC,212251.400,A,4305.1368,N,07740.9855,W,12.98,201.45,280319,,,D*40
$GPGGA,212251.600,4305.1362,N,07740.9859,W,2,08,1.05,155.2,M,-34.4,M,0000,0000*50
lng=-77.683090, lat=43.085613, altitude=155.10, speed=12.98, satellites=8, angle=201.4500, fixquality=2
$GPRMC,212251.800,A,4305.1355,N,07740.9863,W,13.31,204.33,280319,,,D*41
$GPGGA,212252.000,4305.1349,N,07740.9867,W,2,07,1.15,155.2,M,-34.4,M,0000,0000*5F
lng=-77.683105, lat=43.085586, altitude=155.20, speed=13.31, satellites=8, angle=204.3300, fixquality=2
$GPRMC,212252.200,A,4305.1342,N,07740.9872,W,13.84,208.98,280319,,,D*4D
$GPGGA,212252.400,4305.1336,N,07740.9877,W,2,06,1.24,155.2,M,-34.4,M,0000,0000*51
lng=-77.683120, lat=43.085571, altitude=155.20, speed=13.84, satellites=7, angle=208.9800, fixquality=2
$GPRMC,212252.600,A,4305.1330,N,07740.9883,W,14.30,213.37,280319,,,D*45
$GPGGA,212252.800,4305.1323,N,07740.9889,W,2,06,1.24,155.3,M,-34.4,M,0000,0000*59
lng=-77.683135, lat=43.085548, altitude=155.20, speed=14.30, satellites=6, angle=213.3700, fixquality=2
$GPRMC,212253.000,A,4305.1317,N,07740.9895,W,14.56,218.58,280319,,,D*42
$GPGGA,212253.200,4305.1311,N,07740.9902,W,2,08,1.05,155.4,M,-34.4,M,0000,0000*5B
lng=-77.683151, lat=43.085529, altitude=155.30, speed=14.56, satellites=6, angle=218.5800, fixquality=2
$GPRMC,212253.400,A,4305.1305,N,07740.9909,W,14.82,221.86,280319,,,D*41
$GPGGA,212253.600,4305.1298,N,07740.9916,W,2,08,1.13,155.4,M,-34.4,M,0000,0000*5D
lng=-77.683181, lat=43.085506, altitude=155.40, speed=14.82, satellites=8, angle=221.8600, fixquality=2
$GPRMC,212253.800,A,4305.1292,N,07740.9924,W,15.53,224.22,280319,,,D*4B
$GPGGA,212254.000,4305.1286,N,07740.9932,W,2,08,1.13,155.4,M,-34.4,M,0000,0000*55
lng=-77.683204, lat=43.085491, altitude=155.40, speed=15.53, satellites=8, angle=224.2200, fixquality=2
$GPRMC,212254.200,A,4305.1280,N,07740.9940,W,16.14,227.02,280319,,,D*46
$GPGGA,212254.400,4305.1274,N,07740.9949,W,2,08,1.13,155.4,M,-34.4,M,0000,0000*50
lng=-77.683235, lat=43.085464, altitude=155.40, speed=16.14, satellites=8, angle=227.0200, fixquality=2
$GPRMC,212254.600,A,4305.1268,N,07740.9958,W,16.67,230.36,280319,,,D*48
$GPGGA,212254.800,4305.1262,N,07740.9968,W,2,08,1.13,155.4,M,-34.4,M,0000,0000*58
lng=-77.683258, lat=43.085449, altitude=155.40, speed=16.67, satellites=8, angle=230.3600, fixquality=2
$GPRMC,212255.000,A,4305.1256,N,07740.9977,W,17.59,232.03,280319,,,D*47
$GPGGA,212255.200,4305.1250,N,07740.9986,W,2,08,1.13,155.3,M,-34.4,M,0000,0000*55
lng=-77.683296, lat=43.085426, altitude=155.40, speed=17.59, satellites=8, angle=232.0300, fixquality=2
$GPRMC,212255.400,A,4305.1244,N,07740.9996,W,18.32,233.26,280319,,,D*4B
$GPGGA,212255.600,4305.1238,N,07741.0007,W,2,08,1.13,155.3,M,-34.4,M,0000,0000*57
lng=-77.683326, lat=43.085407, altitude=155.30, speed=18.32, satellites=8, angle=233.2600, fixquality=2
$GPRMC,212255.800,A,4305.1231,N,07741.0019,W,18.78,233.63,280319,,,D*4C
$GPGGA,212256.000,4305.1224,N,07741.0030,W,2,08,1.13,155.2,M,-34.4,M,0000,0000*5A
lng=-77.683364, lat=43.085384, altitude=155.30, speed=18.78, satellites=8, angle=233.6300, fixquality=2
$GPRMC,212256.200,A,4305.1218,N,07741.0042,W,19.52,234.37,280319,,,D*4F
$GPGGA,212256.400,4305.1212,N,07741.0054,W,2,08,1.05,155.1,M,-34.4,M,0000,0000*5D
lng=-77.683403, lat=43.085361, altitude=155.20, speed=19.52, satellites=8, angle=234.3700, fixquality=2
$GPRMC,212256.600,A,4305.1205,N,07741.0066,W,19.53,234.05,280319,,,D*41
$GPGGA,212256.800,4305.1199,N,07741.0079,W,2,08,1.05,155.1,M,-34.4,M,0000,0000*5E
lng=-77.683448, lat=43.085342, altitude=155.10, speed=19.53, satellites=8, angle=234.0500, fixquality=2
$GPRMC,212257.000,A,4305.1192,N,07741.0091,W,19.63,233.77,280319,,,D*42
$GPGGA,212257.200,4305.1185,N,07741.0103,W,2,08,1.05,155.0,M,-34.4,M,0000,0000*55
lng=-77.683486, lat=43.085319, altitude=155.10, speed=19.63, satellites=8, angle=233.7700, fixquality=2
$GPRMC,212257.400,A,4305.1179,N,07741.0115,W,19.75,234.19,280319,,,D*46
$GPGGA,212257.600,4305.1172,N,07741.0128,W,2,08,1.05,154.9,M,-34.4,M,0000,0000*58
lng=-77.683525, lat=43.085292, altitude=155.00, speed=19.75, satellites=8, angle=234.1900, fixquality=2
$GPRMC,212257.800,A,4305.1166,N,07741.0141,W,19.94,234.26,280319,,,D*46
$GPGGA,212258.000,4305.1160,N,07741.0153,W,2,08,1.05,154.8,M,-34.4,M,0000,0000*5F
lng=-77.683570, lat=43.085277, altitude=154.90, speed=19.94, satellites=8, angle=234.2600, fixquality=2
$GPRMC,212258.200,A,4305.1153,N,07741.0165,W,19.98,234.89,280319,,,D*4A
$GPGGA,212258.400,4305.1147,N,07741.0177,W,2,08,1.05,154.7,M,-34.4,M,0000,0000*57
lng=-77.683609, lat=43.085254, altitude=154.80, speed=19.98, satellites=8, angle=234.8900, fixquality=2
$GPRMC,212258.600,A,4305.1140,N,07741.0190,W,20.06,235.54,280319,,,D*4A
$GPGGA,212258.800,4305.1134,N,07741.0202,W,2,08,1.05,154.6,M,-34.4,M,0000,0000*5F
lng=-77.683647, lat=43.085227, altitude=154.70, speed=20.06, satellites=8, angle=235.5400, fixquality=2
$GPRMC,212259.000,A,4305.1128,N,07741.0215,W,20.13,236.97,280319,,,D*45
$GPGGA,212259.200,4305.1123,N,07741.0228,W,2,08,1.05,154.5,M,-34.4,M,0000,0000*59
lng=-77.683692, lat=43.085212, altitude=154.60, speed=20.13, satellites=8, angle=236.9700, fixquality=2
$GPRMC,212259.400,A,4305.1118,N,07741.0243,W,20.14,238.92,280319,,,D*4D
$GPGGA,212259.600,4305.1113,N,07741.0257,W,2,08,1.05,154.4,M,-34.4,M,0000,0000*57
lng=-77.683738, lat=43.085197, altitude=154.50, speed=20.14, satellites=8, angle=238.9200, fixquality=2
$GPRMC,212259.800,A,4305.1108,N,07741.0270,W,20.11,240.49,280319,,,D*4C
$GPGGA,212300.000,4305.1103,N,07741.0284,W,2,08,1.05,154.3,M,-34.4,M,0000,0000*54
lng=-77.683784, lat=43.085182, altitude=154.40, speed=20.11, satellites=8, angle=240.4900, fixquality=2
$GPRMC,212300.200,A,4305.1098,N,07741.0299,W,20.29,244.37,280319,,,D*42
$GPGGA,212300.400,4305.1093,N,07741.0314,W,2,07,1.10,154.2,M,-34.4,M,0000,0000*5A
lng=-77.683830, lat=43.085163, altitude=154.30, speed=20.29, satellites=8, angle=244.3700, fixquality=2
$GPRMC,212300.600,A,4305.1089,N,07741.0329,W,20.34,246.84,280319,,,D*4A
$GPGGA,212300.800,4305.1085,N,07741.0344,W,2,08,1.05,154.1,M,-34.4,M,0000,0000*5C
lng=-77.683876, lat=43.085147, altitude=154.20, speed=20.34, satellites=7, angle=246.8400, fixquality=2
$GPRMC,212301.000,A,4305.1081,N,07741.0360,W,20.77,251.63,280319,,,D*40
$GPGGA,212301.200,4305.1078,N,07741.0375,W,2,08,1.05,154.1,M,-34.4,M,0000,0000*57
lng=-77.683937, lat=43.085132, altitude=154.10, speed=20.77, satellites=8, angle=251.6300, fixquality=2
$GPRMC,212301.400,A,4305.1075,N,07741.0391,W,20.29,257.46,280319,,,D*4B
$GPGGA,212301.600,4305.1073,N,07741.0406,W,2,07,1.10,154.0,M,-34.4,M,0000,0000*51
lng=-77.683982, lat=43.085124, altitude=154.10, speed=20.29, satellites=8, angle=257.4600, fixquality=2
$GPRMC,212301.800,A,4305.1072,N,07741.0422,W,20.25,262.14,280319,,,D*42
$GPGGA,212302.000,4305.1071,N,07741.0438,W,2,08,1.05,153.9,M,-34.4,M,0000,0000*5E
lng=-77.684036, lat=43.085124, altitude=154.00, speed=20.25, satellites=7, angle=262.1400, fixquality=2
$GPRMC,212302.200,A,4305.1071,N,07741.0453,W,20.36,269.70,280319,,,D*45
$GPGGA,212302.400,4305.1071,N,07741.0469,W,2,08,1.05,153.8,M,-34.4,M,0000,0000*5F
lng=-77.684089, lat=43.085117, altitude=153.90, speed=20.36, satellites=8, angle=269.7000, fixquality=2
$GPRMC,212302.600,A,4305.1072,N,07741.0484,W,20.33,274.30,280319,,,D*45
$GPGGA,212302.800,4305.1073,N,07741.0500,W,2,08,1.05,153.7,M,-34.4,M,0000,0000*50
lng=-77.684135, lat=43.085124, altitude=153.80, speed=20.33, satellites=8, angle=274.3000, fixquality=2
$GPRMC,212303.000,A,4305.1075,N,07741.0515,W,20.33,282.28,280319,,,D*4C
$GPGGA,212303.200,4305.1079,N,07741.0531,W,2,08,1.13,153.6,M,-34.4,M,0000,0000*55
lng=-77.684188, lat=43.085124, altitude=153.70, speed=20.33, satellites=8, angle=282.2800, fixquality=2
$GPRMC,212303.400,A,4305.1082,N,07741.0546,W,20.78,288.54,280319,,,D*48
$GPGGA,212303.600,4305.1086,N,07741.0561,W,2,08,1.05,153.4,M,-34.4,M,0000,0000*51
lng=-77.684242, lat=43.085140, altitude=153.60, speed=20.78, satellites=8, angle=288.5400, fixquality=2
$GPRMC,212303.800,A,4305.1091,N,07741.0575,W,20.64,292.37,280319,,,D*45
$GPGGA,212304.000,4305.1095,N,07741.0589,W,2,08,1.05,153.3,M,-34.4,M,0000,0000*53
lng=-77.684295, lat=43.085147, altitude=153.40, speed=20.64, satellites=8, angle=292.3700, fixquality=2
$GPRMC,212304.200,A,4305.1100,N,07741.0602,W,20.19,297.06,280319,,,D*4F
$GPGGA,212304.400,4305.1105,N,07741.0615,W,2,09,0.96,153.2,M,-34.4,M,0000,0000*52
lng=-77.684333, lat=43.085163, altitude=153.30, speed=20.19, satellites=8, angle=297.0600, fixquality=2
$GPRMC,212304.600,A,4305.1110,N,07741.0627,W,19.45,299.19,280319,,,D*4E
$GPGGA,212304.800,4305.1115,N,07741.0638,W,2,09,0.96,153.0,M,-34.4,M,0000,0000*52
lng=-77.684371, lat=43.085182, altitude=153.20, speed=19.45, satellites=9, angle=299.1900, fixquality=2
$GPRMC,212305.000,A,4305.1120,N,07741.0649,W,18.31,299.94,280319,,,D*45
$GPGGA,212305.200,4305.1125,N,07741.0659,W,2,09,0.96,152.9,M,-34.4,M,0000,0000*55
lng=-77.684417, lat=43.085197, altitude=153.00, speed=18.31, satellites=9, angle=299.9400, fixquality=2
$GPRMC,212305.400,A,4305.1129,N,07741.0669,W,16.56,299.80,280319,,,D*40
$GPGGA,212305.600,4305.1133,N,07741.0677,W,2,09,0.96,152.8,M,-34.4,M,0000,0000*5B
lng=-77.684448, lat=43.085212, altitude=152.90, speed=16.56, satellites=9, angle=299.8000, fixquality=2
$GPRMC,212305.800,A,4305.1136,N,07741.0684,W,14.95,299.98,280319,,,D*45
$GPGGA,212306.000,4305.1139,N,07741.0689,W,2,09,0.96,152.7,M,-34.4,M,0000,0000*5A
lng=-77.684471, lat=43.085227, altitude=152.80, speed=14.95, satellites=9, angle=299.9800, fixquality=2
$GPRMC,212306.200,A,4305.1141,N,07741.0694,W,12.35,298.32,280319,,,D*40
$GPGGA,212306.400,4305.1142,N,07741.0699,W,2,09,0.96,152.5,M,-34.4,M,0000,0000*51
lng=-77.684486, lat=43.085239, altitude=152.70, speed=12.35, satellites=9, angle=298.3200, fixquality=2
$GPRMC,212306.600,A,4305.1144,N,07741.0704,W,10.72,297.65,280319,,,D*45
$GPGGA,212306.800,4305.1145,N,07741.0708,W,2,09,0.96,152.4,M,-34.4,M,0000,0000*52
lng=-77.684501, lat=43.085239, altitude=152.50, speed=10.72, satellites=9, angle=297.6500, fixquality=2
$GPRMC,212307.000,A,4305.1146,N,07741.0712,W,8.28,293.80,280319,,,D*7E
$GPGGA,212307.200,4305.1147,N,07741.0714,W,2,09,0.96,152.3,M,-34.4,M,0000,0000*51
lng=-77.684524, lat=43.085247, altitude=152.40, speed=8.28, satellites=9, angle=293.8000, fixquality=2
$GPRMC,212307.400,A,4305.1148,N,07741.0716,W,5.94,289.76,280319,,,D*78
$GPGGA,212307.600,4305.1149,N,07741.0719,W,2,09,0.96,152.1,M,-34.4,M,0000,0000*54
lng=-77.684532, lat=43.085247, altitude=152.30, speed=5.94, satellites=9, angle=289.7600, fixquality=2
$GPRMC,212307.800,A,4305.1150,N,07741.0720,W,4.73,286.92,280319,,,D*75
$GPGGA,212308.000,4305.1150,N,07741.0721,W,2,09,0.96,152.0,M,-34.4,M,0000,0000*5F
lng=-77.684532, lat=43.085254, altitude=152.10, speed=4.73, satellites=9, angle=286.9200, fixquality=2
$GPRMC,212308.200,A,4305.1150,N,07741.0722,W,3.36,272.50,280319,,,D*71
$GPGGA,212308.400,4305.1150,N,07741.0723,W,2,09,0.96,152.0,M,-34.4,M,0000,0000*59
lng=-77.684539, lat=43.085254, altitude=152.00, speed=3.36, satellites=9, angle=272.5000, fixquality=2
$GPRMC,212308.600,A,4305.1150,N,07741.0723,W,2.50,272.50,280319,,,D*75
$GPGGA,212308.800,4305.1149,N,07741.0723,W,2,09,0.96,151.9,M,-34.4,M,0000,0000*57
lng=-77.684539, lat=43.085254, altitude=152.00, speed=2.50, satellites=9, angle=272.5000, fixquality=2
$GPRMC,212309.000,A,4305.1148,N,07741.0723,W,1.99,272.50,280319,,,D*7D
$GPGGA,212309.200,4305.1148,N,07741.0722,W,2,09,0.96,151.9,M,-34.4,M,0000,0000*5C
lng=-77.684539, lat=43.085247, altitude=151.90, speed=1.99, satellites=9, angle=272.5000, fixquality=2
$GPRMC,212309.400,A,4305.1147,N,07741.0722,W,2.01,272.50,280319,,,D*75
$GPGGA,212309.600,4305.1147,N,07741.0721,W,2,09,0.96,151.8,M,-34.4,M,0000,0000*55
lng=-77.684539, lat=43.085247, altitude=151.90, speed=2.01, satellites=9, angle=272.5000, fixquality=2
$GPRMC,212309.800,A,4305.1146,N,07741.0721,W,1.93,272.50,280319,,,D*73
$GPGGA,212310.000,4305.1146,N,07741.0721,W,2,09,0.96,151.7,M,-34.4,M,0000,0000*55
lng=-77.684539, lat=43.085247, altitude=151.80, speed=1.93, satellites=9, angle=272.5000, fixquality=2
$GPRMC,212310.200,A,4305.1147,N,07741.0722,W,1.91,272.50,280319,,,D*71
$GPGGA,212310.400,4305.1147,N,07741.0723,W,2,09,0.96,151.7,M,-34.4,M,0000,0000*52
lng=-77.684539, lat=43.085247, altitude=151.70, speed=1.91, satellites=9, angle=272.5000, fixquality=2
$GPRMC,212310.600,A,4305.1147,N,07741.0724,W,2.45,272.50,280319,,,D*79
$GPGGA,212310.800,4305.1148,N,07741.0727,W,2,09,0.96,151.6,M,-34.4,M,0000,0000*54
lng=-77.684539, lat=43.085247, altitude=151.70, speed=2.45, satellites=9, angle=272.5000, fixquality=2
$GPRMC,212311.000,A,4305.1149,N,07741.0729,W,3.71,287.65,280319,,,D*77
