Vers 57
USE_SERIAL_FEEDBACK=false
DEVELOPMENT_MODE=false
USE_RMC_ONLY=false

$GPGGA,210939.600,4305.1656,N,07740.7989,W,1,11,0.82,163.9,M,-34.4,M,,*5C
$GPRMC,210939.600,A,4305.1656,N,07740.7989,W,0.00,347.17,210319,,,A*79
lng=-77.679977, lat=43.086093, altitude=163.90, speed=0.00, satellites=11, angle=88.0500, fixquality=1
$GPGGA,210939.800,4305.1656,N,07740.7989,W,1,11,0.82,163.9,M,-34.4,M,,*52
$GPRMC,210939.800,A,4305.1656,N,07740.7989,W,0.01,226.03,210319,,,A*75
lng=-77.679977, lat=43.086093, altitude=163.90, speed=0.00, satellites=11, angle=347.1700, fixquality=1
$GPGGA,210940.000,4305.1656,N,07740.7989,W,1,11,0.82,163.9,M,-34.4,M,,*54
$GPRMC,210940.000,A,4305.1656,N,07740.7989,W,0.01,183.57,210319,,,A*7E
lng=-77.679977, lat=43.086093, altitude=163.90, speed=0.01, satellites=11, angle=226.0300, fixquality=1
$GPGGA,210940.200,4305.1656,N,07740.7989,W,1,11,0.82,163.9,M,-34.4,M,,*56
$GPRMC,210940.200,A,4305.1656,N,07740.7989,W,0.01,134.61,210319,,,A*75
lng=-77.679977, lat=43.086093, altitude=163.90, speed=0.01, satellites=11, angle=183.5700, fixquality=1
$GPGGA,210940.400,4305.1656,N,07740.7989,W,1,11,0.82,163.9,M,-34.4,M,,*50
$GPRMC,210940.400,A,4305.1656,N,07740.7989,W,0.01,168.57,210319,,,A*7F
lng=-77.679977, lat=43.086093, altitude=163.90, speed=0.01, satellites=11, angle=134.6100, fixquality=1
$GPGGA,210940.600,4305.1656,N,07740.7989,W,1,11,0.82,163.9,M,-34.4,M,,*52
$GPRMC,210940.600,A,4305.1656,N,07740.7989,W,0.00,195.33,210319,,,A*7C
lng=-77.679977, lat=43.086093, altitude=163.90, speed=0.01, satellites=11, angle=168.5700, fixquality=1
$GPGGA,210940.800,4305.1656,N,07740.7989,W,1,11,0.82,163.9,M,-34.4,M,,*5C
$GPRMC,210940.800,A,4305.1656,N,07740.7989,W,0.01,236.29,210319,,,A*72
lng=-77.679977, lat=43.086093, altitude=163.90, speed=0.00, satellites=11, angle=195.3300, fixquality=1
$GPGGA,210941.000,4305.1656,N,07740.7989,W,1,11,0.82,163.9,M,-34.4,M,,*55
$GPRMC,210941.000,A,4305.1656,N,07740.7989,W,0.01,267.60,210319,,,A*72
lng=-77.679977, lat=43.086093, altitude=163.90, speed=0.01, satellites=11, angle=236.2900, fixquality=1
$GPGGA,210941.200,4305.1656,N,07740.7989,W,1,11,0.82,163.9,M,-34.4,M,,*57
$GPRMC,210941.200,A,4305.1656,N,07740.7989,W,0.01,256.70,210319,,,A*73
lng=-77.679977, lat=43.086093, altitude=163.90, speed=0.01, satellites=11, angle=267.6000, fixquality=1
$GPGGA,210941.400,4305.1656,N,07740.7989,W,1,11,0.82,163.9,M,-34.4,M,,*51
$GPRMC,210941.400,A,4305.1656,N,07740.7989,W,0.00,268.55,210319,,,A*7E
lng=-77.679977, lat=43.086093, altitude=163.90, speed=0.01, satellites=11, angle=256.7000, fixquality=1
$GPGGA,210941.600,4305.1656,N,07740.7989,W,1,11,0.82,163.9,M,-34.4,M,,*53
$GPRMC,210941.600,A,4305.1656,N,07740.7989,W,0.00,236.88,210319,,,A*77
lng=-77.679977, lat=43.086093, altitude=163.90, speed=0.00, satellites=11, angle=268.5500, fixquality=1
$GPGGA,210941.800,4305.1656,N,07740.7989,W,1,11,0.82,163.9,M,-34.4,M,,*5D
$GPRMC,210941.800,A,4305.1656,N,07740.7989,W,0.00,295.48,210319,,,A*7C
lng=-77.679977, lat=43.086093, altitude=163.90, speed=0.00, satellites=11, angle=236.8800, fixquality=1
$GPGGA,210942.000,4305.1656,N,07740.7989,W,1,11,0.82,163.9,M,-34.4,M,,*56
$GPRMC,210942.000,A,4305.1656,N,07740.7989,W,0.00,341.03,210319$GPGGA,210942.200,4305.1656,N,07740.7989,W,1,11,0.82,163.9,M,-34.4,M,,*54
lng=-77.679977, lat=43.086093, altitude=163.90, speed=0.00, satellites=11, angle=295.4800, fixquality=1
$GPRMC,210942.400,A,4305.1656,N,07740.7989,W,0.00,317.27,210319,,,A*71
$GPGGA,210942.600,4305.1656,N,07740.7989,W,1,11,0.82,163.9,M,-34.4,M,,*50
lng=-77.679977, lat=43.086093, altitude=163.90, speed=0.00, satellites=11, angle=317.2700, fixquality=1
$GPRMC,210942.800,A,4305.1656,N,07740.7989,W,0.00,356.26,210319,,,A*79
$GPGGA,210943.000,4305.1656,N,07740.7989,W,1,11,0.82,163.9,M,-34.4,M,,*57
lng=-77.679977, lat=43.086093, altitude=163.90, speed=0.00, satellites=11, angle=356.2600, fixquality=1
$GPRMC,210943.200,A,4305.1656,N,07740.7989,W,0.00,252.04,210319,,,A*77
$GPGGA,210943.400,4305.1656,N,07740.7989,W,1,11,0.82,163.9,M,-34.4,M,,*53
lng=-77.679977, lat=43.086093, altitude=163.90, speed=0.00, satellites=11, angle=252.0400, fixquality=1
$GPRMC,210943.600,A,4305.1656,N,07740.7989,W,0.01,231.44,210319,,,A*73
$GPGGA,210943.800,4305.1656,N,07740.7989,W,1,11,0.82,163.9,M,-34.4,M,,*5F
lng=-77.679977, lat=43.086093, altitude=163.90, speed=0.01, satellites=11, angle=231.4400, fixquality=1
$GPRMC,210944.000,A,4305.1656,N,07740.7989,W,0.00,301.76,210319,,,A*70
$GPGGA,210944.200,4305.1656,N,07740.7989,W,1,11,0.82,163.9,M,-34.4,M,,*52
lng=-77.679977, lat=43.086093, altitude=163.90, speed=0.00, satellites=11, angle=301.7600, fixquality=1
$GPRMC,210944.400,A,4305.1656,N,07740.7989,W,0.00,352.40,210319,,,A*77
$GPGGA,210944.600,4305.1656,N,07740.7989,W,1,11,0.82,163.9,M,-34.4,M,,*56
lng=-77.679977, lat=43.086093, altitude=163.90, speed=0.00, satellites=11, angle=352.4000, fixquality=1
$GPRMC,210944.800,A,4305.1656,N,07740.7989,W,0.00,31.69,210319,,,A*46
$GPGGA,210945.000,4305.1656,N,07740.7989,W,1,11,0.82,163.9,M,-34.4,M,,*51
lng=-77.679977, lat=43.086093, altitude=163.90, speed=0.00, satellites=11, angle=31.6900, fixquality=1
$GPRMC,210945.200,A,4305.1656,N,07740.7989,W,0.00,317.17,210319,,,A*73
$GPGGA,210945.400,4305.1656,N,07740.7989,W,1,11,0.82,163.9,M,-34.4,M,,*55
lng=-77.679977, lat=43.086093, altitude=163.90, speed=0.00, satellites=11, angle=317.1700, fixquality=1
$GPRMC,210945.600,A,4305.1656,N,07740.7989,W,0.00,306.07,210319,,,A*76
$GPGGA,210945.800,4305.1656,N,07740.7989,W,1,11,0.82,163.9,M,-34.4,M,,*59
lng=-77.679977, lat=43.086093, altitude=163.90, speed=0.00, satellites=11, angle=306.0700, fixquality=1
$GPRMC,210946.000,A,4305.1656,N,07740.7989,W,0.00,200.49,210319,,,A*7E
$GPGGA,210946.200,4305.1656,N,07740.7989,W,1,11,0.82,163.9,M,-34.4,M,,*50
lng=-77.679977, lat=43.086093, altitude=163.90, speed=0.00, satellites=11, angle=200.4900, fixquality=1
$GPRMC,210946.400,A,4305.1656,N,07740.7989,W,0.01,86.10,210319,,,A*4B
$GPGGA,210946.600,4305.1656,N,07740.7989,W,1,11,0.82,163.9,M,-34.4,M,,*54
lng=-77.679977, lat=43.086093, altitude=163.90, speed=0.01, satellites=11, angle=86.1000, fixquality=1
$GPRMC,210946.800,A,4305.1656,N,07740.7989,W,0.00,250.10,210319,,,A*7F
$GPGGA,210947.000,4305.1656,N,07740.7989,W,1,11,0.82,163.9,M,-34.4,M,,*53
lng=-77.679977, lat=43.086093, altitude=163.90, speed=0.00, satellites=11, angle=250.1000, fixquality=1
$GPRMC,210947.200,A,4305.1656,N,07740.7989,W,0.01,348.17,210319,,,A*7A
$GPGGA,210947.400,4305.1656,N,07740.7989,W,1,11,0.82,163.9,M,-34.4,M,,*57
lng=-77.679977, lat=43.086093, altitude=163.90, speed=0.01, satellites=11, angle=348.1700, fixquality=1
$GPRMC,210947.600,A,4305.1656,N,07740.7989,W,0.00,132.52,210319,,,A*71
$GPGGA,210947.800,4305.1656,N,07740.7989,W,1,11,0.82,163.9,M,-34.4,M,,*5B
lng=-77.679977, lat=43.086093, altitude=163.90, speed=0.00, satellites=11, angle=132.5200, fixquality=1
$GPRMC,210948.000,A,4305.1656,N,07740.7989,W,0.00,107.62,210319,,,A*7D
$GPGGA,210948.200,4305.1656,N,07740.7989,W,1,11,0.82,163.9,M,-34.4,M,,*5E
lng=-77.679977, lat=43.086093, altitude=163.90, speed=0.00, satellites=11, angle=107.6200, fixquality=1
$GPRMC,210948.400,A,4305.1656,N,07740.7989,W,0.00,33.15,210319,,,A*4F
$GPGGA,210948.600,4305.1656,N,07740.7989,W,1,11,0.82,163.9,M,-34.4,M,,*5A
lng=-77.679977, lat=43.086093, altitude=163.90, speed=0.00, satellites=11, angle=33.1500, fixquality=1
$GPRMC,210948.800,A,4305.1656,N,07740.7989,W,0.00,338.92,210319,,,A*74
$GPGGA,210949.000,4305.1656,N,07740.7989,W,1,11,0.82,163.9,M,-34.4,M,,*5D
lng=-77.679977, lat=43.086093, altitude=163.90, speed=0.00, satellites=11, angle=338.9200, fixquality=1
$GPRMC,210949.200,A,4305.1656,N,07740.7989,W,0.01,204.66,210319,,,A*7B
$GPGGA,210949.400,4305.1656,N,07740.7989,W,1,10,0.90,163.9,M,-34.4,M,,*5B
lng=-77.679977, lat=43.086093, altitude=163.90, speed=0.01, satellites=11, angle=204.6600, fixquality=1
$GPRMC,210949.600,A,4305.1656,N,07740.7989,W,0.00,0.00,210319,,,A*78
$GPGGA,210949.800,4305.1656,N,07740.7989,W,1,11,0.82,163.9,M,-34.4,M,,*55
lng=-77.679977, lat=43.086093, altitude=163.90, speed=0.00, satellites=10, angle=0.0000, fixquality=1
$GPRMC,210950.000,A,4305.1656,N,07740.7989,W,0.00,0.00,210319,,,A*76
$GPGGA,210950.200,4305.1656,N,07740.7989,W,1,11,0.82,163.9,M,-34.4,M,,*57
lng=-77.679977, lat=43.086093, altitude=163.90, speed=0.00, satellites=11, angle=0.0000, fixquality=1
$GPRMC,210950.400,A,4305.1656,N,07740.7989,W,0.00,154.86,210319,,,A*7C
$GPGGA,210950.600,4305.1656,N,07740.7989,W,1,11,0.82,163.9,M,-34.4,M,,*53
lng=-77.679977, lat=43.086093, altitude=163.90, speed=0.00, satellites=11, angle=154.8600, fixquality=1
$GPRMC,210950.800,A,4305.1656,N,07740.7989,W,0.00,13.16,210319,,,A*4B
$GPGGA,210951.000,4305.1656,N,07740.7989,W,1,11,0.82,163.9,M,-34.4,M,,*54
lng=-77.679977, lat=43.086093, altitude=163.90, speed=0.00, satellites=11, angle=13.1600, fixquality=1
$GPRMC,210951.200,A,4305.1656,N,07740.7989,W,0.00,314.64,210319,,,A*71
$GPGGA,210951.400,4305.1656,N,07740.7989,W,1,11,0.82,163.9,M,-34.4,M,,*50
lng=-77.679977, lat=43.086093, altitude=163.90, speed=0.00, satellites=11, angle=314.6400, fixquality=1
$GPRMC,210951.600,A,4305.1656,N,07740.7989,W,0.01,271.52,210319,,,A*73
$GPGGA,210951.800,4305.1656,N,07740.7989,W,1,11,0.82,163.9,M,-34.4,M,,*5C
lng=-77.679977, lat=43.086093, altitude=163.90, speed=0.01, satellites=11, angle=271.5200, fixquality=1
$GPRMC,210952.000,A,4305.1656,N,07740.7989,W,0.00,346.41,210319,,,A*70
$GPGGA,210952.200,4305.1656,N,07740.7989,W,1,11,0.82,163.9,M,-34.4,M,,*55
lng=-77.679977, lat=43.086093, altitude=163.90, speed=0.00, satellites=11, angle=346.4100, fixquality=1
$GPRMC,210952.400,A,4305.1656,N,07740.7989,W,0.00,336.06,210319,,,A*70
$GPGGA,210952.600,4305.1656,N,07740.7989,W,1,11,0.82,163.9,M,-34.4,M,,*51
lng=-77.679977, lat=43.086093, altitude=163.90, speed=0.00, satellites=11, angle=336.0600, fixquality=1
$GPRMC,210952.800,A,4305.1656,N,07740.7989,W,0.00,140.91,210319,,,A*71
$GPGGA,210953.000,4305.1656,N,07740.7989,W,1,11,0.82,163.9,M,-34.4,M,,*56
lng=-77.679977, lat=43.086093, altitude=163.90, speed=0.00, satellites=11, angle=140.9100, fixquality=1
$GPGGA,210953.400,4305.1656,N,07740.7989,W,1,11,0.82,163.9,M,-34.4,M,,*52
$GPRMC,210953.400,A,4305.1656,N,07740.7989,W,0.00,158.38,210319,,,A*76
lng=-77.679977, lat=43.086093, altitude=163.90, speed=0.00, satellites=11, angle=140.9100, fixquality=1
$GPRMC,210953.800,A,4305.1656,N,07740.7989,W,0.00,0.00,210319,,,A*7D
$GPGGA,210954.000,4305.1656,N,07740.7989,W,1,11,0.82,163.9,M,-34.4,M,,*51
lng=-77.679977, lat=43.086093, altitude=163.90, speed=0.00, satellites=11, angle=0.0000, fixquality=1
$GPRMC,210954.200,A,4305.1656,N,07740.7989,W,0.00,326.60,210319,,,A*71
$GPGGA,210954.400,4305.1656,N,07740.7989,W,1,11,0.82,163.9,M,-34.4,M,,*55
lng=-77.679977, lat=43.086093, altitude=163.90, speed=0.00, satellites=11, angle=326.6000, fixquality=1
$GPRMC,210954.600,A,4305.1656,N,07740.7989,W,0.00,261.78,210319,,,A*7E
$GPGGA,210954.800,4305.1656,N,07740.7989,W,1,11,0.82,163.9,M,-34.4,M,,*59
lng=-77.679977, lat=43.086093, altitude=163.90, speed=0.00, satellites=11, angle=261.7800, fixquality=1
$GPRMC,210955.000,A,4305.1656,N,07740.7989,W,0.01,285.17,210319,,,A*7B
$GPGGA,210955.200,4305.1656,N,07740.7989,W,1,11,0.82,163.9,M,-34.4,M,,*52
lng=-77.679977, lat=43.086093, altitude=163.90, speed=0.01, satellites=11, angle=285.1700, fixquality=1
$GPRMC,210955.400,A,4305.1656,N,07740.7989,W,0.00,39.63,210319,,,A*48
$GPGGA,210955.600,4305.1656,N,07740.7989,W,1,11,0.82,163.9,M,-34.4,M,,*56
lng=-77.679977, lat=43.086093, altitude=163.90, speed=0.00, satellites=11, angle=39.6300, fixquality=1
$GPRMC,210955.800,A,4305.1656,N,07740.7989,W,0.00,40.55,210319,,,A*4F
$GPGGA,210956.000,4305.1656,N,07740.7989,W,1,11,0.82,163.9,M,-34.4,M,,*53
lng=-77.679977, lat=43.086093, altitude=163.90, speed=0.00, satellites=11, angle=40.5500, fixquality=1
$GPRMC,210956.200,A,4305.1656,N,07740.7989,W,0.00,149.24,210319,,,A*78
$GPGGA,210956.400,4305.1656,N,07740.7989,W,1,11,0.82,163.9,M,-34.4,M,,*57
lng=-77.679977, lat=43.086093, altitude=163.90, speed=0.00, satellites=11, angle=149.2400, fixquality=1
$GPRMC,210956.600,A,4305.1656,N,07740.7989,W,0.00,191.65,210319,,,A*7C
$GPGGA,210956.800,4305.1656,N,07740.7989,W,1,11,0.82,163.9,M,-34.4,M,,*5B
lng=-77.679977, lat=43.086093, altitude=163.90, speed=0.00, satellites=11, angle=191.6500, fixquality=1
$GPRMC,210957.000,A,4305.1656,N,07740.7989,W,0.00,264.09,210319,,,A*78
$GPGGA,210957.200,4305.1656,N,07740.7989,W,1,11,0.82,163.9,M,-34.4,M,,*50
lng=-77.679977, lat=43.086093, altitude=163.90, speed=0.00, satellites=11, angle=264.0900, fixquality=1
$GPRMC,210957.400,A,4305.1656,N,07740.7989,W,0.00,249.65,210319,,,A*79
$GPGGA,210957.600,4305.1656,N,07740.7989,W,1,11,0.82,163.9,M,-34.4,M,,*54
lng=-77.679977, lat=43.086093, altitude=163.90, speed=0.00, satellites=11, angle=249.6500, fixquality=1
$GPRMC,210957.800,A,4305.1656,N,07740.7989,W,0.00,310.34,210319,,,A*7C
$GPGGA,210958.000,4305.1656,N,07740.7989,W,1,11,0.82,163.9,M,-34.4,M,,*5D
lng=-77.679977, lat=43.086093, altitude=163.90, speed=0.00, satellites=11, angle=310.3400, fixquality=1
$GPRMC,210958.200,A,4305.1656,N,07740.7989,W,0.00,222.77,210319,,,A*7E
$GPGGA,210958.400,4305.1656,N,07740.7989,W,1,11,0.82,163.9,M,-34.4,M,,*59
lng=-77.679977, lat=43.086093, altitude=163.90, speed=0.00, satellites=11, angle=222.7700, fixquality=1
$GPRMC,210958.600,A,4305.1656,N,07740.7989,W,0.00,294.49,210319,,,A*7A
$GPGGA,210958.800,4305.1656,N,07740.7989,W,1,11,0.82,163.9,M,-34.4,M,,*55
lng=-77.679977, lat=43.086093, altitude=163.90, speed=0.00, satellites=11, angle=294.4900, fixquality=1
$GPRMC,210959.000,A,4305.1656,N,07740.7989,W,0.00,255.33,210319,,,A*7D
$GPGGA,210959.200,4305.1656,N,07740.7989,W,1,11,0.82,163.9,M,-34.4,M,,*5E
lng=-77.679977, lat=43.086093, altitude=163.90, speed=0.00, satellites=11, angle=255.3300, fixquality=1
$GPRMC,210959.400,A,4305.1656,N,07740.7989,W,0.00,191.74,210319,,,A*71
$GPGGA,210959.600,4305.1656,N,07740.7989,W,1,11,0.82,163.9,M,-34.4,M,,*5A
lng=-77.679977, lat=43.086093, altitude=163.90, speed=0.00, satellites=11, angle=191.7400, fixquality=1
$GPRMC,210959.800,A,4305.1656,N,07740.7989,W,0.01,22.28,210319,,,A*4C
$GPGGA,211000.000,4305.1656,N,07740.7989,W,1,11,0.82,163.9,M,-34.4,M,,*58
lng=-77.679977, lat=43.086093, altitude=163.90, speed=0.01, satellites=11, angle=22.2800, fixquality=1
$GPRMC,211000.200,A,4305.1656,N,07740.7989,W,0.01,269.09,210319,,,A*7C
$GPGGA,211000.400,4305.1656,N,07740.7989,W,1,11,0.82,163.9,M,-34.4,M,,*5C
lng=-77.679977, lat=43.086093, altitude=163.90, speed=0.01, satellites=11, angle=269.0900, fixquality=1
$GPRMC,211000.600,A,4305.1656,N,07740.7989,W,0.00,0.00,210319,,,A*7D
$GPGGA,211000.800,4305.1656,N,07740.7989,W,1,11,0.82,163.9,M,-34.4,M,,*50
lng=-77.679977, lat=43.086093, altitude=163.90, speed=0.00, satellites=11, angle=0.0000, fixquality=1
$GPRMC,211001.000,A,4305.1656,N,07740.7989,W,0.00,153.22,210319,,,A*7D
$GPGGA,211001.200,4305.1656,N,07740.7989,W,1,11,0.82,163.9,M,-34.4,M,,*5B
lng=-77.679977, lat=43.086093, altitude=163.90, speed=0.00, satellites=11, angle=153.2200, fixquality=1
$GPRMC,211001.400,A,4305.1656,N,07740.7989,W,0.01,155.51,210319,,,A*7A
$GPGGA,211001.600,4305.1656,N,07740.7989,W,1,11,0.82,163.9,M,-34.4,M,,*5F
lng=-77.679977, lat=43.086093, altitude=163.90, speed=0.01, satellites=11, angle=155.5100, fixquality=1
$GPRMC,211001.800,A,4305.1656,N,07740.7989,W,0.00,194.36,210319,,,A*7B
$GPGGA,211002.000,4305.1656,N,07740.7989,W,1,11,0.82,163.9,M,-34.4,M,,*5A
lng=-77.679977, lat=43.086093, altitude=163.90, speed=0.00, satellites=11, angle=194.3600, fixquality=1
$GPRMC,211002.200,A,4305.1656,N,07740.7989,W,0.00,118.48,210319,,,A*7F
$GPGGA,211002.400,4305.1656,N,07740.7989,W,1,11,0.82,163.9,M,-34.4,M,,*5E
lng=-77.679977, lat=43.086093, altitude=163.90, speed=0.00, satellites=11, angle=118.4800, fixquality=1
$GPRMC,211002.600,A,4305.1656,N,07740.7989,W,0.01,29.62,210319,,,A*41
$GPGGA,211002.800,4305.1656,N,07740.7989,W,1,11,0.82,164.0,M,-34.4,M,,*5C
lng=-77.679977, lat=43.086093, altitude=163.90, speed=0.01, satellites=11, angle=29.6200, fixquality=1
$GPRMC,211003.000,A,4305.1656,N,07740.7989,W,0.00,44.88,210319,,,A*48
$GPGGA,211003.200,4305.1656,N,07740.7989,W,1,11,0.82,164.0,M,-34.4,M,,*57
lng=-77.679977, lat=43.086093, altitude=164.00, speed=0.00, satellites=11, angle=44.8800, fixquality=1
$GPRMC,211003.400,A,4305.1656,N,07740.7989,W,0.00,319.08,210319,,,A*7F
$GPGGA,211003.600,4305.1656,N,07740.7989,W,1,11,0.82,164.0,M,-34.4,M,,*53
lng=-77.679977, lat=43.086093, altitude=164.00, speed=0.00, satellites=11, angle=319.0800, fixquality=1
$GPRMC,211004.000,A,4305.1656,N,07740.7989,W,0.00,12.26,210319,,,A*48
$GPGGA,211004.200,4305.1656,N,07740.7989,W,1,11,0.82,164.0,M,-34.4,M,,*50
lng=-77.679977, lat=43.086093, altitude=164.00, speed=0.00, satellites=11, angle=12.2600, fixquality=1
$GPGGA,211004.800,4305.1656,N,07740.7989,W,1,11,0.82,164.0,M,-34.4,M,,*5A
$GPRMC,211004.800,A,4305.1656,N,07740.7989,W,0.00,359.14,210319,,,A*7D
lng=-77.679977, lat=43.086093, altitude=164.00, speed=0.00, satellites=11, angle=12.2600, fixquality=1
$GPGGA,211005.000,4305.1656,N,07740.7989,W,1,11,0.82,164.0,M,-34.4,M,,*53
$GPRMC,211005.000,A,4305.1656,N,07740.7989,W,0.01,23.49,210319,,,A*43
lng=-77.679977, lat=43.086093, altitude=164.00, speed=0.00, satellites=11, angle=359.1400, fixquality=1
$GPGGA,211005.200,4305.1656,N,07740.7989,W,1,10,0.90,164.0,M,-34.4,M,,*53
$GPRMC,211005.200,A,4305.1656,N,07740.7989,W,0.01,30.61,210319,,,A*49
lng=-77.679977, lat=43.086093, altitude=164.00, speed=0.01, satellites=10, angle=23.4900, fixquality=1
$GPGGA,211005.400,4305.1656,N,07740.7989,W,1,10,0.90,164.0,M,-34.4,M,,*55
$GPRMC,211005.400,A,4305.1656,N,07740.7989,W,0.01,1.72,210319,,,A*7F
lng=-77.679977, lat=43.086093, altitude=164.00, speed=0.01, satellites=10, angle=30.6100, fixquality=1
$GPGGA,211005.600,4305.1656,N,07740.7989,W,1,11,0.82,164.0,M,-34.4,M,,*55
$GPRMC,211005.600,A,4305.1656,N,07740.7989,W,0.03,355.88,210319,,,A*78
lng=-77.679977, lat=43.086093, altitude=164.00, speed=0.01, satellites=11, angle=1.7200, fixquality=1
$GPGGA,211005.800,4305.1656,N,07740.7989,W,1,11,0.82,164.0,M,-34.4,M,,*5B
$GPRMC,211005.800,A,4305.1656,N,07740.7989,W,0.05,327.98,210319,,,A*74
lng=-77.679977, lat=43.086093, altitude=164.00, speed=0.03, satellites=11, angle=355.8800, fixquality=1
$GPGGA,211006.000,4305.1656,N,07740.7989,W,1,11,0.81,164.0,M,-34.4,M,,*53
$GPRMC,211006.000,A,4305.1656,N,07740.7989,W,0.12,316.97,210319,,,A*74
lng=-77.679977, lat=43.086093, altitude=164.00, speed=0.05, satellites=11, angle=327.9800, fixquality=1
$GPGGA,211006.200,4305.1656,N,07740.7989,W,1,11,0.82,164.0,M,-34.4,M,,*52
$GPRMC,211006.200,A,4305.1656,N,07740.7989,W,0.13,311.91,210319,,,A*76
lng=-77.679977, lat=43.086093, altitude=164.00, speed=0.12, satellites=11, angle=316.9700, fixquality=1
$GPGGA,211006.400,4305.1656,N,07740.7989,W,1,11,0.81,164.0,M,-34.4,M,,*57
$GPRMC,211006.400,A,4305.1656,N,07740.7989,W,0.24,305.38,210319,,,A*72
lng=-77.679977, lat=43.086093, altitude=164.00, speed=0.13, satellites=11, angle=311.9100, fixquality=1
$GPGGA,211006.600,4305.1656,N,07740.7989,W,1,11,0.81,164.0,M,-34.4,M,,*55
$GPRMC,211006.600,A,4305.1656,N,07740.7989,W,0.35,303.11,210319,,,A*7D
lng=-77.679977, lat=43.086093, altitude=164.00, speed=0.24, satellites=11, angle=305.3800, fixquality=1
$GPGGA,211006.800,4305.1656,N,07740.7990,W,1,11,0.81,164.0,M,-34.4,M,,*53
$GPRMC,211006.800,A,4305.1656,N,07740.7990,W,0.38,303.47,210319,,,A*75
lng=-77.679977, lat=43.086093, altitude=164.00, speed=0.35, satellites=11, angle=303.1100, fixquality=1
$GPGGA,211007.000,4305.1656,N,07740.7990,W,1,11,0.81,164.0,M,-34.4,M,,*5A
$GPRMC,211007.000,A,4305.1656,N,07740.7990,W,0.49,305.87,210319,,,A*70
lng=-77.679977, lat=43.086093, altitude=164.00, speed=0.38, satellites=11, angle=303.4700, fixquality=1
$GPGGA,211007.200,4305.1656,N,07740.7990,W,1,11,0.82,164.0,M,-34.4,M,,*5B
$GPRMC,211007.200,A,4305.1656,N,07740.7990,W,0.25,312.22,210319,,,A*71
lng=-77.679977, lat=43.086093, altitude=164.00, speed=0.49, satellites=11, angle=305.8700, fixquality=1
$GPGGA,211007.400,4305.1656,N,07740.7990,W,1,11,0.81,163.9,M,-34.4,M,,*50
$GPRMC,211007.400,A,4305.1656,N,07740.7990,W,0.40,306.59,210319,,,A*7D
lng=-77.679977, lat=43.086093, altitude=163.90, speed=0.25, satellites=11, angle=312.2200, fixquality=1
$GPGGA,211007.600,4305.1656,N,07740.7990,W,1,11,0.81,163.9,M,-34.4,M,,*52
$GPRMC,211007.600,A,4305.1656,N,07740.7990,W,0.62,296.73,210319,,,A*7F
lng=-77.679977, lat=43.086093, altitude=163.90, speed=0.40, satellites=11, angle=306.5900, fixquality=1
$GPGGA,211007.800,4305.1657,N,07740.7992,W,1,11,0.81,163.9,M,-34.4,M,,*5F
$GPRMC,211007.800,A,4305.1657,N,07740.7992,W,0.68,295.47,210319,,,A*7C
lng=-77.679985, lat=43.086093, altitude=163.90, speed=0.62, satellites=11, angle=296.7300, fixquality=1
$GPGGA,211008.000,4305.1657,N,07740.7993,W,1,11,0.81,163.9,M,-34.4,M,,*59
$GPRMC,211008.000,A,4305.1657,N,07740.7993,W,0.70,295.39,210319,,,A*7A
lng=-77.679985, lat=43.086093, altitude=163.90, speed=0.68, satellites=11, angle=295.4700, fixquality=1
$GPGGA,211008.200,4305.1657,N,07740.7993,W,1,11,0.81,163.9,M,-34.4,M,,*5B
$GPRMC,211008.200,A,4305.1657,N,07740.7993,W,0.72,295.26,210319,,,A*74
lng=-77.679985, lat=43.086093, altitude=163.90, speed=0.70, satellites=11, angle=295.3900, fixquality=1
$GPGGA,211008.400,4305.1657,N,07740.7994,W,1,11,0.81,163.8,M,-34.4,M,,*5B
$GPRMC,211008.400,A,4305.1657,N,07740.7994,W,0.72,293.96,210319,,,A*78
lng=-77.679985, lat=43.086093, altitude=163.80, speed=0.72, satellites=11, angle=295.2600, fixquality=1
$GPGGA,211008.600,4305.1658,N,07740.7995,W,1,11,0.81,163.8,M,-34.4,M,,*57
$GPRMC,211008.600,A,4305.1658,N,07740.7995,W,0.66,294.51,210319,,,A*7D
lng=-77.679985, lat=43.086101, altitude=163.80, speed=0.72, satellites=11, angle=293.9600, fixquality=1
$GPGGA,211008.800,4305.1658,N,07740.7995,W,1,11,0.81,163.8,M,-34.4,M,,*59
$GPRMC,211008.800,A,4305.1658,N,07740.7995,W,0.60,295.97,210319,,,A*7E
lng=-77.679985, lat=43.086101, altitude=163.80, speed=0.66, satellites=11, angle=294.5100, fixquality=1
$GPGGA,211009.000,4305.1658,N,07740.7995,W,1,11,0.81,163.7,M,-34.4,M,,*5F
$GPRMC,211009.000,A,4305.1658,N,07740.7995,W,0.45,301.42,210319$GPGGA,211009.200,4305.1657,N,07740.7995,W,1,11,0.81,163.7,M,-34.4,M,,*52
lng=-77.679985, lat=43.086101, altitude=163.70, speed=0.60, satellites=11, angle=295.9700, fixquality=1
$GPRMC,211009.400,A,4305.1657,N,07740.7994,W,0.08,34.72,210319,,,A*41
$GPGGA,211009.600,4305.1657,N,07740.7993,W,1,10,0.86,163.7,M,-34.4,M,,*56
lng=-77.679985, lat=43.086093, altitude=163.70, speed=0.08, satellites=11, angle=34.7200, fixquality=1
$GPRMC,211009.800,A,4305.1657,N,07740.7992,W,0.48,90.02,210319,,,A*46
$GPGGA,211010.000,4305.1657,N,07740.7990,W,1,10,0.86,163.6,M,-34.4,M,,*5A
lng=-77.679985, lat=43.086093, altitude=163.70, speed=0.48, satellites=10, angle=90.0200, fixquality=1
$GPRMC,211010.200,A,4305.1657,N,07740.7987,W,1.26,94.94,210319,,,A*42
$GPGGA,211010.400,4305.1657,N,07740.7983,W,1,11,0.81,163.5,M,-34.4,M,,*59
lng=-77.679977, lat=43.086093, altitude=163.60, speed=1.26, satellites=10, angle=94.9400, fixquality=1
$GPRMC,211010.600,A,4305.1657,N,07740.7978,W,3.50,97.21,210319,,,A*48
$GPGGA,211010.800,4305.1656,N,07740.7976,W,1,11,0.81,163.5,M,-34.4,M,,*5E
lng=-77.679962, lat=43.086093, altitude=163.50, speed=3.50, satellites=11, angle=97.2100, fixquality=1
$GPRMC,211011.000,A,4305.1656,N,07740.7972,W,4.91,100.04,210319,,,A*76
$GPGGA,211011.200,4305.1656,N,07740.7968,W,1,11,0.82,163.4,M,-34.4,M,,*58
lng=-77.679954, lat=43.086093, altitude=163.50, speed=4.91, satellites=11, angle=100.0400, fixquality=1
$GPRMC,211011.400,A,4305.1655,N,07740.7963,W,6.82,101.81,210319,,,A*7D
$GPGGA,211011.600,4305.1655,N,07740.7957,W,1,10,0.88,163.5,M,-34.4,M,,*59
lng=-77.679939, lat=43.086093, altitude=163.40, speed=6.82, satellites=11, angle=101.8100, fixquality=1
$GPRMC,211011.800,A,4305.1655,N,07740.7950,W,9.17,99.05,210319,,,A*4E
$GPGGA,211012.000,4305.1655,N,07740.7942,W,1,11,0.82,163.5,M,-34.4,M,,*53
lng=-77.679916, lat=43.086093, altitude=163.50, speed=9.17, satellites=10, angle=99.0500, fixquality=1
$GPRMC,211012.200,A,4305.1655,N,07740.7935,W,10.71,95.60,210319,,,A*73
$GPGGA,211012.400,4305.1656,N,07740.7927,W,1,11,0.82,163.4,M,-34.4,M,,*56
lng=-77.679893, lat=43.086093, altitude=163.50, speed=10.71, satellites=11, angle=95.6000, fixquality=1
$GPRMC,211012.600,A,4305.1657,N,07740.7919,W,12.05,92.27,210319,,,A*7E
$GPGGA,211012.800,4305.1658,N,07740.7910,W,1,11,0.82,163.3,M,-34.4,M,,*57
lng=-77.679862, lat=43.086093, altitude=163.40, speed=12.05, satellites=11, angle=92.2700, fixquality=1
$GPRMC,211013.000,A,4305.1658,N,07740.7901,W,12.77,91.41,210319,,,A*79
$GPGGA,211013.200,4305.1658,N,07740.7892,W,1,11,0.82,163.3,M,-34.4,M,,*57
lng=-77.679832, lat=43.086101, altitude=163.30, speed=12.77, satellites=11, angle=91.4100, fixquality=1
$GPRMC,211013.400,A,4305.1659,N,07740.7882,W,13.77,90.82,210319,,,A*79
$GPGGA,211013.600,4305.1660,N,07740.7872,W,1,11,0.82,163.2,M,-34.4,M,,*57
lng=-77.679801, lat=43.086101, altitude=163.30, speed=13.77, satellites=11, angle=90.8200, fixquality=1
$GPRMC,211013.800,A,4305.1660,N,07740.7861,W,14.16,90.08,210319,,,A*70
$GPGGA,211014.000,4305.1660,N,07740.7851,W,1,11,0.82,163.2,M,-34.4,M,,*57
lng=-77.679771, lat=43.086101, altitude=163.20, speed=14.16, satellites=11, angle=90.0800, fixquality=1
$GPRMC,211014.200,A,4305.1661,N,07740.7840,W,14.36,89.34,210319,,,A*7A
$GPGGA,211014.400,4305.1661,N,07740.7830,W,1,11,0.82,163.2,M,-34.4,M,,*55
lng=-77.679733, lat=43.086101, altitude=163.20, speed=14.36, satellites=11, angle=89.3400, fixquality=1
$GPRMC,211014.600,A,4305.1662,N,07740.7820,W,14.11,88.84,210319,,,A*74
$GPGGA,211014.800,4305.1662,N,07740.7810,W,1,11,0.82,163.1,M,-34.4,M,,*5B
lng=-77.679702, lat=43.086101, altitude=163.20, speed=14.11, satellites=11, angle=88.8400, fixquality=1
$GPRMC,211015.000,A,4305.1663,N,07740.7800,W,13.84,88.42,210319,,,A*71
$GPGGA,211015.200,4305.1663,N,07740.7790,W,1,11,0.82,163.0,M,-34.4,M,,*57
lng=-77.679664, lat=43.086109, altitude=163.10, speed=13.84, satellites=11, angle=88.4200, fixquality=1
$GPRMC,211015.400,A,4305.1663,N,07740.7780,W,13.56,88.33,210319,,,A*7B
$GPGGA,211015.600,4305.1664,N,07740.7771,W,1,11,0.82,163.0,M,-34.4,M,,*5B
lng=-77.679634, lat=43.086109, altitude=163.00, speed=13.56, satellites=11, angle=88.3300, fixquality=1
$GPRMC,211015.800,A,4305.1664,N,07740.7762,W,13.10,88.35,210319,,,A*78
$GPGGA,211016.000,4305.1664,N,07740.7752,W,1,11,0.82,162.9,M,-34.4,M,,*57
lng=-77.679603, lat=43.086109, altitude=163.00, speed=13.10, satellites=11, angle=88.3500, fixquality=1
$GPRMC,211016.200,A,4305.1665,N,07740.7743,W,12.85,87.88,210319,,,A*77
$GPGGA,211016.400,4305.1665,N,07740.7734,W,1,11,0.82,162.8,M,-34.4,M,,*53
lng=-77.679573, lat=43.086109, altitude=162.90, speed=12.85, satellites=11, angle=87.8800, fixquality=1
$GPRMC,211016.600,A,4305.1665,N,07740.7725,W,12.36,88.46,210319,,,A*76
$GPGGA,211016.800,4305.1665,N,07740.7715,W,1,11,0.82,162.7,M,-34.4,M,,*53
lng=-77.679542, lat=43.086109, altitude=162.80, speed=12.36, satellites=11, angle=88.4600, fixquality=1
$GPRMC,211017.000,A,4305.1665,N,07740.7707,W,12.04,88.90,210319,,,A*7B
$GPGGA,211017.200,4305.1665,N,07740.7698,W,1,11,0.82,162.6,M,-34.4,M,,*5D
lng=-77.679512, lat=43.086109, altitude=162.70, speed=12.04, satellites=11, angle=88.9000, fixquality=1
$GPRMC,211017.400,A,4305.1665,N,07740.7690,W,11.59,88.93,210319,,,A*78
$GPGGA,211017.600,4305.1665,N,07740.7682,W,1,11,0.82,162.4,M,-34.4,M,,*50
lng=-77.679481, lat=43.086109, altitude=162.60, speed=11.59, satellites=11, angle=88.9300, fixquality=1
$GPRMC,211017.800,A,4305.1665,N,07740.7674,W,11.37,88.99,210319,,,A*7C
$GPGGA,211018.000,4305.1667,N,07740.7669,W,1,11,0.82,162.3,M,-34.4,M,,*59
lng=-77.679458, lat=43.086109, altitude=162.40, speed=11.37, satellites=11, angle=88.9900, fixquality=1
$GPRMC,211018.200,A,4305.1668,N,07740.7662,W,11.25,88.73,210319,,,A*74
$GPGGA,211018.400,4305.1669,N,07740.7654,W,1,11,0.82,162.2,M,-34.4,M,,*5C
lng=-77.679435, lat=43.086116, altitude=162.30, speed=11.25, satellites=11, angle=88.7300, fixquality=1
$GPRMC,211018.600,A,4305.1670,N,07740.7647,W,11.00,88.56,210319,,,A*7E
$GPGGA,211018.800,4305.1670,N,07740.7639,W,1,11,0.82,162.1,M,-34.4,M,,*50
lng=-77.679412, lat=43.086116, altitude=162.20, speed=11.00, satellites=11, angle=88.5600, fixquality=1
$GPRMC,211019.000,A,4305.1671,N,07740.7632,W,10.59,88.04,210319,,,A*70
$GPGGA,211019.200,4305.1672,N,07740.7624,W,1,10,0.90,162.0,M,-34.4,M,,*56
lng=-77.679389, lat=43.086116, altitude=162.10, speed=10.59, satellites=11, angle=88.0400, fixquality=1
$GPRMC,211019.400,A,4305.1672,N,07740.7617,W,10.33,87.76,210319,,,A*76
$GPGGA,211019.600,4305.1673,N,07740.7610,W,1,10,0.90,161.9,M,-34.4,M,,*5E
lng=-77.679359, lat=43.086116, altitude=162.00, speed=10.33, satellites=10, angle=87.7600, fixquality=1
$GPRMC,211019.800,A,4305.1673,N,07740.7603,W,10.07,87.49,210319,,,A*75
$GPGGA,211020.000,4305.1674,N,07740.7597,W,1,10,0.90,161.7,M,-34.4,M,,*57
lng=-77.679336, lat=43.086124, altitude=161.90, speed=10.07, satellites=10, angle=87.4900, fixquality=1
$GPRMC,211020.200,A,4305.1675,N,07740.7590,W,9.77,87.78,210319,,,A*47
$GPGGA,211020.400,4305.1675,N,07740.7584,W,1,10,0.90,161.6,M,-34.4,M,,*51
lng=-77.679313, lat=43.086124, altitude=161.70, speed=9.77, satellites=10, angle=87.7800, fixquality=1
$GPRMC,211020.600,A,4305.1675,N,07740.7577,W,9.46,88.12,210319,,,A*4B
$GPGGA,211020.800,4305.1675,N,07740.7571,W,1,09,1.01,161.5,M,-34.4,M,,*55
lng=-77.679298, lat=43.086124, altitude=161.60, speed=9.46, satellites=10, angle=88.1200, fixquality=1
$GPRMC,211021.000,A,4305.1675,N,07740.7565,W,8.91,88.62,210319,,,A*43
$GPGGA,211021.200,4305.1675,N,07740.7560,W,1,09,1.01,161.4,M,-34.4,M,,*5F
lng=-77.679275, lat=43.086124, altitude=161.50, speed=8.91, satellites=9, angle=88.6200, fixquality=1
$GPRMC,211021.400,A,4305.1675,N,07740.7554,W,7.94,89.06,210319,,,A*4C
$GPGGA,211021.600,4305.1675,N,07740.7550,W,1,09,1.01,161.3,M,-34.4,M,,*5F
lng=-77.679252, lat=43.086124, altitude=161.40, speed=7.94, satellites=9, angle=89.0600, fixquality=1
$GPRMC,211021.800,A,4305.1674,N,07740.7545,W,6.81,89.27,210319,,,A*47
$GPGGA,211022.000,4305.1675,N,07740.7541,W,1,09,1.01,161.2,M,-34.4,M,,*5B
lng=-77.679237, lat=43.086124, altitude=161.30, speed=6.81, satellites=9, angle=89.2700, fixquality=1
$GPRMC,211022.200,A,4305.1674,N,07740.7538,W,5.19,87.61,210319,,,A*4A
$GPGGA,211022.400,4305.1674,N,07740.7535,W,1,09,1.01,161.1,M,-34.4,M,,*5E
lng=-77.679229, lat=43.086124, altitude=161.20, speed=5.19, satellites=9, angle=87.6100, fixquality=1
$GPRMC,211022.600,A,4305.1674,N,07740.7533,W,3.81,85.23,210319,,,A*46
$GPGGA,211022.800,4305.1674,N,07740.7530,W,1,09,0.96,161.0,M,-34.4,M,,*59
lng=-77.679222, lat=43.086124, altitude=161.10, speed=3.81, satellites=9, angle=85.2300, fixquality=1
$GPRMC,211023.000,A,4305.1675,N,07740.7529,W,2.82,84.73,210319,,,A*4D
$GPGGA,211023.200,4305.1675,N,07740.7527,W,1,09,0.96,160.9,M,-34.4,M,,*5D
lng=-77.679214, lat=43.086124, altitude=161.00, speed=2.82, satellites=9, angle=84.7300, fixquality=1
$GPRMC,211023.400,A,4305.1676,N,07740.7526,W,2.30,84.73,210319,,,A*4C
$GPGGA,211023.600,4305.1676,N,07740.7524,W,1,09,0.96,160.8,M,-34.4,M,,*58
lng=-77.679206, lat=43.086124, altitude=160.90, speed=2.30, satellites=9, angle=84.7300, fixquality=1
$GPRMC,211023.800,A,4305.1677,N,07740.7523,W,2.22,84.73,210319,,,A*47
$GPGGA,211024.000,4305.1677,N,07740.7521,W,1,10,0.88,160.7,M,-34.4,M,,*55
lng=-77.679206, lat=43.086124, altitude=160.80, speed=2.22, satellites=9, angle=84.7300, fixquality=1
$GPRMC,211024.200,A,4305.1678,N,07740.7521,W,2.39,84.73,210319,,,A*4D
$GPGGA,211024.400,4305.1679,N,07740.7520,W,1,11,0.81,160.5,M,-34.4,M,,*54
lng=-77.679199, lat=43.086132, altitude=160.70, speed=2.39, satellites=10, angle=84.7300, fixquality=1
$GPRMC,211024.600,A,4305.1679,N,07740.7518,W,3.55,80.73,210319,,,A*4D
$GPGGA,211024.800,4305.1680,N,07740.7515,W,1,11,0.81,160.3,M,-34.4,M,,*5E
lng=-77.679199, lat=43.086132, altitude=160.50, speed=3.55, satellites=11, angle=80.7300, fixquality=1
$GPRMC,211025.000,A,4305.1679,N,07740.7512,W,4.28,81.54,210319,,,A*49
$GPGGA,211025.200,4305.1680,N,07740.7508,W,1,11,0.82,160.0,M,-34.4,M,,*59
lng=-77.679183, lat=43.086132, altitude=160.30, speed=4.28, satellites=11, angle=81.5400, fixquality=1
$GPRMC,211025.400,A,4305.1682,N,07740.7504,W,5.94,70.29,210319,,,A*4C
$GPGGA,211025.600,4305.1683,N,07740.7499,W,1,11,0.82,159.8,M,-34.4,M,,*55
lng=-77.679176, lat=43.086132, altitude=160.00, speed=5.94, satellites=11, angle=70.2900, fixquality=1
$GPRMC,211025.800,A,4305.1685,N,07740.7495,W,6.81,62.75,210319,,,A*43
$GPGGA,211026.000,4305.1687,N,07740.7490,W,1,10,0.90,159.7,M,-34.4,M,,*50
lng=-77.679161, lat=43.086139, altitude=159.80, speed=6.81, satellites=11, angle=62.7500, fixquality=1
$GPRMC,211026.200,A,4305.1689,N,07740.7486,W,8.65,53.42,210319,,,A*46
$GPGGA,211026.400,4305.1691,N,07740.7482,W,1,11,0.82,159.6,M,-34.4,M,,*53
lng=-77.679145, lat=43.086147, altitude=159.70, speed=8.65, satellites=10, angle=53.4200, fixquality=1
$GPRMC,211026.600,A,4305.1694,N,07740.7479,W,9.11,46.65,210319,,,A*4D
$GPGGA,211026.800,4305.1698,N,07740.7476,W,1,11,0.82,159.6,M,-34.4,M,,*5D
lng=-77.679130, lat=43.086158, altitude=159.60, speed=9.11, satellites=11, angle=46.6500, fixquality=1
$GPRMC,211027.000,A,4305.1702,N,07740.7473,W,9.60,39.86,210319,,,A*4D
$GPGGA,211027.200,4305.1708,N,07740.7471,W,1,11,0.82,159.5,M,-34.4,M,,*5A
lng=-77.679115, lat=43.086174, altitude=159.60, speed=9.60, satellites=11, angle=39.8600, fixquality=1
$GPRMC,211027.400,A,4305.1714,N,07740.7469,W,10.84,29.54,210319,,,A*79
$GPGGA,211027.600,4305.1720,N,07740.7467,W,1,11,0.82,159.4,M,-34.4,M,,*52
lng=-77.679115, lat=43.086189, altitude=159.50, speed=10.84, satellites=11, angle=29.5400, fixquality=1
$GPRMC,211027.800,A,4305.1727,N,07740.7465,W,11.84,21.53,210319,,,A*77
$GPGGA,211028.000,4305.1735,N,07740.7464,W,1,10,0.88,159.3,M,-34.4,M,,*50
lng=-77.679107, lat=43.086215, altitude=159.40, speed=11.84, satellites=11, angle=21.5300, fixquality=1
$GPRMC,211028.200,A,4305.1744,N,07740.7464,W,13.33,10.88,210319,,,A*7C
$GPGGA,211028.400,4305.1756,N,07740.7463,W,1,10,0.88,159.4,M,-34.4,M,,*51
lng=-77.679107, lat=43.086238, altitude=159.30, speed=13.33, satellites=10, angle=10.8800, fixquality=1
$GPRMC,211028.600,A,4305.1766,N,07740.7463,W,14.49,6.59,210319,,,A*4E
$GPGGA,211028.800,4305.1775,N,07740.7463,W,1,11,0.82,159.4,M,-34.4,M,,*57
lng=-77.679100, lat=43.086280, altitude=159.40, speed=14.49, satellites=10, angle=6.5900, fixquality=1
$GPRMC,211029.000,A,4305.1784,N,07740.7464,W,15.55,2.54,210319,,,A*47
$GPGGA,211029.200,4305.1793,N,07740.7465,W,1,11,0.82,159.2,M,-34.4,M,,*54
lng=-77.679107, lat=43.086303, altitude=159.40, speed=15.55, satellites=11, angle=2.5400, fixquality=1
$GPRMC,211029.400,A,4305.1803,N,07740.7466,W,16.63,359.80,210319,,,A*43
$GPGGA,211029.600,4305.1813,N,07740.7467,W,1,11,0.82,158.9,M,-34.4,M,,*5F
lng=-77.679107, lat=43.086338, altitude=159.20, speed=16.63, satellites=11, angle=359.8000, fixquality=1
$GPRMC,211029.800,A,4305.1823,N,07740.7468,W,17.69,358.76,210319,,,A*40
$GPGGA,211030.000,4305.1834,N,07740.7469,W,1,10,0.90,158.7,M,-34.4,M,,*56
lng=-77.679107, lat=43.086368, altitude=158.90, speed=17.69, satellites=11, angle=358.7600, fixquality=1
$GPRMC,211030.200,A,4305.1844,N,07740.7469,W,18.87,358.48,210319,,,A*40
$GPGGA,211030.400,4305.1856,N,07740.7470,W,1,10,0.90,158.4,M,-34.4,M,,*5D
lng=-77.679115, lat=43.086410, altitude=158.70, speed=18.87, satellites=10, angle=358.4800, fixquality=1
$GPRMC,211030.600,A,4305.1867,N,07740.7470,W,19.68,358.50,210319,,,A*44
$GPGGA,211030.800,4305.1878,N,07740.7471,W,1,10,0.90,158.2,M,-34.4,M,,*5A
lng=-77.679115, lat=43.086441, altitude=158.40, speed=19.68, satellites=10, angle=358.5000, fixquality=1
$GPRMC,211031.000,A,4305.1889,N,07740.7471,W,20.02,358.36,210319,,,A*44
$GPGGA,211031.200,4305.1900,N,07740.7471,W,1,10,0.90,157.9,M,-34.4,M,,*5B
lng=-77.679115, lat=43.086483, altitude=158.20, speed=20.02, satellites=10, angle=358.3600, fixquality=1
$GPRMC,211031.400,A,4305.1912,N,07740.7472,W,20.41,359.08,210319,,,A*4B
$GPGGA,211031.600,4305.1923,N,07740.7472,W,1,10,0.90,157.6,M,-34.4,M,,*52
lng=-77.679115, lat=43.086524, altitude=157.90, speed=20.41, satellites=10, angle=359.0800, fixquality=1
$GPRMC,211031.800,A,4305.1934,N,07740.7472,W,20.62,359.36,210319,,,A*4F
$GPGGA,211032.000,4305.1946,N,07740.7472,W,1,10,0.90,157.3,M,-34.4,M,,*51
lng=-77.679115, lat=43.086555, altitude=157.60, speed=20.62, satellites=10, angle=359.3600, fixquality=1
$GPRMC,211032.200,A,4305.1958,N,07740.7472,W,20.92,359.70,210319,,,A*41
$GPGGA,211032.400,4305.1969,N,07740.7472,W,1,10,0.90,156.9,M,-34.4,M,,*53
lng=-77.679115, lat=43.086597, altitude=157.30, speed=20.92, satellites=10, angle=359.7000, fixquality=1
$GPRMC,211032.600,A,4305.1980,N,07740.7473,W,20.92,358.97,210319,,,A*49
$GPGGA,211032.800,4305.1992,N,07740.7473,W,1,10,0.90,156.5,M,-34.4,M,,*56
lng=-77.679115, lat=43.086635, altitude=156.90, speed=20.92, satellites=10, angle=358.9700, fixquality=1
$GPRMC,211033.000,A,4305.2003,N,07740.7473,W,20.95,358.86,210319,,,A*48
$GPGGA,211033.200,4305.2015,N,07740.7473,W,1,10,0.90,156.2,M,-34.4,M,,*5F
lng=-77.679115, lat=43.086669, altitude=156.50, speed=20.95, satellites=10, angle=358.8600, fixquality=1
$GPRMC,211033.400,A,4305.2026,N,07740.7474,W,21.00,358.49,210319,,,A*42
$GPGGA,211033.600,4305.2038,N,07740.7474,W,1,10,0.90,156.0,M,-34.4,M,,*51
lng=-77.679122, lat=43.086711, altitude=156.20, speed=21.00, satellites=10, angle=358.4900, fixquality=1
$GPRMC,211033.800,A,4305.2049,N,07740.7474,W,21.08,358.37,210319,,,A*46
$GPGGA,211034.000,4305.2061,N,07740.7474,W,1,10,0.90,155.6,M,-34.4,M,,*59
lng=-77.679122, lat=43.086750, altitude=156.00, speed=21.08, satellites=10, angle=358.3700, fixquality=1
$GPRMC,211034.200,A,4305.2072,N,07740.7474,W,21.10,358.54,210319,,,A*4F
$GPGGA,211034.400,4305.2084,N,07740.7474,W,1,10,0.90,155.4,M,-34.4,M,,*54
lng=-77.679122, lat=43.086784, altitude=155.60, speed=21.10, satellites=10, angle=358.5400, fixquality=1
$GPRMC,211034.600,A,4305.2096,N,07740.7474,W,21.12,359.13,210319,,,A*41
$GPGGA,211034.800,4305.2108,N,07740.7474,W,1,10,0.90,155.1,M,-34.4,M,,*58
lng=-77.679122, lat=43.086826, altitude=155.40, speed=21.12, satellites=10, angle=359.1300, fixquality=1
$GPRMC,211035.000,A,4305.2120,N,07740.7474,W,21.14,359.47,210319,,,A*4D
$GPGGA,211035.200,4305.2132,N,07740.7474,W,1,10,0.90,154.8,M,-34.4,M,,*52
lng=-77.679122, lat=43.086864, altitude=155.10, speed=21.14, satellites=10, angle=359.4700, fixquality=1
$GPRMC,211035.400,A,4305.2143,N,07740.7473,W,21.20,359.95,210319,,,A*43
$GPGGA,211035.600,4305.2155,N,07740.7473,W,1,10,0.90,154.5,M,-34.4,M,,*5D
lng=-77.679115, lat=43.086906, altitude=154.80, speed=21.20, satellites=10, angle=359.9500, fixquality=1
$GPRMC,211035.800,A,4305.2167,N,07740.7473,W,21.19,359.91,210319,,,A*47
$GPGGA,211036.000,4305.2179,N,07740.7473,W,1,10,0.90,154.2,M,-34.4,M,,*51
lng=-77.679115, lat=43.086948, altitude=154.50, speed=21.19, satellites=10, angle=359.9100, fixquality=1
$GPRMC,211036.200,A,4305.2191,N,07740.7473,W,21.13,359.73,210319,,,A*41
$GPGGA,211036.400,4305.2203,N,07740.7473,W,1,11,0.82,153.9,M,-34.4,M,,*55
lng=-77.679115, lat=43.086986, altitude=154.20, speed=21.13, satellites=10, angle=359.7300, fixquality=1
$GPRMC,211036.600,A,4305.2214,N,07740.7473,W,20.91,359.14,210319,,,A*41
$GPGGA,211036.800,4305.2226,N,07740.7473,W,1,10,0.90,153.7,M,-34.4,M,,*52
lng=-77.679115, lat=43.087020, altitude=153.90, speed=20.91, satellites=11, angle=359.1400, fixquality=1
$GPRMC,211037.000,A,4305.2237,N,07740.7474,W,20.51,358.80,210319,,,A*40
$GPGGA,211037.200,4305.2248,N,07740.7474,W,1,10,0.90,153.4,M,-34.4,M,,*55
lng=-77.679122, lat=43.087059, altitude=153.70, speed=20.51, satellites=10, angle=358.8000, fixquality=1
$GPRMC,211037.400,A,4305.2259,N,07740.7474,W,19.85,359.09,210319,,,A*4F
$GPGGA,211037.600,4305.2270,N,07740.7474,W,1,10,0.90,153.2,M,-34.4,M,,*5C
lng=-77.679122, lat=43.087100, altitude=153.40, speed=19.85, satellites=10, angle=359.0900, fixquality=1
$GPRMC,211037.800,A,4305.2280,N,07740.7474,W,19.17,359.29,210319,,,A*4E
$GPGGA,211038.000,4305.2290,N,07740.7474,W,1,09,1.01,152.9,M,-34.4,M,,*50
lng=-77.679122, lat=43.087135, altitude=153.20, speed=19.17, satellites=10, angle=359.2900, fixquality=1
$GPGGA,211038.400,4305.2311,N,07740.7474,W,1,11,0.82,152.6,M,-34.4,M,,*50
$GPRMC,211038.400,A,4305.2311,N,07740.7474,W,18.50,359.87,210319,,,A*42
lng=-77.679122, lat=43.087181, altitude=152.60, speed=19.17, satellites=11, angle=359.2900, fixquality=1
$GPGGA,211038.600,4305.2320,N,07740.7474,W,1,10,0.90,152.5,M,-34.4,M,,*51
$GPRMC,211038.600,A,4305.2320,N,07740.7474,W,17.95,359.99,210319,,,A*4B
lng=-77.679122, lat=43.087200, altitude=152.50, speed=18.50, satellites=10, angle=359.8700, fixquality=1
$GPGGA,211038.800,4305.2330,N,07740.7474,W,1,11,0.82,152.4,M,-34.4,M,,*5D
$GPRMC,211038.800,A,4305.2330,N,07740.7474,W,17.76,0.04,210319,,,A*42
lng=-77.679122, lat=43.087215, altitude=152.40, speed=17.95, satellites=11, angle=359.9900, fixquality=1
$GPRMC,211039.200,A,4305.2349,N,07740.7474,W,17.46,0.21,210319,,,A*43
$GPGGA,211039.400,4305.2358,N,07740.7473,W,1,09,1.01,152.0,M,-34.4,M,,*5E
lng=-77.679122, lat=43.087245, altitude=152.40, speed=17.46, satellites=11, angle=0.2100, fixquality=1
$GPGGA,211040.000,4305.2384,N,07740.7472,W,1,11,0.82,151.6,M,-34.4,M,,*52
$GPRMC,211040.000,A,4305.2384,N,07740.7472,W,16.87,0.64,210319,,,A*45
lng=-77.679115, lat=43.087303, altitude=151.60, speed=17.46, satellites=11, angle=0.2100, fixquality=1
$GPGGA,211040.200,4305.2391,N,07740.7471,W,1,09,1.01,151.5,M,-34.4,M,,*57
$GPRMC,211040.200,A,4305.2391,N,07740.7471,W,16.27,1.09,210319,,,A*40
lng=-77.679115, lat=43.087322, altitude=151.50, speed=16.87, satellites=9, angle=0.6400, fixquality=1
$GPGGA,211040.400,4305.2399,N,07740.7470,W,1,10,0.90,151.3,M,-34.4,M,,*5F
$GPRMC,211040.400,A,4305.2399,N,07740.7470,W,15.96,1.24,210319,,,A*49
lng=-77.679115, lat=43.087329, altitude=151.30, speed=16.27, satellites=10, angle=1.0900, fixquality=1
$GPGGA,211040.600,4305.2406,N,07740.7471,W,1,10,0.90,151.3,M,-34.4,M,,*5D
$GPRMC,211040.600,A,4305.2406,N,07740.7471,W,15.43,1.30,210319,$GPGGA,211040.800,4305.2413,N,07740.7471,W,1,10,0.90,151.1,M,-34.4,M,,*55
lng=-77.679115, lat=43.087345, altitude=151.30, speed=15.96, satellites=10, angle=1.2400, fixquality=1
$GPRMC,211041.000,A,4305.2420,N,07740.7471,W,14.21,1.26,210319,,,A*47
$GPGGA,211041.200,4305.2426,N,07740.7471,W,1,11,0.82,151.0,M,-34.4,M,,*5B
lng=-77.679115, lat=43.087368, altitude=151.30, speed=14.21, satellites=10, angle=1.2600, fixquality=1
$GPRMC,211041.400,A,4305.2433,N,07740.7472,W,12.89,1.15,210319,,,A*46
$GPGGA,211041.600,4305.2439,N,07740.7472,W,1,10,0.90,150.9,M,-34.4,M,,*58
lng=-77.679115, lat=43.087387, altitude=151.00, speed=12.89, satellites=11, angle=1.1500, fixquality=1
$GPRMC,211041.800,A,4305.2445,N,07740.7472,W,11.62,1.19,210319,,,A*41
$GPGGA,211042.000,4305.2450,N,07740.7472,W,1,11,0.82,150.8,M,-34.4,M,,*51
lng=-77.679115, lat=43.087409, altitude=150.90, speed=11.62, satellites=10, angle=1.1900, fixquality=1
$GPRMC,211042.200,A,4305.2456,N,07740.7472,W,10.45,1.50,210319,,,A*43
$GPGGA,211042.400,4305.2460,N,07740.7472,W,1,11,0.82,150.8,M,-34.4,M,,*56
lng=-77.679115, lat=43.087425, altitude=150.80, speed=10.45, satellites=11, angle=1.5000, fixquality=1
$GPRMC,211042.600,A,4305.2464,N,07740.7472,W,9.00,2.26,210319,,,A*7D
$GPGGA,211042.800,4305.2468,N,07740.7472,W,1,11,0.82,150.7,M,-34.4,M,,*5D
lng=-77.679115, lat=43.087444, altitude=150.80, speed=9.00, satellites=11, angle=2.2600, fixquality=1
$GPRMC,211043.000,A,4305.2472,N,07740.7472,W,7.85,4.69,210319,,,A*73
$GPGGA,211043.200,4305.2474,N,07740.7472,W,1,11,0.82,150.7,M,-34.4,M,,*5B
lng=-77.679115, lat=43.087451, altitude=150.70, speed=7.85, satellites=11, angle=4.6900, fixquality=1
$GPRMC,211043.400,A,4305.2477,N,07740.7472,W,6.39,6.71,210319,,,A*7F
$GPGGA,211043.600,4305.2478,N,07740.7472,W,1,11,0.82,150.5,M,-34.4,M,,*51
lng=-77.679115, lat=43.087459, altitude=150.70, speed=6.39, satellites=11, angle=6.7100, fixquality=1
$GPRMC,211043.800,A,4305.2481,N,07740.7472,W,5.33,5.54,210319,,,A*77
$GPGGA,211044.000,4305.2484,N,07740.7472,W,1,11,0.82,150.5,M,-34.4,M,,*53
lng=-77.679115, lat=43.087467, altitude=150.50, speed=5.33, satellites=11, angle=5.5400, fixquality=1
$GPRMC,211044.200,A,4305.2487,N,07740.7471,W,4.96,5.97,210319,,,A*7E
$GPGGA,211044.400,4305.2490,N,07740.7471,W,1,11,0.82,150.5,M,-34.4,M,,*51
lng=-77.679115, lat=43.087474, altitude=150.50, speed=4.96, satellites=11, angle=5.9700, fixquality=1
$GPRMC,211044.600,A,4305.2493,N,07740.7471,W,5.61,5.63,210319,,,A*7D
$GPGGA,211044.800,4305.2497,N,07740.7470,W,1,11,0.82,150.6,M,-34.4,M,,*58
lng=-77.679115, lat=43.087490, altitude=150.50, speed=5.61, satellites=11, angle=5.6300, fixquality=1
$GPRMC,211045.000,A,4305.2501,N,07740.7470,W,6.53,5.40,210319,,,A*72
$GPGGA,211045.200,4305.2505,N,07740.7470,W,1,11,0.82,150.5,M,-34.4,M,,*5A
lng=-77.679115, lat=43.087501, altitude=150.60, speed=6.53, satellites=11, angle=5.4000, fixquality=1
$GPRMC,211045.400,A,4305.2509,N,07740.7470,W,7.30,4.68,210319,,,A*71
$GPGGA,211045.600,4305.2513,N,07740.7470,W,1,11,0.82,150.3,M,-34.4,M,,*5F
lng=-77.679115, lat=43.087516, altitude=150.50, speed=7.30, satellites=11, angle=4.6800, fixquality=1
$GPRMC,211045.800,A,4305.2518,N,07740.7468,W,8.64,2.71,210319,,,A*74
$GPGGA,211046.000,4305.2524,N,07740.7467,W,1,11,0.82,150.3,M,-34.4,M,,*58
lng=-77.679107, lat=43.087532, altitude=150.30, speed=8.64, satellites=11, angle=2.7100, fixquality=1
$GPRMC,211046.200,A,4305.2530,N,07740.7468,W,9.76,0.42,210319,,,A*77
$GPGGA,211046.400,4305.2535,N,07740.7468,W,1,11,0.82,150.3,M,-34.4,M,,*53
lng=-77.679107, lat=43.087547, altitude=150.30, speed=9.76, satellites=11, angle=0.4200, fixquality=1
$GPRMC,211046.600,A,4305.2541,N,07740.7468,W,10.99,0.62,210319,,,A*4E
$GPGGA,211046.800,4305.2547,N,07740.7467,W,1,11,0.82,150.4,M,-34.4,M,,*52
lng=-77.679107, lat=43.087566, altitude=150.30, speed=10.99, satellites=11, angle=0.6200, fixquality=1
$GPRMC,211047.000,A,4305.2553,N,07740.7467,W,11.68,359.76,210319,,,A*40
$GPGGA,211047.200,4305.2561,N,07740.7468,W,1,10,0.90,150.5,M,-34.4,M,,*51
lng=-77.679107, lat=43.087589, altitude=150.40, speed=11.68, satellites=11, angle=359.7600, fixquality=1
$GPRMC,211047.400,A,4305.2568,N,07740.7468,W,13.11,357.71,210319,,,A*46
$GPGGA,211047.600,4305.2577,N,07740.7469,W,1,10,0.90,150.7,M,-34.4,M,,*51
lng=-77.679107, lat=43.087612, altitude=150.50, speed=13.11, satellites=10, angle=357.7100, fixquality=1
$GPRMC,211047.800,A,4305.2586,N,07740.7468,W,14.52,358.46,210319,,,A*41
$GPGGA,211048.000,4305.2596,N,07740.7468,W,1,10,0.90,150.8,M,-34.4,M,,*59
lng=-77.679107, lat=43.087646, altitude=150.70, speed=14.52, satellites=10, angle=358.4600, fixquality=1
$GPRMC,211048.200,A,4305.2606,N,07740.7468,W,16.22,358.54,210319,,,A*49
$GPGGA,211048.400,4305.2617,N,07740.7468,W,1,10,0.90,150.9,M,-34.4,M,,*56
lng=-77.679107, lat=43.087680, altitude=150.80, speed=16.22, satellites=10, angle=358.5400, fixquality=1
$GPRMC,211048.600,A,4305.2627,N,07740.7468,W,17.54,358.84,210319,,,A*43
$GPGGA,211048.800,4305.2639,N,07740.7468,W,1,10,0.90,150.9,M,-34.4,M,,*56
lng=-77.679107, lat=43.087711, altitude=150.90, speed=17.54, satellites=10, angle=358.8400, fixquality=1
$GPRMC,211049.000,A,4305.2650,N,07740.7469,W,18.70,358.45,210319,,,A*41
$GPGGA,211049.200,4305.2661,N,07740.7470,W,1,10,0.90,150.9,M,-34.4,M,,*59
lng=-77.679115, lat=43.087753, altitude=150.90, speed=18.70, satellites=10, angle=358.4500, fixquality=1
$GPRMC,211049.400,A,4305.2674,N,07740.7471,W,19.88,357.96,210319,,,A*4D
$GPGGA,211049.600,4305.2686,N,07740.7472,W,1,10,0.90,151.0,M,-34.4,M,,*5E
lng=-77.679115, lat=43.087791, altitude=150.90, speed=19.88, satellites=10, angle=357.9600, fixquality=1
$GPRMC,211049.800,A,4305.2697,N,07740.7473,W,20.41,357.53,210319,,,A*48
$GPGGA,211050.000,4305.2709,N,07740.7474,W,1,10,0.90,151.0,M,-34.4,M,,*50
lng=-77.679115, lat=43.087825, altitude=151.00, speed=20.41, satellites=10, angle=357.5300, fixquality=1
$GPRMC,211050.200,A,4305.2722,N,07740.7475,W,21.21,357.23,210319,,,A*43
$GPGGA,211050.400,4305.2735,N,07740.7477,W,1,10,0.90,151.1,M,-34.4,M,,*59
lng=-77.679122, lat=43.087867, altitude=151.00, speed=21.21, satellites=10, angle=357.2300, fixquality=1
$GPRMC,211050.600,A,4305.2747,N,07740.7479,W,22.09,356.70,210319,,,A*46
$GPGGA,211050.800,4305.2760,N,07740.7480,W,1,10,0.90,151.2,M,-34.4,M,,*5E
lng=-77.679130, lat=43.087913, altitude=151.10, speed=22.09, satellites=10, angle=356.7000, fixquality=1
$GPRMC,211051.000,A,4305.2773,N,07740.7481,W,22.62,357.17,210319,,,A*4C
$GPGGA,211051.200,4305.2786,N,07740.7482,W,1,10,0.90,151.3,M,-34.4,M,,*5E
lng=-77.679130, lat=43.087955, altitude=151.20, speed=22.62, satellites=10, angle=357.1700, fixquality=1
$GPRMC,211051.400,A,4305.2799,N,07740.7483,W,23.26,357.63,210319,,,A*4C
$GPGGA,211051.600,4305.2812,N,07740.7485,W,1,10,0.90,151.3,M,-34.4,M,,*5F
lng=-77.679145, lat=43.087997, altitude=151.30, speed=23.26, satellites=10, angle=357.6300, fixquality=1
$GPRMC,211051.800,A,4305.2826,N,07740.7485,W,23.65,357.69,210319,,,A*40
$GPGGA,211052.000,4305.2839,N,07740.7487,W,1,10,0.90,151.2,M,-34.4,M,,*50
lng=-77.679145, lat=43.088047, altitude=151.30, speed=23.65, satellites=10, angle=357.6900, fixquality=1
$GPRMC,211052.200,A,4305.2853,N,07740.7487,W,24.26,358.02,210319,,,A*4B
$GPGGA,211052.400,4305.2867,N,07740.7488,W,1,10,0.90,151.2,M,-34.4,M,,*50
lng=-77.679145, lat=43.088085, altitude=151.20, speed=24.26, satellites=10, angle=358.0200, fixquality=1
$GPRMC,211052.600,A,4305.2880,N,07740.7489,W,24.60,358.32,210319,,,A*4E
$GPGGA,211052.800,4305.2894,N,07740.7490,W,1,10,0.90,151.2,M,-34.4,M,,*59
lng=-77.679153, lat=43.088134, altitude=151.20, speed=24.60, satellites=10, angle=358.3200, fixquality=1
$GPRMC,211053.000,A,4305.2907,N,07740.7491,W,24.72,358.48,210319,,,A*40
$GPGGA,211053.200,4305.2921,N,07740.7492,W,1,10,0.90,151.1,M,-34.4,M,,*5C
lng=-77.679153, lat=43.088176, altitude=151.20, speed=24.72, satellites=10, angle=358.4800, fixquality=1
$GPRMC,211053.400,A,4305.2934,N,07740.7493,W,24.87,358.76,210319,,,A*41
$GPGGA,211053.600,4305.2948,N,07740.7493,W,1,10,0.90,151.0,M,-34.4,M,,*57
lng=-77.679161, lat=43.088222, altitude=151.10, speed=24.87, satellites=10, angle=358.7600, fixquality=1
$GPRMC,211053.800,A,4305.2962,N,07740.7494,W,24.96,359.07,210319,,,A*4E
$GPGGA,211054.000,4305.2975,N,07740.7494,W,1,10,0.90,151.0,M,-34.4,M,,*5F
lng=-77.679161, lat=43.088272, altitude=151.00, speed=24.96, satellites=10, angle=359.0700, fixquality=1
$GPRMC,211054.200,A,4305.2989,N,07740.7494,W,24.51,359.14,210319,,,A*4F
$GPGGA,211054.400,4305.3002,N,07740.7495,W,1,10,0.90,150.9,M,-34.4,M,,*5A
lng=-77.679161, lat=43.088314, altitude=151.00, speed=24.51, satellites=10, angle=359.1400, fixquality=1
$GPRMC,211054.600,A,4305.3015,N,07740.7495,W,24.15,359.72,210319,,,A*47
$GPGGA,211054.800,4305.3028,N,07740.7495,W,1,10,0.90,150.8,M,-34.4,M,,*5F
lng=-77.679161, lat=43.088356, altitude=150.90, speed=24.15, satellites=10, angle=359.7200, fixquality=1
$GPRMC,211055.000,A,4305.3041,N,07740.7495,W,23.90,359.99,210319,,,A*4E
$GPGGA,211055.200,4305.3054,N,07740.7494,W,1,10,0.90,150.8,M,-34.4,M,,*5E
lng=-77.679161, lat=43.088401, altitude=150.80, speed=23.90, satellites=10, angle=359.9900, fixquality=1
$GPRMC,211055.400,A,4305.3068,N,07740.7494,W,23.67,0.07,210319,,,A*40
$GPGGA,211055.600,4305.3080,N,07740.7494,W,1,10,0.90,150.7,M,-34.4,M,,*5C
lng=-77.679161, lat=43.088443, altitude=150.80, speed=23.67, satellites=10, angle=0.0700, fixquality=1
$GPRMC,211055.800,A,4305.3093,N,07740.7494,W,23.42,0.12,210319,,,A*4B
$GPGGA,211056.000,4305.3106,N,07740.7494,W,1,10,0.90,150.8,M,-34.4,M,,*59
lng=-77.679161, lat=43.088485, altitude=150.70, speed=23.42, satellites=10, angle=0.1200, fixquality=1
$GPRMC,211056.200,A,4305.3119,N,07740.7494,W,22.87,359.68,210319,,,A*4B
$GPGGA,211056.400,4305.3131,N,07740.7494,W,1,10,0.90,150.8,M,-34.4,M,,*59
lng=-77.679161, lat=43.088535, altitude=150.80, speed=22.87, satellites=10, angle=359.6800, fixquality=1
$GPRMC,211056.600,A,4305.3143,N,07740.7495,W,22.50,359.17,210319,,,A*43
$GPGGA,211056.800,4305.3155,N,07740.7495,W,1,10,0.90,150.7,M,-34.4,M,,*59
lng=-77.679161, lat=43.088573, altitude=150.80, speed=22.50, satellites=10, angle=359.1700, fixquality=1
$GPRMC,211057.000,A,4305.3168,N,07740.7496,W,21.92,359.10,210319,,,A*44
$GPGGA,211057.200,4305.3179,N,07740.7496,W,1,09,0.96,150.8,M,-34.4,M,,*5E
lng=-77.679161, lat=43.088615, altitude=150.70, speed=21.92, satellites=10, angle=359.1000, fixquality=1
$GPRMC,211057.400,A,4305.3190,N,07740.7497,W,21.13,358.83,210319,,,A*44
$GPGGA,211057.600,4305.3201,N,07740.7497,W,1,09,0.96,150.8,M,-34.4,M,,*57
lng=-77.679161, lat=43.088645, altitude=150.80, speed=21.13, satellites=9, angle=358.8300, fixquality=1
$GPRMC,211057.800,A,4305.3211,N,07740.7497,W,20.01,358.85,210319,,,A*46
$GPGGA,211058.000,4305.3222,N,07740.7497,W,1,09,0.96,150.8,M,-34.4,M,,*5F
lng=-77.679161, lat=43.088687, altitude=150.80, speed=20.01, satellites=9, angle=358.8500, fixquality=1
$GPRMC,211058.200,A,4305.3231,N,07740.7497,W,18.86,359.30,210319,,,A*4A
$GPGGA,211058.400,4305.3240,N,07740.7496,W,1,09,0.96,150.7,M,-34.4,M,,*51
lng=-77.679161, lat=43.088722, altitude=150.80, speed=18.86, satellites=9, angle=359.3000, fixquality=1
$GPRMC,211058.600,A,4305.3249,N,07740.7496,W,17.34,359.41,210319,,,A*40
$GPGGA,211058.800,4305.3257,N,07740.7496,W,1,10,0.90,150.7,M,-34.4,M,,*55
lng=-77.679161, lat=43.088745, altitude=150.70, speed=17.34, satellites=9, angle=359.4100, fixquality=1
$GPRMC,211059.000,A,4305.3263,N,07740.7494,W,15.36,0.46,210319,,,A*45
$GPGGA,211059.200,4305.3269,N,07740.7493,W,1,10,0.90,150.8,M,-34.4,M,,*59
lng=-77.679161, lat=43.088768, altitude=150.70, speed=15.36, satellites=10, angle=0.4600, fixquality=1
$GPRMC,211059.400,A,4305.3276,N,07740.7493,W,14.02,0.99,210319,,,A*46
$GPGGA,211059.600,4305.3282,N,07740.7492,W,1,10,0.90,150.8,M,-34.4,M,,*59
lng=-77.679161, lat=43.088794, altitude=150.80, speed=14.02, satellites=10, angle=0.9900, fixquality=1
$GPRMC,211059.800,A,4305.3288,N,07740.7491,W,12.39,1.41,210319,,,A*43
$GPGGA,211100.000,4305.3292,N,07740.7490,W,1,10,0.90,150.8,M,-34.4,M,,*51
lng=-77.679153, lat=43.088809, altitude=150.80, speed=12.39, satellites=10, angle=1.4100, fixquality=1
$GPRMC,211100.200,A,4305.3297,N,07740.7489,W,10.55,2.21,210319,,,A*4E
$GPGGA,211100.400,4305.3300,N,07740.7488,W,1,08,1.06,150.8,M,-34.4,M,,*51
lng=-77.679153, lat=43.088825, altitude=150.80, speed=10.55, satellites=10, angle=2.2100, fixquality=1
$GPRMC,211100.600,A,4305.3303,N,07740.7487,W,8.14,3.36,210319,,,A*73
$GPGGA,211100.800,4305.3306,N,07740.7485,W,1,10,0.90,150.7,M,-34.4,M,,*5E
lng=-77.679145, lat=43.088832, altitude=150.80, speed=8.14, satellites=8, angle=3.3600, fixquality=1
$GPRMC,211101.000,A,4305.3310,N,07740.7485,W,7.24,4.99,210319,,,A*7A
$GPGGA,211101.200,4305.3312,N,07740.7483,W,1,10,0.90,150.6,M,-34.4,M,,*57
lng=-77.679145, lat=43.088851, altitude=150.70, speed=7.24, satellites=10, angle=4.9900, fixquality=1
$GPRMC,211101.400,A,4305.3312,N,07740.7482,W,4.53,10.08,210319,,,A*45
$GPGGA,211101.600,4305.3314,N,07740.7481,W,1,09,1.01,150.5,M,-34.4,M,,*55
lng=-77.679130, lat=43.088851, altitude=150.60, speed=4.53, satellites=10, angle=10.0800, fixquality=1
$GPRMC,211101.800,A,4305.3316,N,07740.7480,W,4.14,13.23,210319,,,A*46
$GPGGA,211102.000,4305.3317,N,07740.7479,W,1,09,1.01,150.5,M,-34.4,M,,*54
lng=-77.679130, lat=43.088859, altitude=150.50, speed=4.14, satellites=9, angle=13.2300, fixquality=1
$GPRMC,211102.200,A,4305.3319,N,07740.7479,W,3.43,17.07,210319,,,A*41
$GPGGA,211102.400,4305.3319,N,07740.7478,W,1,09,0.97,150.5,M,-34.4,M,,*51
lng=-77.679130, lat=43.088867, altitude=150.50, speed=3.43, satellites=9, angle=17.0700, fixquality=1
$GPRMC,211102.600,A,4305.3320,N,07740.7478,W,2.87,20.99,210319,,,A*44
$GPGGA,211102.800,4305.3321,N,07740.7478,W,1,10,0.88,150.4,M,-34.4,M,,*51
lng=-77.679130, lat=43.088867, altitude=150.50, speed=2.87, satellites=9, angle=20.9900, fixquality=1
$GPRMC,211103.000,A,4305.3322,N,07740.7477,W,2.68,20.99,210319,,,A*4F
$GPGGA,211103.200,4305.3323,N,07740.7477,W,1,10,0.88,150.5,M,-34.4,M,,*56
lng=-77.679122, lat=43.088867, altitude=150.40, speed=2.68, satellites=10, angle=20.9900, fixquality=1
$GPRMC,211103.400,A,4305.3324,N,07740.7476,W,2.72,20.99,210319,,,A*47
$GPGGA,211103.600,4305.3325,N,07740.7476,W,1,10,0.88,150.5,M,-34.4,M,,*55
lng=-77.679122, lat=43.088874, altitude=150.50, speed=2.72, satellites=10, angle=20.9900, fixquality=1
$GPRMC,211103.800,A,4305.3327,N,07740.7476,W,3.07,13.59,210319,,,A*47
$GPGGA,211104.000,4305.3329,N,07740.7476,W,1,10,0.90,150.5,M,-34.4,M,,*51
lng=-77.679122, lat=43.088874, altitude=150.50, speed=3.07, satellites=10, angle=13.5900, fixquality=1
$GPRMC,211104.200,A,4305.3331,N,07740.7475,W,3.67,8.93,210319,,,A*74
$GPGGA,211104.400,4305.3334,N,07740.7475,W,1,10,0.90,150.5,M,-34.4,M,,*5A
lng=-77.679122, lat=43.088882, altitude=150.50, speed=3.67, satellites=10, angle=8.9300, fixquality=1
$GPRMC,211104.600,A,4305.3336,N,07740.7475,W,4.34,4.67,210319,,,A*71
$GPGGA,211104.800,4305.3339,N,07740.7475,W,1,10,0.90,150.5,M,-34.4,M,,*5B
lng=-77.679122, lat=43.088890, altitude=150.50, speed=4.34, satellites=10, angle=4.6700, fixquality=1
$GPRMC,211105.000,A,4305.3342,N,07740.7474,W,4.87,2.78,210319,,,A*74
$GPGGA,211105.200,4305.3343,N,07740.7472,W,1,10,0.90,150.5,M,-34.4,M,,*5A
lng=-77.679122, lat=43.088901, altitude=150.50, speed=4.87, satellites=10, angle=2.7800, fixquality=1
$GPRMC,211105.400,A,4305.3345,N,07740.7471,W,5.27,2.58,210319,,,A*7B
$GPGGA,211105.600,4305.3348,N,07740.7470,W,1,10,0.90,150.6,M,-34.4,M,,*54
lng=-77.679115, lat=43.088909, altitude=150.50, speed=5.27, satellites=10, angle=2.5800, fixquality=1
$GPRMC,211105.800,A,4305.3350,N,07740.7469,W,5.34,2.77,210319,,,A*75
$GPGGA,211106.000,4305.3352,N,07740.7469,W,1,10,0.90,150.6,M,-34.4,M,,*52
lng=-77.679115, lat=43.088916, altitude=150.60, speed=5.34, satellites=10, angle=2.7700, fixquality=1
$GPRMC,211106.200,A,4305.3355,N,07740.7469,W,5.14,4.14,210319,,,A*78
$GPGGA,211106.400,4305.3357,N,07740.7469,W,1,10,0.90,150.6,M,-34.4,M,,*53
lng=-77.679115, lat=43.088924, altitude=150.60, speed=5.14, satellites=10, angle=4.1400, fixquality=1
$GPRMC,211106.600,A,4305.3358,N,07740.7470,W,4.41,4.26,210319,,,A*79
$GPGGA,211106.800,4305.3360,N,07740.7470,W,1,10,0.90,150.6,M,-34.4,M,,*53
lng=-77.679115, lat=43.088932, altitude=150.60, speed=4.41, satellites=10, angle=4.2600, fixquality=1
$GPRMC,211107.000,A,4305.3362,N,07740.7471,W,3.87,4.86,210319,,,A*71
$GPGGA,211107.200,4305.3363,N,07740.7471,W,1,10,0.90,150.6,M,-34.4,M,,*5A
lng=-77.679115, lat=43.088939, altitude=150.60, speed=3.87, satellites=10, angle=4.8600, fixquality=1
$GPRMC,211107.400,A,4305.3365,N,07740.7471,W,3.34,5.32,210319,,,A*74
$GPGGA,211107.600,4305.3367,N,07740.7470,W,1,10,0.90,150.7,M,-34.4,M,,*5A
lng=-77.679115, lat=43.088939, altitude=150.60, speed=3.34, satellites=10, angle=5.3200, fixquality=1
$GPRMC,211107.800,A,4305.3369,N,07740.7469,W,2.51,5.32,210319,,,A*7F
$GPGGA,211108.000,4305.3375,N,07740.7470,W,1,10,0.90,151.0,M,-34.4,M,,*56
lng=-77.679115, lat=43.088947, altitude=150.70, speed=2.51, satellites=10, angle=5.3200, fixquality=1
$GPRMC,211108.200,A,4305.3379,N,07740.7472,W,2.28,5.32,210319,,,A*7F
$GPGGA,211108.400,4305.3383,N,07740.7473,W,1,10,0.90,151.5,M,-34.4,M,,*5D
lng=-77.679115, lat=43.088966, altitude=151.00, speed=2.28, satellites=10, angle=5.3200, fixquality=1
$GPRMC,211108.600,A,4305.3385,N,07740.7473,W,2.89,5.32,210319,,,A*72
$GPGGA,211108.800,4305.3386,N,07740.7473,W,1,10,0.90,151.8,M,-34.4,M,,*59
lng=-77.679115, lat=43.088973, altitude=151.50, speed=2.89, satellites=10, angle=5.3200, fixquality=1
$GPRMC,211109.000,A,4305.3389,N,07740.7473,W,3.67,358.09,210319,,,A*7B
$GPGGA,211109.200,4305.3393,N,07740.7473,W,1,10,0.90,152.0,M,-34.4,M,,*5D
lng=-77.679115, lat=43.088981, altitude=151.80, speed=3.67, satellites=10, angle=358.0900, fixquality=1
$GPRMC,211109.400,A,4305.3395,N,07740.7474,W,4.95,351.39,210319,,,A*75
