Vers 57
USE_SERIAL_FEEDBACK=false
DEVELOPMENT_MODE=false
USE_RMC_ONLY=false

$GPRMC,223606.000,A,4305.1475,N,07740.8484,W,0.08,206.41,270319,,,D*7C
$GPGGA,223606.200,4305.1475,N,07740.8484,W,2,12,0.82,163.9,M,-34.4,M,0000,0000*57
lng=-77.680809, lat=43.085792, altitude=164.30, speed=0.08, satellites=11, angle=206.4100, fixquality=2
$GPRMC,223606.400,A,4305.1475,N,07740.8484,W,0.04,206.41,270319,,,D*74
$GPGGA,223606.600,4305.1475,N,07740.8484,W,2,11,0.90,163.9,M,-34.4,M,0000,0000*53
lng=-77.680809, lat=43.085792, altitude=163.90, speed=0.04, satellites=12, angle=206.4100, fixquality=2
$GPRMC,223606.800,A,4305.1475,N,07740.8484,W,0.01,206.41,270319,,,D*7D
$GPGGA,223607.000,4305.1475,N,07740.8484,W,2,11,0.90,163.9,M,-34.4,M,0000,0000*54
lng=-77.680809, lat=43.085792, altitude=163.90, speed=0.01, satellites=11, angle=206.4100, fixquality=2
$GPRMC,223607.200,A,4305.1475,N,07740.8485,W,0.03,206.41,270319,,,D*75
$GPGGA,223607.400,4305.1475,N,07740.8485,W,2,11,0.90,163.9,M,-34.4,M,0000,0000*51
lng=-77.680809, lat=43.085792, altitude=163.90, speed=0.03, satellites=11, angle=206.4100, fixquality=2
$GPRMC,223607.600,A,4305.1475,N,07740.8485,W,0.08,206.41,270319,,,D*7A
$GPGGA,223607.800,4305.1475,N,07740.8485,W,2,12,0.82,163.8,M,-34.4,M,0000,0000*5C
lng=-77.680809, lat=43.085792, altitude=163.90, speed=0.08, satellites=11, angle=206.4100, fixquality=2
$GPRMC,223608.000,A,4305.1475,N,07740.8485,W,0.18,206.41,270319,,,D*72
$GPGGA,223608.200,4305.1475,N,07740.8485,W,2,12,0.82,163.8,M,-34.4,M,0000,0000*59
lng=-77.680809, lat=43.085792, altitude=163.80, speed=0.18, satellites=12, angle=206.4100, fixquality=2
$GPRMC,223608.400,A,4305.1475,N,07740.8485,W,0.11,206.41,270319,,,D*7F
$GPGGA,223608.600,4305.1475,N,07740.8485,W,2,12,0.82,163.8,M,-34.4,M,0000,0000*5D
lng=-77.680809, lat=43.085792, altitude=163.80, speed=0.11, satellites=12, angle=206.4100, fixquality=2
$GPRMC,223608.800,A,4305.1475,N,07740.8485,W,0.07,206.41,270319,,,D*74
$GPGGA,223609.000,4305.1475,N,07740.8485,W,2,11,0.90,163.8,M,-34.4,M,0000,0000*5A
lng=-77.680809, lat=43.085792, altitude=163.80, speed=0.07, satellites=12, angle=206.4100, fixquality=2
$GPRMC,223609.200,A,4305.1475,N,07740.8485,W,0.10,206.41,270319,,,D*79
$GPGGA,223609.400,4305.1475,N,07740.8485,W,2,11,0.90,163.8,M,-34.4,M,0000,0000*5E
lng=-77.680809, lat=43.085792, altitude=163.80, speed=0.10, satellites=11, angle=206.4100, fixquality=2
$GPRMC,223609.600,A,4305.1475,N,07740.8485,W,0.04,206.41,270319,,,D*78
$GPGGA,223609.800,4305.1475,N,07740.8485,W,2,11,0.90,163.8,M,-34.4,M,0000,0000*52
lng=-77.680809, lat=43.085792, altitude=163.80, speed=0.04, satellites=11, angle=206.4100, fixquality=2
$GPRMC,223610.000,A,4305.1475,N,07740.8485,W,0.04,206.41,270319,,,D*76
$GPGGA,223610.200,4305.1475,N,07740.8485,W,2,11,0.90,163.7,M,-34.4,M,0000,0000*5F
lng=-77.680809, lat=43.085792, altitude=163.80, speed=0.04, satellites=11, angle=206.4100, fixquality=2
$GPRMC,223610.400,A,4305.1475,N,07740.8485,W,0.18,206.41,270319,,,D*7F
$GPGGA,223610.600,4305.1475,N,07740.8485,W,2,11,0.90,163.7,M,-34.4,M,0000,0000*5B
lng=-77.680809, lat=43.085792, altitude=163.70, speed=0.18, satellites=11, angle=206.4100, fixquality=2
$GPRMC,223610.800,A,4305.1474,N,07740.8485,W,0.35,206.41,270319,,,D*7D
$GPGGA,223611.000,4305.1474,N,07740.8485,W,2,11,0.90,163.7,M,-34.4,M,0000,0000*5D
lng=-77.680809, lat=43.085792, altitude=163.70, speed=0.35, satellites=11, angle=206.4100, fixquality=2
$GPRMC,223611.200,A,4305.1474,N,07740.8485,W,0.36,206.41,270319,,,D*75
$GPGGA,223611.400,4305.1474,N,07740.8486,W,2,11,0.90,163.7,M,-34.4,M,0000,0000*5A
lng=-77.680809, lat=43.085792, altitude=163.70, speed=0.36, satellites=11, angle=206.4100, fixquality=2
$GPRMC,223611.600,A,4305.1474,N,07740.8486,W,0.29,206.41,270319,,,D*7C
$GPGGA,223611.800,4305.1474,N,07740.8486,W,2,11,0.90,163.7,M,-34.4,M,0000,0000*56
lng=-77.680809, lat=43.085792, altitude=163.70, speed=0.29, satellites=11, angle=206.4100, fixquality=2
$GPRMC,223612.000,A,4305.1474,N,07740.8486,W,0.19,206.41,270319,,,D*7A
$GPGGA,223612.200,4305.1473,N,07740.8486,W,2,11,0.91,163.7,M,-34.4,M,0000,0000*59
lng=-77.680809, lat=43.085792, altitude=163.70, speed=0.19, satellites=11, angle=206.4100, fixquality=2
$GPRMC,223612.400,A,4305.1473,N,07740.8486,W,0.09,206.41,270319,,,D*78
$GPGGA,223612.600,4305.1473,N,07740.8486,W,2,11,0.90,163.7,M,-34.4,M,0000,0000*5C
lng=-77.680809, lat=43.085792, altitude=163.70, speed=0.09, satellites=11, angle=206.4100, fixquality=2
$GPRMC,223612.800,A,4305.1473,N,07740.8486,W,0.09,206.41,270319,,,D*74
$GPGGA,223613.000,4305.1473,N,07740.8486,W,2,11,0.90,163.6,M,-34.4,M,0000,0000*5A
lng=-77.680809, lat=43.085792, altitude=163.70, speed=0.09, satellites=11, angle=206.4100, fixquality=2
$GPRMC,223613.200,A,4305.1473,N,07740.8486,W,0.12,206.41,270319,,,D*75
$GPGGA,223613.400,4305.1473,N,07740.8486,W,2,11,0.90,163.6,M,-34.4,M,0000,0000*5E
lng=-77.680809, lat=43.085792, altitude=163.60, speed=0.12, satellites=11, angle=206.4100, fixquality=2
$GPRMC,223613.600,A,4305.1473,N,07740.8486,W,0.07,206.41,270319,,,D*75
$GPGGA,223613.800,4305.1473,N,07740.8486,W,2,11,0.90,163.6,M,-34.4,M,0000,0000*52
lng=-77.680809, lat=43.085792, altitude=163.60, speed=0.07, satellites=11, angle=206.4100, fixquality=2
$GPRMC,223614.000,A,4305.1473,N,07740.8486,W,0.02,206.41,270319,,,D*71
$GPGGA,223614.200,4305.1473,N,07740.8486,W,2,11,0.90,163.6,M,-34.4,M,0000,0000*5F
lng=-77.680809, lat=43.085792, altitude=163.60, speed=0.02, satellites=11, angle=206.4100, fixquality=2
$GPRMC,223614.400,A,4305.1473,N,07740.8486,W,0.07,206.41,270319,,,D*70
$GPGGA,223614.600,4305.1473,N,07740.8486,W,2,11,0.90,163.6,M,-34.4,M,0000,0000*5B
lng=-77.680809, lat=43.085792, altitude=163.60, speed=0.07, satellites=11, angle=206.4100, fixquality=2
$GPRMC,223614.800,A,4305.1473,N,07740.8486,W,0.09,206.41,270319,,,D*72
$GPGGA,223615.000,4305.1473,N,07740.8486,W,2,11,0.90,163.6,M,-34.4,M,0000,0000*5C
lng=-77.680809, lat=43.085792, altitude=163.60, speed=0.09, satellites=11, angle=206.4100, fixquality=2
$GPRMC,223615.200,A,4305.1473,N,07740.8486,W,0.14,206.41,270319,,,D*75
$GPGGA,223615.400,4305.1473,N,07740.8486,W,2,11,0.95,163.6,M,-34.4,M,0000,0000*5D
lng=-77.680809, lat=43.085792, altitude=163.60, speed=0.14, satellites=11, angle=206.4100, fixquality=2
$GPRMC,223615.600,A,4305.1473,N,07740.8486,W,0.02,206.41,270319,,,D*76
$GPGGA,223615.800,4305.1473,N,07740.8486,W,2,11,0.95,163.6,M,-34.4,M,0000,0000*51
lng=-77.680809, lat=43.085792, altitude=163.60, speed=0.02, satellites=11, angle=206.4100, fixquality=2
$GPRMC,223616.000,A,4305.1473,N,07740.8486,W,0.01,206.41,270319,,,D*70
$GPGGA,223616.200,4305.1473,N,07740.8486,W,2,11,0.95,163.6,M,-34.4,M,0000,0000*58
lng=-77.680809, lat=43.085792, altitude=163.60, speed=0.01, satellites=11, angle=206.4100, fixquality=2
$GPRMC,223616.400,A,4305.1473,N,07740.8486,W,0.01,206.41,270319,,,D*74
$GPGGA,223616.600,4305.1473,N,07740.8486,W,2,11,0.95,163.6,M,-34.4,M,0000,0000*5C
lng=-77.680809, lat=43.085792, altitude=163.60, speed=0.01, satellites=11, angle=206.4100, fixquality=2
$GPRMC,223616.800,A,4305.1473,N,07740.8486,W,0.02,206.41,270319,,,D*7B
$GPGGA,223617.000,4305.1473,N,07740.8486,W,2,11,0.95,163.6,M,-34.4,M,0000,0000*5B
lng=-77.680809, lat=43.085792, altitude=163.60, speed=0.02, satellites=11, angle=206.4100, fixquality=2
$GPRMC,223617.200,A,4305.1473,N,07740.8486,W,0.02,206.41,270319,,,D*70
$GPGGA,223617.400,4305.1473,N,07740.8486,W,2,11,0.95,163.6,M,-34.4,M,0000,0000*5F
lng=-77.680809, lat=43.085792, altitude=163.60, speed=0.02, satellites=11, angle=206.4100, fixquality=2
$GPRMC,223617.600,A,4305.1473,N,07740.8486,W,0.01,206.41,270319,,,D*77
$GPGGA,223617.800,4305.1473,N,07740.8486,W,2,11,0.95,163.6,M,-34.4,M,0000,0000*53
lng=-77.680809, lat=43.085792, altitude=163.60, speed=0.01, satellites=11, angle=206.4100, fixquality=2
$GPRMC,223618.000,A,4305.1473,N,07740.8486,W,0.00,206.41,270319,,,D*7F
$GPGGA,223618.200,4305.1473,N,07740.8486,W,2,11,0.95,163.6,M,-34.4,M,0000,0000*56
lng=-77.680809, lat=43.085792, altitude=163.60, speed=0.00, satellites=11, angle=206.4100, fixquality=2
$GPRMC,223618.400,A,4305.1473,N,07740.8486,W,0.01,206.41,270319,,,D*7A
$GPGGA,223618.600,4305.1473,N,07740.8486,W,2,11,0.95,163.6,M,-34.4,M,0000,0000*52
lng=-77.680809, lat=43.085792, altitude=163.60, speed=0.01, satellites=11, angle=206.4100, fixquality=2
$GPRMC,223618.800,A,4305.1473,N,07740.8486,W,0.00,206.41,270319,,,D*77
$GPGGA,223619.000,4305.1473,N,07740.8486,W,2,10,1.13,163.6,M,-34.4,M,0000,0000*5B
lng=-77.680809, lat=43.085792, altitude=163.60, speed=0.00, satellites=11, angle=206.4100, fixquality=2
$GPRMC,223619.200,A,4305.1473,N,07740.8486,W,0.00,206.41,270319,,,D*7C
$GPGGA,223619.400,4305.1473,N,07740.8486,W,2,10,1.13,163.6,M,-34.4,M,0000,0000*5F
lng=-77.680809, lat=43.085792, altitude=163.60, speed=0.00, satellites=10, angle=206.4100, fixquality=2
$GPRMC,223619.600,A,4305.1473,N,07740.8486,W,0.00,206.41,270319,,,D*78
$GPGGA,223619.800,4305.1473,N,07740.8486,W,2,10,1.13,163.6,M,-34.4,M,0000,0000*53
lng=-77.680809, lat=43.085792, altitude=163.60, speed=0.00, satellites=10, angle=206.4100, fixquality=2
$GPRMC,223620.000,A,4305.1473,N,07740.8486,W,0.00,206.41,270319,,,D*74
$GPGGA,223620.200,4305.1473,N,07740.8486,W,2,11,0.95,163.6,M,-34.4,M,0000,0000*5D
lng=-77.680809, lat=43.085792, altitude=163.60, speed=0.00, satellites=10, angle=206.4100, fixquality=2
$GPRMC,223620.400,A,4305.1473,N,07740.8486,W,0.00,206.41,270319,,,D*70
$GPGGA,223620.600,4305.1473,N,07740.8486,W,2,10,1.13,163.6,M,-34.4,M,0000,0000*57
lng=-77.680809, lat=43.085792, altitude=163.60, speed=0.00, satellites=11, angle=206.4100, fixquality=2
$GPRMC,223620.800,A,4305.1473,N,07740.8486,W,0.01,206.41,270319,,,D*7D
$GPGGA,223621.000,4305.1473,N,07740.8486,W,2,11,0.95,163.6,M,-34.4,M,0000,0000*5E
lng=-77.680809, lat=43.085792, altitude=163.60, speed=0.01, satellites=10, angle=206.4100, fixquality=2
$GPRMC,223621.200,A,4305.1473,N,07740.8486,W,0.00,206.41,270319,,,D*77
$GPGGA,223621.400,4305.1473,N,07740.8486,W,2,11,0.95,163.5,M,-34.4,M,0000,0000*59
lng=-77.680809, lat=43.085792, altitude=163.60, speed=0.00, satellites=11, angle=206.4100, fixquality=2
$GPRMC,223621.600,A,4305.1473,N,07740.8486,W,0.01,206.41,270319,,,D*72
$GPGGA,223621.800,4305.1473,N,07740.8486,W,2,11,0.95,163.5,M,-34.4,M,0000,0000*55
lng=-77.680809, lat=43.085792, altitude=163.50, speed=0.01, satellites=11, angle=206.4100, fixquality=2
$GPRMC,223622.000,A,4305.1473,N,07740.8486,W,0.01,206.41,270319,,,D*77
$GPGGA,223622.200,4305.1473,N,07740.8486,W,2,11,0.95,163.5,M,-34.4,M,0000,0000*5C
lng=-77.680809, lat=43.085792, altitude=163.50, speed=0.01, satellites=11, angle=206.4100, fixquality=2
$GPRMC,223622.400,A,4305.1473,N,07740.8486,W,0.01,206.41,270319,,,D*73
$GPGGA,223622.600,4305.1473,N,07740.8486,W,2,11,0.95,163.5,M,-34.4,M,0000,0000*58
lng=-77.680809, lat=43.085792, altitude=163.50, speed=0.01, satellites=11, angle=206.4100, fixquality=2
$GPRMC,223622.800,A,4305.1473,N,07740.8486,W,0.01,206.41,270319,,,D*7F
$GPGGA,223623.000,4305.1473,N,07740.8486,W,2,11,0.95,163.5,M,-34.4,M,0000,0000*5F
lng=-77.680809, lat=43.085792, altitude=163.50, speed=0.01, satellites=11, angle=206.4100, fixquality=2
$GPRMC,223623.200,A,4305.1473,N,07740.8486,W,0.01,206.41,270319,,,D*74
$GPGGA,223623.400,4305.1473,N,07740.8486,W,2,11,0.95,163.5,M,-34.4,M,0000,0000*5B
lng=-77.680809, lat=43.085792, altitude=163.50, speed=0.01, satellites=11, angle=206.4100, fixquality=2
$GPRMC,223623.600,A,4305.1473,N,07740.8486,W,0.01,206.41,270319,,,D*70
$GPGGA,223623.800,4305.1473,N,07740.8486,W,2,10,1.13,163.5,M,-34.4,M,0000,0000*59
lng=-77.680809, lat=43.085792, altitude=163.50, speed=0.01, satellites=11, angle=206.4100, fixquality=2
$GPRMC,223624.000,A,4305.1473,N,07740.8486,W,0.00,206.41,270319,,,D*70
$GPGGA,223624.200,4305.1473,N,07740.8486,W,2,10,1.13,163.5,M,-34.4,M,0000,0000*54
lng=-77.680809, lat=43.085792, altitude=163.50, speed=0.00, satellites=10, angle=206.4100, fixquality=2
$GPRMC,223624.400,A,4305.1473,N,07740.8486,W,0.02,206.41,270319,,,D*76
$GPGGA,223624.600,4305.1473,N,07740.8486,W,2,11,0.95,163.5,M,-34.4,M,0000,0000*5E
lng=-77.680809, lat=43.085792, altitude=163.50, speed=0.02, satellites=10, angle=206.4100, fixquality=2
$GPRMC,223624.800,A,4305.1473,N,07740.8486,W,0.02,206.41,270319,,,D*7A
$GPGGA,223625.000,4305.1473,N,07740.8486,W,2,11,1.03,163.5,M,-34.4,M,0000,0000*57
lng=-77.680809, lat=43.085792, altitude=163.50, speed=0.02, satellites=11, angle=206.4100, fixquality=2
$GPRMC,223625.200,A,4305.1473,N,07740.8486,W,0.00,206.41,270319,,,D*73
$GPGGA,223625.400,4305.1473,N,07740.8486,W,2,11,1.03,163.5,M,-34.4,M,0000,0000*53
lng=-77.680809, lat=43.085792, altitude=163.50, speed=0.00, satellites=11, angle=206.4100, fixquality=2
$GPRMC,223625.600,A,4305.1473,N,07740.8486,W,0.10,206.41,270319,,,D*76
$GPGGA,223625.800,4305.1473,N,07740.8486,W,2,11,1.03,163.5,M,-34.4,M,0000,0000*5F
lng=-77.680809, lat=43.085792, altitude=163.50, speed=0.10, satellites=11, angle=206.4100, fixquality=2
$GPRMC,223626.000,A,4305.1473,N,07740.8486,W,0.01,206.41,270319,,,D*73
$GPGGA,223626.200,4305.1473,N,07740.8486,W,2,11,1.03,163.5,M,-34.4,M,0000,0000*56
lng=-77.680809, lat=43.085792, altitude=163.50, speed=0.01, satellites=11, angle=206.4100, fixquality=2
$GPRMC,223626.400,A,4305.1473,N,07740.8486,W,0.01,206.41,270319,,,D*77
$GPGGA,223626.600,4305.1473,N,07740.8486,W,2,12,0.85,163.5,M,-34.4,M,0000,0000*5E
lng=-77.680809, lat=43.085792, altitude=163.50, speed=0.01, satellites=11, angle=206.4100, fixquality=2
$GPRMC,223626.800,A,4305.1473,N,07740.8486,W,0.02,206.41,270319,,,D*78
$GPGGA,223627.000,4305.1473,N,07740.8486,W,2,12,0.84,163.5,M,-34.4,M,0000,0000*58
lng=-77.680809, lat=43.085792, altitude=163.50, speed=0.02, satellites=12, angle=206.4100, fixquality=2
$GPRMC,223627.200,A,4305.1473,N,07740.8486,W,0.06,206.41,270319,,,D*77
$GPGGA,223627.400,4305.1473,N,07740.8486,W,2,11,0.95,163.5,M,-34.4,M,0000,0000*5F
lng=-77.680809, lat=43.085792, altitude=163.50, speed=0.06, satellites=12, angle=206.4100, fixquality=2
$GPRMC,223627.600,A,4305.1473,N,07740.8486,W,0.01,206.41,270319,,,D*74
$GPGGA,223627.800,4305.1473,N,07740.8486,W,2,11,0.95,163.5,M,-34.4,M,0000,0000*53
lng=-77.680809, lat=43.085792, altitude=163.50, speed=0.01, satellites=11, angle=206.4100, fixquality=2
$GPRMC,223628.000,A,4305.1473,N,07740.8486,W,0.01,206.41,270319,,,D*7D
$GPGGA,223628.200,4305.1473,N,07740.8486,W,2,11,0.95,163.5,M,-34.4,M,0000,0000*56
lng=-77.680809, lat=43.085792, altitude=163.50, speed=0.01, satellites=11, angle=206.4100, fixquality=2
$GPRMC,223628.400,A,4305.1473,N,07740.8486,W,0.02,206.41,270319,,,D*7A
$GPGGA,223628.600,4305.1473,N,07740.8486,W,2,11,0.95,163.5,M,-34.4,M,0000,0000*52
lng=-77.680809, lat=43.085792, altitude=163.50, speed=0.02, satellites=11, angle=206.4100, fixquality=2
$GPRMC,223628.800,A,4305.1473,N,07740.8486,W,0.01,206.41,270319,,,D*75
$GPGGA,223629.000,4305.1473,N,07740.8486,W,2,11,0.95,163.5,M,-34.4,M,0000,0000*55
lng=-77.680809, lat=43.085792, altitude=163.50, speed=0.01, satellites=11, angle=206.4100, fixquality=2
$GPRMC,223629.200,A,4305.1473,N,07740.8486,W,0.02,206.41,270319,,,D*7D
$GPGGA,223629.400,4305.1473,N,07740.8486,W,2,11,0.95,163.5,M,-34.4,M,0000,0000*51
lng=-77.680809, lat=43.085792, altitude=163.50, speed=0.02, satellites=11, angle=206.4100, fixquality=2
$GPRMC,223629.600,A,4305.1473,N,07740.8486,W,0.01,206.41,270319,,,D*7A
$GPGGA,223629.800,4305.1473,N,07740.8486,W,2,11,0.95,163.5,M,-34.4,M,0000,0000*5D
lng=-77.680809, lat=43.085792, altitude=163.50, speed=0.01, satellites=11, angle=206.4100, fixquality=2
$GPRMC,223630.000,A,4305.1473,N,07740.8486,W,0.01,206.41,270319,,,D*74
$GPGGA,223630.200,4305.1473,N,07740.8486,W,2,11,0.95,163.5,M,-34.4,M,0000,0000*5F
lng=-77.680809, lat=43.085792, altitude=163.50, speed=0.01, satellites=11, angle=206.4100, fixquality=2
$GPRMC,223630.400,A,4305.1473,N,07740.8486,W,0.00,206.41,270319,,,D*71
$GPGGA,223630.600,4305.1473,N,07740.8486,W,2,11,0.95,163.5,M,-34.4,M,0000,0000*5B
lng=-77.680809, lat=43.085792, altitude=163.50, speed=0.00, satellites=11, angle=206.4100, fixquality=2
$GPRMC,223630.800,A,4305.1473,N,07740.8486,W,0.01,206.41,270319,,,D*7C
$GPGGA,223631.000,4305.1473,N,07740.8486,W,2,11,0.95,163.5,M,-34.4,M,0000,0000*5C
lng=-77.680809, lat=43.085792, altitude=163.50, speed=0.01, satellites=11, angle=206.4100, fixquality=2
$GPRMC,223631.200,A,4305.1473,N,07740.8486,W,0.00,206.41,270319,,,D*76
$GPGGA,223631.400,4305.1473,N,07740.8486,W,2,11,0.95,163.5,M,-34.4,M,0000,0000*58
lng=-77.680809, lat=43.085792, altitude=163.50, speed=0.00, satellites=11, angle=206.4100, fixquality=2
$GPRMC,223631.600,A,4305.1473,N,07740.8486,W,0.01,206.41,270319,,,D*73
$GPGGA,223631.800,4305.1473,N,07740.8486,W,2,11,0.95,163.5,M,-34.4,M,0000,0000*54
lng=-77.680809, lat=43.085792, altitude=163.50, speed=0.01, satellites=11, angle=206.4100, fixquality=2
$GPRMC,223632.000,A,4305.1473,N,07740.8486,W,0.00,206.41,270319,,,D*77
$GPGGA,223632.200,4305.1473,N,07740.8486,W,2,11,0.95,163.5,M,-34.4,M,0000,0000*5D
lng=-77.680809, lat=43.085792, altitude=163.50, speed=0.00, satellites=11, angle=206.4100, fixquality=2
$GPRMC,223632.400,A,4305.1473,N,07740.8486,W,0.00,206.41,270319,,,D*73
$GPGGA,223632.600,4305.1473,N,07740.8486,W,2,11,0.95,163.5,M,-34.4,M,0000,0000*59
lng=-77.680809, lat=43.085792, altitude=163.50, speed=0.00, satellites=11, angle=206.4100, fixquality=2
$GPRMC,223632.800,A,4305.1473,N,07740.8486,W,0.01,206.41,270319,,,D*7E
$GPGGA,223633.000,4305.1473,N,07740.8486,W,2,11,0.95,163.5,M,-34.4,M,0000,0000*5E
lng=-77.680809, lat=43.085792, altitude=163.50, speed=0.01, satellites=11, angle=206.4100, fixquality=2
$GPRMC,223633.200,A,4305.1473,N,07740.8486,W,0.01,206.41,270319,,,D*75
$GPGGA,223633.400,4305.1473,N,07740.8486,W,2,11,0.95,163.5,M,-34.4,M,0000,0000*5A
lng=-77.680809, lat=43.085792, altitude=163.50, speed=0.01, satellites=11, angle=206.4100, fixquality=2
$GPRMC,223633.600,A,4305.1473,N,07740.8486,W,0.00,206.41,270319,,,D*70
$GPGGA,223633.800,4305.1473,N,07740.8486,W,2,11,0.95,163.5,M,-34.4,M,0000,0000*56
lng=-77.680809, lat=43.085792, altitude=163.50, speed=0.00, satellites=11, angle=206.4100, fixquality=2
$GPRMC,223634.000,A,4305.1473,N,07740.8486,W,0.00,206.41,270319,,,D*71
$GPGGA,223634.200,4305.1473,N,07740.8486,W,2,11,0.95,163.5,M,-34.4,M,0000,0000*5B
lng=-77.680809, lat=43.085792, altitude=163.50, speed=0.00, satellites=11, angle=206.4100, fixquality=2
$GPRMC,223634.400,A,4305.1473,N,07740.8486,W,0.01,206.41,270319,,,D*74
$GPGGA,223634.600,4305.1473,N,07740.8486,W,2,11,0.95,163.5,M,-34.4,M,0000,0000*5F
lng=-77.680809, lat=43.085792, altitude=163.50, speed=0.01, satellites=11, angle=206.4100, fixquality=2
$GPRMC,223634.800,A,4305.1473,N,07740.8486,W,0.01,206.41,270319,,,D*78
$GPGGA,223635.000,4305.1473,N,07740.8486,W,2,11,0.95,163.5,M,-34.4,M,0000,0000*58
lng=-77.680809, lat=43.085792, altitude=163.50, speed=0.01, satellites=11, angle=206.4100, fixquality=2
$GPRMC,223635.200,A,4305.1473,N,07740.8486,W,0.01,206.41,270319,,,D*73
$GPGGA,223635.400,4305.1473,N,07740.8486,W,2,11,0.95,163.5,M,-34.4,M,0000,0000*5C
lng=-77.680809, lat=43.085792, altitude=163.50, speed=0.01, satellites=11, angle=206.4100, fixquality=2
$GPRMC,223635.600,A,4305.1473,N,07740.8486,W,0.01,206.41,270319,,,D*77
$GPGGA,223635.800,4305.1473,N,07740.8486,W,2,11,0.95,163.5,M,-34.4,M,0000,0000*50
lng=-77.680809, lat=43.085792, altitude=163.50, speed=0.01, satellites=11, angle=206.4100, fixquality=2
$GPRMC,223636.000,A,4305.1473,N,07740.8486,W,0.00,206.41,270319,,,D*73
$GPGGA,223636.200,4305.1473,N,07740.8486,W,2,11,0.95,163.5,M,-34.4,M,0000,0000*59
lng=-77.680809, lat=43.085792, altitude=163.50, speed=0.00, satellites=11, angle=206.4100, fixquality=2
$GPRMC,223636.400,A,4305.1473,N,07740.8486,W,0.00,206.41,270319,,,D*77
$GPGGA,223636.600,4305.1473,N,07740.8486,W,2,11,0.95,163.5,M,-34.4,M,0000,0000*5D
lng=-77.680809, lat=43.085792, altitude=163.50, speed=0.00, satellites=11, angle=206.4100, fixquality=2
$GPRMC,223636.800,A,4305.1473,N,07740.8486,W,0.02,206.41,270319,,,D*79
$GPGGA,223637.000,4305.1473,N,07740.8486,W,2,11,0.95,163.5,M,-34.4,M,0000,0000*5A
lng=-77.680809, lat=43.085792, altitude=163.50, speed=0.02, satellites=11, angle=206.4100, fixquality=2
$GPRMC,223637.200,A,4305.1473,N,07740.8486,W,0.01,206.41,270319,,,D*71
$GPGGA,223637.400,4305.1473,N,07740.8486,W,2,11,0.95,163.5,M,-34.4,M,0000,0000*5E
lng=-77.680809, lat=43.085792, altitude=163.50, speed=0.01, satellites=11, angle=206.4100, fixquality=2
$GPRMC,223637.600,A,4305.1473,N,07740.8486,W,0.01,206.41,270319,,,D*75
$GPGGA,223637.800,4305.1473,N,07740.8486,W,2,11,0.95,163.5,M,-34.4,M,0000,0000*52
lng=-77.680809, lat=43.085792, altitude=163.50, speed=0.01, satellites=11, angle=206.4100, fixquality=2
$GPRMC,223638.000,A,4305.1473,N,07740.8486,W,0.00,206.41,270319,,,D*7D
$GPGGA,223638.200,4305.1473,N,07740.8486,W,2,11,0.95,163.5,M,-34.4,M,0000,0000*57
lng=-77.680809, lat=43.085792, altitude=163.50, speed=0.00, satellites=11, angle=206.4100, fixquality=2
$GPRMC,223638.400,A,4305.1473,N,07740.8486,W,0.01,206.41,270319,,,D*78
$GPGGA,223638.600,4305.1473,N,07740.8486,W,2,11,0.95,163.5,M,-34.4,M,0000,0000*53
lng=-77.680809, lat=43.085792, altitude=163.50, speed=0.01, satellites=11, angle=206.4100, fixquality=2
$GPRMC,223638.800,A,4305.1473,N,07740.8486,W,0.01,206.41,270319,,,D*74
$GPGGA,223639.000,4305.1473,N,07740.8486,W,2,11,0.95,163.5,M,-34.4,M,0000,0000*54
lng=-77.680809, lat=43.085792, altitude=163.50, speed=0.01, satellites=11, angle=206.4100, fixquality=2
$GPRMC,223639.200,A,4305.1473,N,07740.8486,W,0.01,206.41,270319,,,D*7F
$GPGGA,223639.400,4305.1473,N,07740.8486,W,2,11,0.95,163.5,M,-34.4,M,0000,0000*50
lng=-77.680809, lat=43.085792, altitude=163.50, speed=0.01, satellites=11, angle=206.4100, fixquality=2
$GPRMC,223639.600,A,4305.1473,N,07740.8486,W,0.01,206.41,270319,,,D*7B
$GPGGA,223639.800,4305.1473,N,07740.8486,W,2,11,0.95,163.5,M,-34.4,M,0000,0000*5C
lng=-77.680809, lat=43.085792, altitude=163.50, speed=0.01, satellites=11, angle=206.4100, fixquality=2
$GPRMC,223640.000,A,4305.1473,N,07740.8486,W,0.00,206.41,270319,,,D*72
$GPGGA,223640.200,4305.1473,N,07740.8486,W,2,11,0.95,163.5,M,-34.4,M,0000,0000*58
lng=-77.680809, lat=43.085792, altitude=163.50, speed=0.00, satellites=11, angle=206.4100, fixquality=2
$GPRMC,223640.400,A,4305.1473,N,07740.8486,W,0.01,206.41,270319,,,D*77
$GPGGA,223640.600,4305.1473,N,07740.8486,W,2,11,0.95,163.5,M,-34.4,M,0000,0000*5C
lng=-77.680809, lat=43.085792, altitude=163.50, speed=0.01, satellites=11, angle=206.4100, fixquality=2
$GPRMC,223640.800,A,4305.1473,N,07740.8486,W,0.00,206.41,270319,,,D*7A
$GPGGA,223641.000,4305.1473,N,07740.8486,W,2,11,0.95,163.5,M,-34.4,M,0000,0000*5B
lng=-77.680809, lat=43.085792, altitude=163.50, speed=0.00, satellites=11, angle=206.4100, fixquality=2
$GPRMC,223641.200,A,4305.1473,N,07740.8486,W,0.00,206.41,270319,,,D*71
$GPGGA,223641.400,4305.1473,N,07740.8486,W,2,11,0.95,163.5,M,-34.4,M,0000,0000*5F
lng=-77.680809, lat=43.085792, altitude=163.50, speed=0.00, satellites=11, angle=206.4100, fixquality=2
$GPRMC,223641.600,A,4305.1473,N,07740.8486,W,0.00,206.41,270319,,,D*75
$GPGGA,223641.800,4305.1473,N,07740.8486,W,2,11,0.95,163.5,M,-34.4,M,0000,0000*53
lng=-77.680809, lat=43.085792, altitude=163.50, speed=0.00, satellites=11, angle=206.4100, fixquality=2
$GPRMC,223642.000,A,4305.1473,N,07740.8486,W,0.01,206.41,270319,,,D*71
$GPGGA,223642.200,4305.1473,N,07740.8486,W,2,11,0.95,163.5,M,-34.4,M,0000,0000*5A
lng=-77.680809, lat=43.085792, altitude=163.50, speed=0.01, satellites=11, angle=206.4100, fixquality=2
$GPRMC,223642.400,A,4305.1473,N,07740.8486,W,0.01,206.41,270319,,,D*75
$GPGGA,223642.600,4305.1473,N,07740.8486,W,2,11,0.95,163.5,M,-34.4,M,0000,0000*5E
lng=-77.680809, lat=43.085792, altitude=163.50, speed=0.01, satellites=11, angle=206.4100, fixquality=2
$GPRMC,223642.800,A,4305.1473,N,07740.8486,W,0.00,206.41,270319,,,D*78
$GPGGA,223643.000,4305.1473,N,07740.8486,W,2,11,0.95,163.5,M,-34.4,M,0000,0000*59
lng=-77.680809, lat=43.085792, altitude=163.50, speed=0.00, satellites=11, angle=206.4100, fixquality=2
$GPRMC,223643.200,A,4305.1473,N,07740.8486,W,0.00,206.41,270319,,,D*73
$GPGGA,223643.400,4305.1473,N,07740.8486,W,2,11,0.95,163.5,M,-34.4,M,0000,0000*5D
lng=-77.680809, lat=43.085792, altitude=163.50, speed=0.00, satellites=11, angle=206.4100, fixquality=2
$GPRMC,223643.600,A,4305.1473,N,07740.8486,W,0.01,206.41,270319,,,D*76
$GPGGA,223643.800,4305.1473,N,07740.8486,W,2,11,0.95,163.5,M,-34.4,M,0000,0000*51
lng=-77.680809, lat=43.085792, altitude=163.50, speed=0.01, satellites=11, angle=206.4100, fixquality=2
$GPRMC,223644.000,A,4305.1473,N,07740.8486,W,0.00,206.41,270319,,,D*76
$GPGGA,223644.200,4305.1473,N,07740.8486,W,2,11,0.95,163.5,M,-34.4,M,0000,0000*5C
lng=-77.680809, lat=43.085792, altitude=163.50, speed=0.00, satellites=11, angle=206.4100, fixquality=2
$GPRMC,223644.400,A,4305.1473,N,07740.8486,W,0.01,206.41,270319,,,D*73
$GPGGA,223644.600,4305.1473,N,07740.8486,W,2,11,0.95,163.5,M,-34.4,M,0000,0000*58
lng=-77.680809, lat=43.085792, altitude=163.50, speed=0.01, satellites=11, angle=206.4100, fixquality=2
$GPRMC,223644.800,A,4305.1473,N,07740.8486,W,0.01,206.41,270319,,,D*7F
$GPGGA,223645.000,4305.1473,N,07740.8486,W,2,11,0.95,163.5,M,-34.4,M,0000,0000*5F
lng=-77.680809, lat=43.085792, altitude=163.50, speed=0.01, satellites=11, angle=206.4100, fixquality=2
$GPRMC,223645.200,A,4305.1473,N,07740.8486,W,0.01,206.41,270319,,,D*74
$GPGGA,223645.400,4305.1473,N,07740.8486,W,2,11,0.95,163.5,M,-34.4,M,0000,0000*5B
lng=-77.680809, lat=43.085792, altitude=163.50, speed=0.01, satellites=11, angle=206.4100, fixquality=2
$GPRMC,223645.600,A,4305.1473,N,07740.8486,W,0.02,206.41,270319,,,D*73
$GPGGA,223645.800,4305.1473,N,07740.8486,W,2,11,0.95,163.5,M,-34.4,M,0000,0000*57
lng=-77.680809, lat=43.085792, altitude=163.50, speed=0.02, satellites=11, angle=206.4100, fixquality=2
$GPRMC,223646.000,A,4305.1473,N,07740.8486,W,0.01,206.41,270319,,,D*75
$GPGGA,223646.200,4305.1473,N,07740.8486,W,2,11,0.95,163.5,M,-34.4,M,0000,0000*5E
lng=-77.680809, lat=43.085792, altitude=163.50, speed=0.01, satellites=11, angle=206.4100, fixquality=2
$GPRMC,223646.400,A,4305.1473,N,07740.8486,W,0.01,206.41,270319,,,D*71
$GPGGA,223646.600,4305.1473,N,07740.8486,W,2,11,0.95,163.5,M,-34.4,M,0000,0000*5A
lng=-77.680809, lat=43.085792, altitude=163.50, speed=0.01, satellites=11, angle=206.4100, fixquality=2
$GPRMC,223646.800,A,4305.1473,N,07740.8486,W,0.00,206.41,270319,,,D*7C
$GPGGA,223647.000,4305.1473,N,07740.8486,W,2,11,0.95,163.5,M,-34.4,M,0000,0000*5D
lng=-77.680809, lat=43.085792, altitude=163.50, speed=0.00, satellites=11, angle=206.4100, fixquality=2
$GPRMC,223647.200,A,4305.1473,N,07740.8486,W,0.00,206.41,270319,,,D*77
$GPGGA,223647.400,4305.1473,N,07740.8486,W,2,11,0.95,163.5,M,-34.4,M,0000,0000*59
lng=-77.680809, lat=43.085792, altitude=163.50, speed=0.00, satellites=11, angle=206.4100, fixquality=2
$GPRMC,223647.600,A,4305.1473,N,07740.8486,W,0.02,206.41,270319,,,D*71
$GPGGA,223647.800,4305.1473,N,07740.8486,W,2,11,0.95,163.5,M,-34.4,M,0000,0000*55
lng=-77.680809, lat=43.085792, altitude=163.50, speed=0.02, satellites=11, angle=206.4100, fixquality=2
$GPRMC,223648.000,A,4305.1473,N,07740.8486,W,0.01,206.41,270319,,,D*7B
$GPGGA,223648.200,4305.1473,N,07740.8486,W,2,11,0.95,163.5,M,-34.4,M,0000,0000*50
lng=-77.680809, lat=43.085792, altitude=163.50, speed=0.01, satellites=11, angle=206.4100, fixquality=2
$GPRMC,223648.400,A,4305.1473,N,07740.8486,W,0.00,206.41,270319,,,D*7E
$GPGGA,223648.600,4305.1473,N,07740.8486,W,2,11,0.95,163.5,M,-34.4,M,0000,0000*54
lng=-77.680809, lat=43.085792, altitude=163.50, speed=0.00, satellites=11, angle=206.4100, fixquality=2
$GPRMC,223648.800,A,4305.1473,N,07740.8486,W,0.01,206.41,270319,,,D*73
$GPGGA,223649.000,4305.1473,N,07740.8486,W,2,11,0.95,163.5,M,-34.4,M,0000,0000*53
lng=-77.680809, lat=43.085792, altitude=163.50, speed=0.01, satellites=11, angle=206.4100, fixquality=2
$GPRMC,223649.200,A,4305.1473,N,07740.8486,W,0.00,206.41,270319,,,D*79
$GPGGA,223649.400,4305.1473,N,07740.8486,W,2,11,0.95,163.5,M,-34.4,M,0000,0000*57
lng=-77.680809, lat=43.085792, altitude=163.50, speed=0.00, satellites=11, angle=206.4100, fixquality=2
$GPRMC,223649.600,A,4305.1473,N,07740.8486,W,0.00,206.41,270319,,,D*7D
$GPGGA,223649.800,4305.1473,N,07740.8486,W,2,11,0.95,163.5,M,-34.4,M,0000,0000*5B
lng=-77.680809, lat=43.085792, altitude=163.50, speed=0.00, satellites=11, angle=206.4100, fixquality=2
$GPRMC,223650.000,A,4305.1473,N,07740.8486,W,0.00,206.41,270319,,,D*73
$GPGGA,223650.200,4305.1473,N,07740.8486,W,2,11,0.95,163.5,M,-34.4,M,0000,0000*59
lng=-77.680809, lat=43.085792, altitude=163.50, speed=0.00, satellites=11, angle=206.4100, fixquality=2
$GPRMC,223650.400,A,4305.1473,N,07740.8486,W,0.01,206.41,270319,,,D*76
$GPGGA,223650.600,4305.1473,N,07740.8486,W,2,11,0.95,163.5,M,-34.4,M,0000,0000*5D
lng=-77.680809, lat=43.085792, altitude=163.50, speed=0.01, satellites=11, angle=206.4100, fixquality=2
$GPRMC,223650.800,A,4305.1473,N,07740.8486,W,0.00,206.41,270319,,,D*7B
$GPGGA,223651.000,4305.1473,N,07740.8486,W,2,11,0.95,163.5,M,-34.4,M,0000,0000*5A
lng=-77.680809, lat=43.085792, altitude=163.50, speed=0.00, satellites=11, angle=206.4100, fixquality=2
$GPRMC,223651.200,A,4305.1473,N,07740.8486,W,0.01,206.41,270319,,,D*71
$GPGGA,223651.400,4305.1473,N,07740.8486,W,2,11,0.95,163.5,M,-34.4,M,0000,0000*5E
lng=-77.680809, lat=43.085792, altitude=163.50, speed=0.01, satellites=11, angle=206.4100, fixquality=2
$GPRMC,223651.600,A,4305.1473,N,07740.8486,W,0.00,206.41,270319,,,D*74
$GPGGA,223651.800,4305.1473,N,07740.8486,W,2,11,0.95,163.5,M,-34.4,M,0000,0000*52
lng=-77.680809, lat=43.085792, altitude=163.50, speed=0.00, satellites=11, angle=206.4100, fixquality=2
$GPRMC,223652.000,A,4305.1473,N,07740.8486,W,0.01,206.41,270319,,,D*70
$GPGGA,223652.200,4305.1473,N,07740.8486,W,2,11,0.95,163.5,M,-34.4,M,0000,0000*5B
lng=-77.680809, lat=43.085792, altitude=163.50, speed=0.01, satellites=11, angle=206.4100, fixquality=2
$GPRMC,223652.400,A,4305.1473,N,07740.8486,W,0.01,206.41,270319,,,D*74
$GPGGA,223652.600,4305.1474,N,07740.8486,W,2,11,0.95,163.5,M,-34.4,M,0000,0000*58
lng=-77.680809, lat=43.085792, altitude=163.50, speed=0.01, satellites=11, angle=206.4100, fixquality=2
$GPRMC,223652.800,A,4305.1474,N,07740.8486,W,0.01,206.41,270319,,,D*7F
$GPGGA,223653.000,4305.1474,N,07740.8486,W,2,11,0.95,163.5,M,-34.4,M,0000,0000*5F
lng=-77.680809, lat=43.085792, altitude=163.50, speed=0.01, satellites=11, angle=206.4100, fixquality=2
$GPRMC,223653.200,A,4305.1474,N,07740.8486,W,0.00,206.41,270319,,,D*75
$GPGGA,223653.400,4305.1474,N,07740.8486,W,2,11,0.95,163.5,M,-34.4,M,0000,0000*5B
lng=-77.680809, lat=43.085792, altitude=163.50, speed=0.00, satellites=11, angle=206.4100, fixquality=2
$GPRMC,223653.600,A,4305.1474,N,07740.8486,W,0.01,206.41,270319,,,D*70
$GPGGA,223653.800,4305.1474,N,07740.8486,W,2,11,0.95,163.5,M,-34.4,M,0000,0000*57
lng=-77.680809, lat=43.085792, altitude=163.50, speed=0.01, satellites=11, angle=206.4100, fixquality=2
$GPRMC,223654.000,A,4305.1474,N,07740.8486,W,0.01,206.41,270319,,,D*71
$GPGGA,223654.200,4305.1474,N,07740.8486,W,2,11,0.95,163.5,M,-34.4,M,0000,0000*5A
lng=-77.680809, lat=43.085792, altitude=163.50, speed=0.01, satellites=11, angle=206.4100, fixquality=2
$GPRMC,223654.400,A,4305.1474,N,07740.8486,W,0.00,206.41,270319,,,D*74
$GPGGA,223654.600,4305.1474,N,07740.8486,W,2,11,0.95,163.5,M,-34.4,M,0000,0000*5E
lng=-77.680809, lat=43.085792, altitude=163.50, speed=0.00, satellites=11, angle=206.4100, fixquality=2
$GPRMC,223654.800,A,4305.1474,N,07740.8486,W,0.00,206.41,270319,,,D*78
$GPGGA,223655.000,4305.1474,N,07740.8486,W,2,11,0.95,163.5,M,-34.4,M,0000,0000*59
lng=-77.680809, lat=43.085792, altitude=163.50, speed=0.00, satellites=11, angle=206.4100, fixquality=2
$GPRMC,223655.200,A,4305.1474,N,07740.8486,W,0.00,206.41,270319,,,D*73
$GPGGA,223655.400,4305.1474,N,07740.8486,W,2,11,0.95,163.5,M,-34.4,M,0000,0000*5D
lng=-77.680809, lat=43.085792, altitude=163.50, speed=0.00, satellites=11, angle=206.4100, fixquality=2
$GPRMC,223655.600,A,4305.1474,N,07740.8486,W,0.00,206.41,270319,,,D*77
$GPGGA,223655.800,4305.1474,N,07740.8486,W,2,11,0.95,163.5,M,-34.4,M,0000,0000*51
lng=-77.680809, lat=43.085792, altitude=163.50, speed=0.00, satellites=11, angle=206.4100, fixquality=2
$GPRMC,223656.000,A,4305.1474,N,07740.8486,W,0.00,206.41,270319,,,D*72
$GPGGA,223656.200,4305.1474,N,07740.8486,W,2,11,0.95,163.5,M,-34.4,M,0000,0000*58
lng=-77.680809, lat=43.085792, altitude=163.50, speed=0.00, satellites=11, angle=206.4100, fixquality=2
$GPRMC,223656.400,A,4305.1474,N,07740.8486,W,0.01,206.41,270319,,,D*77
$GPGGA,223656.600,4305.1474,N,07740.8486,W,2,11,0.95,163.5,M,-34.4,M,0000,0000*5C
lng=-77.680809, lat=43.085792, altitude=163.50, speed=0.01, satellites=11, angle=206.4100, fixquality=2
$GPRMC,223656.800,A,4305.1474,N,07740.8486,W,0.01,206.41,270319,,,D*7B
$GPGGA,223657.000,4305.1474,N,07740.8486,W,2,11,0.95,163.5,M,-34.4,M,0000,0000*5B
lng=-77.680809, lat=43.085792, altitude=163.50, speed=0.01, satellites=11, angle=206.4100, fixquality=2
$GPRMC,223657.200,A,4305.1474,N,07740.8486,W,0.01,206.41,270319,,,D*70
$GPGGA,223657.400,4305.1474,N,07740.8486,W,2,11,0.95,163.5,M,-34.4,M,0000,0000*5F
lng=-77.680809, lat=43.085792, altitude=163.50, speed=0.01, satellites=11, angle=206.4100, fixquality=2
$GPRMC,223657.600,A,4305.1474,N,07740.8486,W,0.00,206.41,270319,,,D*75
$GPGGA,223657.800,4305.1474,N,07740.8486,W,2,11,0.95,163.5,M,-34.4,M,0000,0000*53
lng=-77.680809, lat=43.085792, altitude=163.50, speed=0.00, satellites=11, angle=206.4100, fixquality=2
$GPRMC,223658.000,A,4305.1474,N,07740.8486,W,0.01,206.41,270319,,,D*7D
$GPGGA,223658.200,4305.1474,N,07740.8486,W,2,11,0.95,163.5,M,-34.4,M,0000,0000*56
lng=-77.680809, lat=43.085792, altitude=163.50, speed=0.01, satellites=11, angle=206.4100, fixquality=2
$GPRMC,223658.400,A,4305.1474,N,07740.8486,W,0.01,206.41,270319,,,D*79
$GPGGA,223658.600,4305.1474,N,07740.8486,W,2,11,0.95,163.5,M,-34.4,M,0000,0000*52
lng=-77.680809, lat=43.085792, altitude=163.50, speed=0.01, satellites=11, angle=206.4100, fixquality=2
$GPRMC,223658.800,A,4305.1474,N,07740.8486,W,0.02,206.41,270319,,,D*76
$GPGGA,223659.000,4305.1474,N,07740.8486,W,2,11,0.95,163.5,M,-34.4,M,0000,0000*55
lng=-77.680809, lat=43.085792, altitude=163.50, speed=0.02, satellites=11, angle=206.4100, fixquality=2
$GPRMC,223659.200,A,4305.1474,N,07740.8486,W,0.01,206.41,270319,,,D*7E
$GPGGA,223659.400,4305.1474,N,07740.8486,W,2,11,0.95,163.5,M,-34.4,M,0000,0000*51
lng=-77.680809, lat=43.085792, altitude=163.50, speed=0.01, satellites=11, angle=206.4100, fixquality=2
$GPRMC,223659.600,A,4305.1474,N,07740.8486,W,0.00,206.41,270319,,,D*7B
$GPGGA,223659.800,4305.1474,N,07740.8486,W,2,11,0.95,163.5,M,-34.4,M,0000,0000*5D
lng=-77.680809, lat=43.085792, altitude=163.50, speed=0.00, satellites=11, angle=206.4100, fixquality=2
$GPRMC,223700.000,A,4305.1474,N,07740.8486,W,0.01,206.41,270319,,,D*71
$GPGGA,223700.200,4305.1474,N,07740.8486,W,2,11,0.95,163.5,M,-34.4,M,0000,0000*5A
lng=-77.680809, lat=43.085792, altitude=163.50, speed=0.01, satellites=11, angle=206.4100, fixquality=2
$GPRMC,223700.400,A,4305.1474,N,07740.8486,W,0.00,206.41,270319,,,D*74
$GPGGA,223700.600,4305.1474,N,07740.8486,W,2,11,0.95,163.5,M,-34.4,M,0000,0000*5E
lng=-77.680809, lat=43.085792, altitude=163.50, speed=0.00, satellites=11, angle=206.4100, fixquality=2
$GPRMC,223700.800,A,4305.1474,N,07740.8486,W,0.00,206.41,270319,,,D*78
$GPGGA,223701.000,4305.1474,N,07740.8486,W,2,11,0.95,163.5,M,-34.4,M,0000,0000*59
lng=-77.680809, lat=43.085792, altitude=163.50, speed=0.00, satellites=11, angle=206.4100, fixquality=2
$GPRMC,223701.200,A,4305.1474,N,07740.8486,W,0.00,206.41,270319,,,D*73
$GPGGA,223701.400,4305.1474,N,07740.8486,W,2,11,0.95,163.5,M,-34.4,M,0000,0000*5D
lng=-77.680809, lat=43.085792, altitude=163.50, speed=0.00, satellites=11, angle=206.4100, fixquality=2
$GPRMC,223701.600,A,4305.1474,N,07740.8486,W,0.00,206.41,270319,,,D*77
$GPGGA,223701.800,4305.1474,N,07740.8486,W,2,11,0.95,163.5,M,-34.4,M,0000,0000*51
lng=-77.680809, lat=43.085792, altitude=163.50, speed=0.00, satellites=11, angle=206.4100, fixquality=2
$GPRMC,223702.000,A,4305.1474,N,07740.8486,W,0.00,206.41,270319,,,D*72
$GPGGA,223702.200,4305.1474,N,07740.8486,W,2,11,0.95,163.5,M,-34.4,M,0000,0000*58
lng=-77.680809, lat=43.085792, altitude=163.50, speed=0.00, satellites=11, angle=206.4100, fixquality=2
$GPRMC,223702.400,A,4305.1474,N,07740.8486,W,0.01,206.41,270319,,,D*77
$GPGGA,223702.600,4305.1474,N,07740.8486,W,2,11,0.95,163.5,M,-34.4,M,0000,0000*5C
lng=-77.680809, lat=43.085792, altitude=163.50, speed=0.01, satellites=11, angle=206.4100, fixquality=2
$GPRMC,223702.800,A,4305.1474,N,07740.8486,W,0.01,206.41,270319,,,D*7B
$GPGGA,223703.000,4305.1474,N,07740.8486,W,2,11,0.95,163.5,M,-34.4,M,0000,0000*5B
lng=-77.680809, lat=43.085792, altitude=163.50, speed=0.01, satellites=11, angle=206.4100, fixquality=2
$GPRMC,223703.200,A,4305.1474,N,07740.8486,W,0.00,206.41,270319,,,D*71
$GPGGA,223703.400,4305.1474,N,07740.8486,W,2,11,0.95,163.5,M,-34.4,M,0000,0000*5F
lng=-77.680809, lat=43.085792, altitude=163.50, speed=0.00, satellites=11, angle=206.4100, fixquality=2
$GPRMC,223703.600,A,4305.1474,N,07740.8486,W,0.03,206.41,270319,,,D*76
$GPGGA,223703.800,4305.1474,N,07740.8486,W,2,11,0.95,163.5,M,-34.4,M,0000,0000*53
lng=-77.680809, lat=43.085792, altitude=163.50, speed=0.03, satellites=11, angle=206.4100, fixquality=2
$GPRMC,223704.000,A,4305.1474,N,07740.8486,W,0.01,206.41,270319,,,D*75
$GPGGA,223704.200,4305.1474,N,07740.8486,W,2,11,0.95,163.5,M,-34.4,M,0000,0000*5E
lng=-77.680809, lat=43.085792, altitude=163.50, speed=0.01, satellites=11, angle=206.4100, fixquality=2
$GPRMC,223704.400,A,4305.1474,N,07740.8486,W,0.01,206.41,270319,,,D*71
$GPGGA,223704.600,4305.1474,N,07740.8486,W,2,11,0.95,163.5,M,-34.4,M,0000,0000*5A
lng=-77.680809, lat=43.085792, altitude=163.50, speed=0.01, satellites=11, angle=206.4100, fixquality=2
$GPRMC,223704.800,A,4305.1474,N,07740.8486,W,0.01,206.41,270319,,,D*7D
$GPGGA,223705.000,4305.1474,N,07740.8486,W,2,11,0.95,163.5,M,-34.4,M,0000,0000*5D
lng=-77.680809, lat=43.085792, altitude=163.50, speed=0.01, satellites=11, angle=206.4100, fixquality=2
$GPRMC,223705.200,A,4305.1474,N,07740.8486,W,0.00,206.41,270319,,,D*77
$GPGGA,223705.400,4305.1474,N,07740.8486,W,2,11,0.95,163.5,M,-34.4,M,0000,0000*59
lng=-77.680809, lat=43.085792, altitude=163.50, speed=0.00, satellites=11, angle=206.4100, fixquality=2
$GPRMC,223705.600,A,4305.1474,N,07740.8486,W,0.00,206.41,270319,,,D*73
$GPGGA,223705.800,4305.1474,N,07740.8486,W,2,11,0.95,163.5,M,-34.4,M,0000,0000*55
lng=-77.680809, lat=43.085792, altitude=163.50, speed=0.00, satellites=11, angle=206.4100, fixquality=2
$GPRMC,223706.000,A,4305.1474,N,07740.8486,W,0.01,206.41,270319,,,D*77
$GPGGA,223706.200,4305.1474,N,07740.8486,W,2,11,0.95,163.5,M,-34.4,M,0000,0000*5C
lng=-77.680809, lat=43.085792, altitude=163.50, speed=0.01, satellites=11, angle=206.4100, fixquality=2
$GPRMC,223706.400,A,4305.1474,N,07740.8486,W,0.01,206.41,270319,,,D*73
$GPGGA,223706.600,4305.1474,N,07740.8486,W,2,11,0.95,163.5,M,-34.4,M,0000,0000*58
lng=-77.680809, lat=43.085792, altitude=163.50, speed=0.01, satellites=11, angle=206.4100, fixquality=2
$GPRMC,223706.800,A,4305.1474,N,07740.8486,W,0.00,206.41,270319,,,D*7E
$GPGGA,223707.000,4305.1474,N,07740.8486,W,2,11,0.95,163.5,M,-34.4,M,0000,0000*5F
lng=-77.680809, lat=43.085792, altitude=163.50, speed=0.00, satellites=11, angle=206.4100, fixquality=2
$GPRMC,223707.200,A,4305.1474,N,07740.8486,W,0.01,206.41,270319,,,D*74
$GPGGA,223707.400,4305.1474,N,07740.8486,W,2,11,0.95,163.5,M,-34.4,M,0000,0000*5B
lng=-77.680809, lat=43.085792, altitude=163.50, speed=0.01, satellites=11, angle=206.4100, fixquality=2
$GPRMC,223707.600,A,4305.1474,N,07740.8486,W,0.01,206.41,270319,,,D*70
$GPGGA,223707.800,4305.1474,N,07740.8486,W,2,11,0.95,163.5,M,-34.4,M,0000,0000*57
lng=-77.680809, lat=43.085792, altitude=163.50, speed=0.01, satellites=11, angle=206.4100, fixquality=2
$GPRMC,223708.000,A,4305.1474,N,07740.8486,W,0.01,206.41,270319,,,D*79
$GPGGA,223708.200,4305.1474,N,07740.8486,W,2,11,0.95,163.5,M,-34.4,M,0000,0000*52
lng=-77.680809, lat=43.085792, altitude=163.50, speed=0.01, satellites=11, angle=206.4100, fixquality=2
$GPRMC,223708.400,A,4305.1474,N,07740.8486,W,0.01,206.41,270319,,,D*7D
$GPGGA,223708.600,4305.1474,N,07740.8486,W,2,11,0.95,163.5,M,-34.4,M,0000,0000*56
lng=-77.680809, lat=43.085792, altitude=163.50, speed=0.01, satellites=11, angle=206.4100, fixquality=2
$GPRMC,223708.800,A,4305.1474,N,07740.8486,W,0.00,206.41,270319,,,D*70
$GPGGA,223709.000,4305.1474,N,07740.8486,W,2,11,0.95,163.5,M,-34.4,M,0000,0000*51
lng=-77.680809, lat=43.085792, altitude=163.50, speed=0.00, satellites=11, angle=206.4100, fixquality=2
$GPRMC,223709.200,A,4305.1474,N,07740.8486,W,0.00,206.41,270319,,,D*7B
$GPGGA,223709.400,4305.1474,N,07740.8486,W,2,11,0.95,163.5,M,-34.4,M,0000,0000*55
lng=-77.680809, lat=43.085792, altitude=163.50, speed=0.00, satellites=11, angle=206.4100, fixquality=2
$GPRMC,223709.600,A,4305.1474,N,07740.8486,W,0.01,206.41,270319,,,D*7E
$GPGGA,223709.800,4305.1474,N,07740.8486,W,2,11,0.95,163.5,M,-34.4,M,0000,0000*59
lng=-77.680809, lat=43.085792, altitude=163.50, speed=0.01, satellites=11, angle=206.4100, fixquality=2
$GPRMC,223710.000,A,4305.1474,N,07740.8486,W,0.00,206.41,270319,,,D*71
$GPGGA,223710.200,4305.1474,N,07740.8486,W,2,11,0.95,163.5,M,-34.4,M,0000,0000*5B
lng=-77.680809, lat=43.085792, altitude=163.50, speed=0.00, satellites=11, angle=206.4100, fixquality=2
$GPRMC,223710.400,A,4305.1474,N,07740.8486,W,0.01,206.41,270319,,,D*74
$GPGGA,223710.600,4305.1474,N,07740.8486,W,2,11,0.95,163.5,M,-34.4,M,0000,0000*5F
lng=-77.680809, lat=43.085792, altitude=163.50, speed=0.01, satellites=11, angle=206.4100, fixquality=2
$GPRMC,223710.800,A,4305.1474,N,07740.8486,W,0.01,206.41,270319,,,D*78
$GPGGA,223711.000,4305.1474,N,07740.8486,W,2,11,0.95,163.5,M,-34.4,M,0000,0000*58
lng=-77.680809, lat=43.085792, altitude=163.50, speed=0.01, satellites=11, angle=206.4100, fixquality=2
$GPRMC,223711.200,A,4305.1474,N,07740.8486,W,0.01,206.41,270319,,,D*73
$GPGGA,223711.400,4305.1474,N,07740.8486,W,2,11,0.95,163.5,M,-34.4,M,0000,0000*5C
lng=-77.680809, lat=43.085792, altitude=163.50, speed=0.01, satellites=11, angle=206.4100, fixquality=2
$GPRMC,223711.600,A,4305.1474,N,07740.8486,W,0.00,206.41,270319,,,D*76
$GPGGA,223711.800,4305.1474,N,07740.8486,W,2,11,0.95,163.5,M,-34.4,M,0000,0000*50
lng=-77.680809, lat=43.085792, altitude=163.50, speed=0.00, satellites=11, angle=206.4100, fixquality=2
$GPRMC,223712.000,A,4305.1474,N,07740.8486,W,0.01,206.41,270319,,,D*72
$GPGGA,223712.200,4305.1474,N,07740.8486,W,2,11,0.95,163.5,M,-34.4,M,0000,0000*59
lng=-77.680809, lat=43.085792, altitude=163.50, speed=0.01, satellites=11, angle=206.4100, fixquality=2
$GPRMC,223712.400,A,4305.1474,N,07740.8486,W,0.00,206.41,270319,,,D*77
$GPGGA,223712.600,4305.1474,N,07740.8486,W,2,11,0.95,163.5,M,-34.4,M,0000,0000*5D
lng=-77.680809, lat=43.085792, altitude=163.50, speed=0.00, satellites=11, angle=206.4100, fixquality=2
$GPRMC,223712.800,A,4305.1474,N,07740.8486,W,0.01,206.41,270319,,,D*7A
$GPGGA,223713.000,4305.1474,N,07740.8486,W,2,11,0.95,163.5,M,-34.4,M,0000,0000*5A
lng=-77.680809, lat=43.085792, altitude=163.50, speed=0.01, satellites=11, angle=206.4100, fixquality=2
$GPRMC,223713.200,A,4305.1474,N,07740.8486,W,0.01,206.41,270319,,,D*71
$GPGGA,223713.400,4305.1474,N,07740.8486,W,2,11,0.95,163.5,M,-34.4,M,0000,0000*5E
lng=-77.680809, lat=43.085792, altitude=163.50, speed=0.01, satellites=11, angle=206.4100, fixquality=2
$GPRMC,223713.600,A,4305.1474,N,07740.8486,W,0.00,206.41,270319,,,D*74
$GPGGA,223713.800,4305.1474,N,07740.8486,W,2,11,0.95,163.5,M,-34.4,M,0000,0000*52
lng=-77.680809, lat=43.085792, altitude=163.50, speed=0.00, satellites=11, angle=206.4100, fixquality=2
$GPRMC,223714.000,A,4305.1474,N,07740.8486,W,0.00,206.41,270319,,,D*75
$GPGGA,223714.200,4305.1474,N,07740.8486,W,2,11,0.95,163.5,M,-34.4,M,0000,0000*5F
lng=-77.680809, lat=43.085792, altitude=163.50, speed=0.00, satellites=11, angle=206.4100, fixquality=2
$GPRMC,223714.400,A,4305.1474,N,07740.8486,W,0.00,206.41,270319,,,D*71
$GPGGA,223714.600,4305.1474,N,07740.8486,W,2,11,0.95,163.5,M,-34.4,M,0000,0000*5B
lng=-77.680809, lat=43.085792, altitude=163.50, speed=0.00, satellites=11, angle=206.4100, fixquality=2
$GPRMC,223714.800,A,4305.1474,N,07740.8486,W,0.01,206.41,270319,,,D*7C
$GPGGA,223715.000,4305.1474,N,07740.8486,W,2,11,0.95,163.5,M,-34.4,M,0000,0000*5C
lng=-77.680809, lat=43.085792, altitude=163.50, speed=0.01, satellites=11, angle=206.4100, fixquality=2
$GPRMC,223715.200,A,4305.1474,N,07740.8486,W,0.00,206.41,270319,,,D*76
$GPGGA,223715.400,4305.1474,N,07740.8486,W,2,11,0.95,163.4,M,-34.4,M,0000,0000*59
lng=-77.680809, lat=43.085792, altitude=163.50, speed=0.00, satellites=11, angle=206.4100, fixquality=2
$GPRMC,223715.600,A,4305.1474,N,07740.8486,W,0.01,206.41,270319,,,D*73
$GPGGA,223715.800,4305.1474,N,07740.8486,W,2,11,0.95,163.4,M,-34.4,M,0000,0000*55
lng=-77.680809, lat=43.085792, altitude=163.40, speed=0.01, satellites=11, angle=206.4100, fixquality=2
$GPRMC,223716.000,A,4305.1474,N,07740.8486,W,0.00,206.41,270319,,,D*77
$GPGGA,223716.200,4305.1474,N,07740.8486,W,2,11,0.95,163.4,M,-34.4,M,0000,0000*5C
lng=-77.680809, lat=43.085792, altitude=163.40, speed=0.00, satellites=11, angle=206.4100, fixquality=2
$GPRMC,223716.400,A,4305.1474,N,07740.8486,W,0.01,206.41,270319,,,D*72
$GPGGA,223716.600,4305.1474,N,07740.8486,W,2,11,0.95,163.4,M,-34.4,M,0000,0000*58
lng=-77.680809, lat=43.085792, altitude=163.40, speed=0.01, satellites=11, angle=206.4100, fixquality=2
$GPRMC,223716.800,A,4305.1474,N,07740.8486,W,0.01,206.41,270319,,,D*7E
$GPGGA,223717.000,4305.1474,N,07740.8486,W,2,11,0.95,163.4,M,-34.4,M,0000,0000*5F
lng=-77.680809, lat=43.085792, altitude=163.40, speed=0.01, satellites=11, angle=206.4100, fixquality=2
$GPRMC,223717.200,A,4305.1474,N,07740.8486,W,0.00,206.41,270319,,,D*74
$GPGGA,223717.400,4305.1474,N,07740.8486,W,2,11,0.95,163.4,M,-34.4,M,0000,0000*5B
lng=-77.680809, lat=43.085792, altitude=163.40, speed=0.00, satellites=11, angle=206.4100, fixquality=2
$GPRMC,223717.600,A,4305.1474,N,07740.8486,W,0.00,206.41,270319,,,D*70
$GPGGA,223717.800,4305.1474,N,07740.8486,W,2,11,0.95,163.4,M,-34.4,M,0000,0000*57
lng=-77.680809, lat=43.085792, altitude=163.40, speed=0.00, satellites=11, angle=206.4100, fixquality=2
$GPRMC,223718.000,A,4305.1474,N,07740.8486,W,0.00,206.41,270319,,,D*79
$GPGGA,223718.200,4305.1474,N,07740.8486,W,2,11,0.95,163.4,M,-34.4,M,0000,0000*52
lng=-77.680809, lat=43.085792, altitude=163.40, speed=0.00, satellites=11, angle=206.4100, fixquality=2
$GPRMC,223718.400,A,4305.1474,N,07740.8486,W,0.00,206.41,270319,,,D*7D
$GPGGA,223718.600,4305.1474,N,07740.8486,W,2,11,0.95,163.4,M,-34.4,M,0000,0000*56
lng=-77.680809, lat=43.085792, altitude=163.40, speed=0.00, satellites=11, angle=206.4100, fixquality=2
$GPRMC,223718.800,A,4305.1474,N,07740.8486,W,0.01,206.41,270319,,,D*70
$GPGGA,223719.000,4305.1474,N,07740.8486,W,2,11,0.95,163.4,M,-34.4,M,0000,0000*51
lng=-77.680809, lat=43.085792, altitude=163.40, speed=0.01, satellites=11, angle=206.4100, fixquality=2
$GPRMC,223719.200,A,4305.1474,N,07740.8486,W,0.01,206.41,270319,,,D*7B
$GPGGA,223719.400,4305.1474,N,07740.8486,W,2,11,0.95,163.4,M,-34.4,M,0000,0000*55
lng=-77.680809, lat=43.085792, altitude=163.40, speed=0.01, satellites=11, angle=206.4100, fixquality=2
$GPRMC,223719.600,A,4305.1474,N,07740.8486,W,0.01,206.41,270319,,,D*7F
$GPGGA,223719.800,4305.1474,N,07740.8486,W,2,11,0.95,163.4,M,-34.4,M,0000,0000*59
lng=-77.680809, lat=43.085792, altitude=163.40, speed=0.01, satellites=11, angle=206.4100, fixquality=2
$GPRMC,223720.000,A,4305.1474,N,07740.8486,W,0.00,206.41,270319,,,D*72
$GPGGA,223720.200,4305.1474,N,07740.8486,W,2,11,0.95,163.4,M,-34.4,M,0000,0000*59
lng=-77.680809, lat=43.085792, altitude=163.40, speed=0.00, satellites=11, angle=206.4100, fixquality=2
$GPRMC,223720.400,A,4305.1474,N,07740.8486,W,0.01,206.41,270319,,,D*77
$GPGGA,223720.600,4305.1474,N,07740.8486,W,2,11,0.95,163.4,M,-34.4,M,0000,0000*5D
lng=-77.680809, lat=43.085792, altitude=163.40, speed=0.01, satellites=11, angle=206.4100, fixquality=2
$GPRMC,223720.800,A,4305.1474,N,07740.8486,W,0.01,206.41,270319,,,D*7B
$GPGGA,223721.000,4305.1474,N,07740.8486,W,2,11,0.95,163.4,M,-34.4,M,0000,0000*5A
lng=-77.680809, lat=43.085792, altitude=163.40, speed=0.01, satellites=11, angle=206.4100, fixquality=2
$GPRMC,223721.200,A,4305.1474,N,07740.8486,W,0.00,206.41,270319,,,D*71
$GPGGA,223721.400,4305.1474,N,07740.8486,W,2,11,0.95,163.4,M,-34.4,M,0000,0000*5E
lng=-77.680809, lat=43.085792, altitude=163.40, speed=0.00, satellites=11, angle=206.4100, fixquality=2
$GPRMC,223721.600,A,4305.1474,N,07740.8486,W,0.01,206.41,270319,,,D*74
$GPGGA,223721.800,4305.1474,N,07740.8486,W,2,11,0.95,163.4,M,-34.4,M,0000,0000*52
lng=-77.680809, lat=43.085792, altitude=163.40, speed=0.01, satellites=11, angle=206.4100, fixquality=2
$GPRMC,223722.000,A,4305.1474,N,07740.8486,W,0.01,206.41,270319,,,D*71
$GPGGA,223722.200,4305.1474,N,07740.8486,W,2,11,0.95,163.4,M,-34.4,M,0000,0000*5B
lng=-77.680809, lat=43.085792, altitude=163.40, speed=0.01, satellites=11, angle=206.4100, fixquality=2
$GPRMC,223722.400,A,4305.1474,N,07740.8486,W,0.00,206.41,270319,,,D*74
$GPGGA,223722.600,4305.1474,N,07740.8486,W,2,11,0.95,163.4,M,-34.4,M,0000,0000*5F
lng=-77.680809, lat=43.085792, altitude=163.40, speed=0.00, satellites=11, angle=206.4100, fixquality=2
$GPRMC,223722.800,A,4305.1474,N,07740.8486,W,0.01,206.41,270319,,,D*79
$GPGGA,223723.000,4305.1474,N,07740.8486,W,2,11,0.95,163.4,M,-34.4,M,0000,0000*58
lng=-77.680809, lat=43.085792, altitude=163.40, speed=0.01, satellites=11, angle=206.4100, fixquality=2
$GPRMC,223723.200,A,4305.1474,N,07740.8486,W,0.01,206.41,270319,,,D*72
$GPGGA,223723.400,4305.1474,N,07740.8486,W,2,11,0.95,163.4,M,-34.4,M,0000,0000*5C
lng=-77.680809, lat=43.085792, altitude=163.40, speed=0.01, satellites=11, angle=206.4100, fixquality=2
$GPRMC,223723.600,A,4305.1474,N,07740.8486,W,0.00,206.41,270319,,,D*77
$GPGGA,223723.800,4305.1474,N,07740.8486,W,2,11,0.95,163.4,M,-34.4,M,0000,0000*50
lng=-77.680809, lat=43.085792, altitude=163.40, speed=0.00, satellites=11, angle=206.4100, fixquality=2
$GPRMC,223724.000,A,4305.1474,N,07740.8486,W,0.01,206.41,270319,,,D*77
$GPGGA,223724.200,4305.1474,N,07740.8486,W,2,11,0.95,163.4,M,-34.4,M,0000,0000*5D
lng=-77.680809, lat=43.085792, altitude=163.40, speed=0.01, satellites=11, angle=206.4100, fixquality=2
$GPRMC,223724.400,A,4305.1474,N,07740.8486,W,0.01,206.41,270319,,,D*73
$GPGGA,223724.600,4305.1474,N,07740.8486,W,2,11,0.95,163.4,M,-34.4,M,0000,0000*59
lng=-77.680809, lat=43.085792, altitude=163.40, speed=0.01, satellites=11, angle=206.4100, fixquality=2
$GPRMC,223724.800,A,4305.1474,N,07740.8486,W,0.01,206.41,270319,,,D*7F
$GPGGA,223725.000,4305.1474,N,07740.8486,W,2,11,0.95,163.4,M,-34.4,M,0000,0000*5E
lng=-77.680809, lat=43.085792, altitude=163.40, speed=0.01, satellites=11, angle=206.4100, fixquality=2
$GPRMC,223725.200,A,4305.1474,N,07740.8486,W,0.00,206.41,270319,,,D*75
$GPGGA,223725.400,4305.1474,N,07740.8486,W,2,11,0.95,163.4,M,-34.4,M,0000,0000*5A
lng=-77.680809, lat=43.085792, altitude=163.40, speed=0.00, satellites=11, angle=206.4100, fixquality=2
$GPRMC,223725.600,A,4305.1474,N,07740.8486,W,0.00,206.41,270319,,,D*71
$GPGGA,223725.800,4305.1474,N,07740.8486,W,2,11,0.95,163.4,M,-34.4,M,0000,0000*56
lng=-77.680809, lat=43.085792, altitude=163.40, speed=0.00, satellites=11, angle=206.4100, fixquality=2
$GPRMC,223726.000,A,4305.1474,N,07740.8486,W,0.01,206.41,270319,,,D*75
$GPGGA,223726.200,4305.1474,N,07740.8486,W,2,11,0.95,163.4,M,-34.4,M,0000,0000*5F
lng=-77.680809, lat=43.085792, altitude=163.40, speed=0.01, satellites=11, angle=206.4100, fixquality=2
$GPRMC,223726.400,A,4305.1474,N,07740.8486,W,0.01,206.41,270319,,,D*71
$GPGGA,223726.600,4305.1474,N,07740.8486,W,2,11,0.95,163.4,M,-34.4,M,0000,0000*5B
lng=-77.680809, lat=43.085792, altitude=163.40, speed=0.01, satellites=11, angle=206.4100, fixquality=2
$GPRMC,223726.800,A,4305.1474,N,07740.8486,W,0.02,206.41,270319,,,D*7E
$GPGGA,223727.000,4305.1474,N,07740.8486,W,2,11,0.95,163.4,M,-34.4,M,0000,0000*5C
lng=-77.680809, lat=43.085792, altitude=163.40, speed=0.02, satellites=11, angle=206.4100, fixquality=2
$GPRMC,223727.200,A,4305.1474,N,07740.8486,W,0.01,206.41,270319,,,D*76
$GPGGA,223727.400,4305.1474,N,07740.8486,W,2,11,0.95,163.4,M,-34.4,M,0000,0000*58
lng=-77.680809, lat=43.085792, altitude=163.40, speed=0.01, satellites=11, angle=206.4100, fixquality=2
$GPRMC,223727.600,A,4305.1474,N,07740.8486,W,0.00,206.41,270319,,,D*73
$GPGGA,223727.800,4305.1474,N,07740.8486,W,2,11,0.95,163.4,M,-34.4,M,0000,0000*54
lng=-77.680809, lat=43.085792, altitude=163.40, speed=0.00, satellites=11, angle=206.4100, fixquality=2
$GPRMC,223728.000,A,4305.1474,N,07740.8486,W,0.01,206.41,270319,,,D*7B
$GPGGA,223728.200,4305.1474,N,07740.8486,W,2,11,0.95,163.4,M,-34.4,M,0000,0000*51
lng=-77.680809, lat=43.085792, altitude=163.40, speed=0.01, satellites=11, angle=206.4100, fixquality=2
$GPRMC,223728.400,A,4305.1474,N,07740.8486,W,0.00,206.41,270319,,,D*7E
$GPGGA,223728.600,4305.1474,N,07740.8486,W,2,11,0.95,163.4,M,-34.4,M,0000,0000*55
lng=-77.680809, lat=43.085792, altitude=163.40, speed=0.00, satellites=11, angle=206.4100, fixquality=2
$GPRMC,223728.800,A,4305.1474,N,07740.8486,W,0.01,206.41,270319,,,D*73
$GPGGA,223729.000,4305.1474,N,07740.8486,W,2,11,0.95,163.4,M,-34.4,M,0000,0000*52
lng=-77.680809, lat=43.085792, altitude=163.40, speed=0.01, satellites=11, angle=206.4100, fixquality=2
$GPRMC,223729.200,A,4305.1474,N,07740.8486,W,0.01,206.41,270319,,,D*78
$GPGGA,223729.400,4305.1474,N,07740.8486,W,2,11,0.95,163.4,M,-34.4,M,0000,0000*56
lng=-77.680809, lat=43.085792, altitude=163.40, speed=0.01, satellites=11, angle=206.4100, fixquality=2
$GPRMC,223729.600,A,4305.1474,N,07740.8486,W,0.01,206.41,270319,,,D*7C
$GPGGA,223729.800,4305.1474,N,07740.8486,W,2,11,0.95,163.4,M,-34.4,M,0000,0000*5A
lng=-77.680809, lat=43.085792, altitude=163.40, speed=0.01, satellites=11, angle=206.4100, fixquality=2
$GPRMC,223730.000,A,4305.1474,N,07740.8486,W,0.00,206.41,270319,,,D*73
$GPGGA,223730.200,4305.1474,N,07740.8486,W,2,11,0.95,163.4,M,-34.4,M,0000,0000*58
lng=-77.680809, lat=43.085792, altitude=163.40, speed=0.00, satellites=11, angle=206.4100, fixquality=2
$GPRMC,223730.400,A,4305.1474,N,07740.8486,W,0.01,206.41,270319,,,D*76
$GPGGA,223730.600,4305.1474,N,07740.8486,W,2,11,0.95,163.4,M,-34.4,M,0000,0000*5C
lng=-77.680809, lat=43.085792, altitude=163.40, speed=0.01, satellites=11, angle=206.4100, fixquality=2
$GPRMC,223730.800,A,4305.1474,N,07740.8486,W,0.01,206.41,270319,,,D*7A
$GPGGA,223731.000,4305.1474,N,07740.8486,W,2,11,0.95,163.4,M,-34.4,M,0000,0000*5B
lng=-77.680809, lat=43.085792, altitude=163.40, speed=0.01, satellites=11, angle=206.4100, fixquality=2
$GPRMC,223731.200,A,4305.1474,N,07740.8486,W,0.01,206.41,270319,,,D*71
$GPGGA,223731.400,4305.1474,N,07740.8486,W,2,11,0.95,163.4,M,-34.4,M,0000,0000*5F
lng=-77.680809, lat=43.085792, altitude=163.40, speed=0.01, satellites=11, angle=206.4100, fixquality=2
$GPRMC,223731.600,A,4305.1474,N,07740.8486,W,0.01,206.41,270319,,,D*75
$GPGGA,223731.800,4305.1474,N,07740.8486,W,2,11,0.95,163.4,M,-34.4,M,0000,0000*53
lng=-77.680809, lat=43.085792, altitude=163.40, speed=0.01, satellites=11, angle=206.4100, fixquality=2
$GPRMC,223732.000,A,4305.1474,N,07740.8486,W,0.01,206.41,270319,,,D*70
$GPGGA,223732.200,4305.1474,N,07740.8486,W,2,11,0.95,163.4,M,-34.4,M,0000,0000*5A
lng=-77.680809, lat=43.085792, altitude=163.40, speed=0.01, satellites=11, angle=206.4100, fixquality=2
$GPRMC,223732.400,A,4305.1474,N,07740.8486,W,0.01,206.41,270319,,,D*74
$GPGGA,223732.600,4305.1474,N,07740.8486,W,2,11,0.95,163.4,M,-34.4,M,0000,0000*5E
lng=-77.680809, lat=43.085792, altitude=163.40, speed=0.01, satellites=11, angle=206.4100, fixquality=2
$GPRMC,223732.800,A,4305.1474,N,07740.8486,W,0.01,206.41,270319,,,D*78
$GPGGA,223733.000,4305.1474,N,07740.8486,W,2,11,0.95,163.4,M,-34.4,M,0000,0000*59
lng=-77.680809, lat=43.085792, altitude=163.40, speed=0.01, satellites=11, angle=206.4100, fixquality=2
$GPRMC,223733.200,A,4305.1474,N,07740.8486,W,0.02,206.41,270319,,,D*70
$GPGGA,223733.400,4305.1474,N,07740.8486,W,2,11,0.95,163.4,M,-34.4,M,0000,0000*5D
lng=-77.680809, lat=43.085792, altitude=163.40, speed=0.02, satellites=11, angle=206.4100, fixquality=2
$GPRMC,223733.600,A,4305.1474,N,07740.8486,W,0.01,206.41,270319,,,D*77
$GPGGA,223733.800,4305.1474,N,07740.8486,W,2,11,0.95,163.4,M,-34.4,M,0000,0000*51
lng=-77.680809, lat=43.085792, altitude=163.40, speed=0.01, satellites=11, angle=206.4100, fixquality=2
$GPRMC,223734.000,A,4305.1474,N,07740.8486,W,0.01,206.41,270319,,,D*76
$GPGGA,223734.200,4305.1474,N,07740.8486,W,2,11,0.95,163.4,M,-34.4,M,0000,0000*5C
lng=-77.680809, lat=43.085792, altitude=163.40, speed=0.01, satellites=11, angle=206.4100, fixquality=2
$GPRMC,223734.400,A,4305.1474,N,07740.8486,W,0.01,206.41,270319,,,D*72
$GPGGA,223734.600,4305.1474,N,07740.8486,W,2,11,0.95,163.4,M,-34.4,M,0000,0000*58
lng=-77.680809, lat=43.085792, altitude=163.40, speed=0.01, satellites=11, angle=206.4100, fixquality=2
$GPRMC,223734.800,A,4305.1474,N,07740.8486,W,0.01,206.41,270319,,,D*7E
$GPGGA,223735.000,4305.1474,N,07740.8486,W,2,11,0.95,163.4,M,-34.4,M,0000,0000*5F
lng=-77.680809, lat=43.085792, altitude=163.40, speed=0.01, satellites=11, angle=206.4100, fixquality=2
$GPRMC,223735.200,A,4305.1474,N,07740.8486,W,0.00,206.41,270319,,,D*74
$GPGGA,223735.400,4305.1474,N,07740.8486,W,2,11,0.95,163.4,M,-34.4,M,0000,0000*5B
lng=-77.680809, lat=43.085792, altitude=163.40, speed=0.00, satellites=11, angle=206.4100, fixquality=2
$GPRMC,223735.600,A,4305.1474,N,07740.8486,W,0.01,206.41,270319,,,D*71
$GPGGA,223735.800,4305.1474,N,07740.8486,W,2,11,0.95,163.4,M,-34.4,M,0000,0000*57
lng=-77.680809, lat=43.085792, altitude=163.40, speed=0.01, satellites=11, angle=206.4100, fixquality=2
$GPRMC,223736.000,A,4305.1474,N,07740.8486,W,0.01,206.41,270319,,,D*74
$GPGGA,223736.200,4305.1474,N,07740.8486,W,2,11,0.95,163.4,M,-34.4,M,0000,0000*5E
lng=-77.680809, lat=43.085792, altitude=163.40, speed=0.01, satellites=11, angle=206.4100, fixquality=2
$GPRMC,223736.400,A,4305.1474,N,07740.8486,W,0.01,206.41,270319,,,D*70
$GPGGA,223736.600,4305.1474,N,07740.8486,W,2,11,0.95,163.4,M,-34.4,M,0000,0000*5A
lng=-77.680809, lat=43.085792, altitude=163.40, speed=0.01, satellites=11, angle=206.4100, fixquality=2
$GPRMC,223736.800,A,4305.1474,N,07740.8486,W,0.01,206.41,270319,,,D*7C
$GPGGA,223737.000,4305.1474,N,07740.8486,W,2,11,0.95,163.4,M,-34.4,M,0000,0000*5D
lng=-77.680809, lat=43.085792, altitude=163.40, speed=0.01, satellites=11, angle=206.4100, fixquality=2
$GPRMC,223737.200,A,4305.1474,N,07740.8486,W,0.01,206.41,270319,,,D*77
$GPGGA,223737.400,4305.1474,N,07740.8486,W,2,11,0.95,163.4,M,-34.4,M,0000,0000*59
lng=-77.680809, lat=43.085792, altitude=163.40, speed=0.01, satellites=11, angle=206.4100, fixquality=2
$GPRMC,223737.600,A,4305.1474,N,07740.8486,W,0.00,206.41,270319,,,D*72
$GPGGA,223737.800,4305.1474,N,07740.8486,W,2,11,0.95,163.4,M,-34.4,M,0000,0000*55
lng=-77.680809, lat=43.085792, altitude=163.40, speed=0.00, satellites=11, angle=206.4100, fixquality=2
$GPRMC,223738.000,A,4305.1474,N,07740.8486,W,0.01,206.41,270319,,,D*7A
$GPGGA,223738.200,4305.1474,N,07740.8486,W,2,11,0.95,163.4,M,-34.4,M,0000,0000*50
lng=-77.680809, lat=43.085792, altitude=163.40, speed=0.01, satellites=11, angle=206.4100, fixquality=2
$GPRMC,223738.400,A,4305.1474,N,07740.8486,W,0.01,206.41,270319,,,D*7E
$GPGGA,223738.600,4305.1474,N,07740.8486,W,2,11,0.95,163.4,M,-34.4,M,0000,0000*54
lng=-77.680809, lat=43.085792, altitude=163.40, speed=0.01, satellites=11, angle=206.4100, fixquality=2
$GPRMC,223738.800,A,4305.1474,N,07740.8486,W,0.01,206.41,270319,,,D*72
$GPGGA,223739.000,4305.1474,N,07740.8486,W,2,11,0.95,163.4,M,-34.4,M,0000,0000*53
lng=-77.680809, lat=43.085792, altitude=163.40, speed=0.01, satellites=11, angle=206.4100, fixquality=2
