Vers 57
USE_SERIAL_FEEDBACK=false
DEVELOPMENT_MODE=false
USE_RMC_ONLY=false

$GPRMC,205938.400,A,4305.1632,N,07740.8309,W,0.01,180.13,260319,,,D*7F
$GPGGA,205938.600,4305.1632,N,07740.8309,W,2,10,0.93,163.8,M,-34.4,M,0000,0000*55
lng=-77.680519, lat=43.086051, altitude=163.80, speed=0.01, satellites=10, angle=180.1300, fixquality=2
$GPRMC,205938.800,A,4305.1632,N,07740.8309,W,0.02,180.13,260319,,,D*70
$GPGGA,205939.000,4305.1632,N,07740.8309,W,2,10,0.94,163.8,M,-34.4,M,0000,0000*55
lng=-77.680519, lat=43.086051, altitude=163.80, speed=0.02, satellites=10, angle=180.1300, fixquality=2
$GPRMC,205939.200,A,4305.1632,N,07740.8309,W,0.02,180.13,260319,,,D*7B
$GPGGA,205939.400,4305.1632,N,07740.8309,W,2,10,0.93,163.8,M,-34.4,M,0000,0000*56
lng=-77.680519, lat=43.086051, altitude=163.80, speed=0.02, satellites=10, angle=180.1300, fixquality=2
$GPRMC,205939.600,A,4305.1632,N,07740.8309,W,0.01,180.13,260319,,,D*7C
$GPGGA,205939.800,4305.1632,N,07740.8309,W,2,10,0.94,163.8,M,-34.4,M,0000,0000*5D
lng=-77.680519, lat=43.086051, altitude=163.80, speed=0.01, satellites=10, angle=180.1300, fixquality=2
$GPRMC,205940.000,A,4305.1632,N,07740.8309,W,0.02,180.13,260319,,,D*77
$GPGGA,205940.200,4305.1632,N,07740.8309,W,2,10,0.94,163.8,M,-34.4,M,0000,0000*59
lng=-77.680519, lat=43.086051, altitude=163.80, speed=0.02, satellites=10, angle=180.1300, fixquality=2
$GPRMC,205940.400,A,4305.1632,N,07740.8309,W,0.01,180.13,260319,,,D*70
$GPGGA,205940.600,4305.1632,N,07740.8309,W,2,10,0.93,163.8,M,-34.4,M,0000,0000*5A
lng=-77.680519, lat=43.086051, altitude=163.80, speed=0.01, satellites=10, angle=180.1300, fixquality=2
$GPRMC,205940.800,A,4305.1632,N,07740.8309,W,0.01,180.13,260319,,,D*7C
$GPGGA,205941.000,4305.1632,N,07740.8309,W,2,10,0.94,163.8,M,-34.4,M,0000,0000*5A
lng=-77.680519, lat=43.086051, altitude=163.80, speed=0.01, satellites=10, angle=180.1300, fixquality=2
$GPRMC,205941.200,A,4305.1632,N,07740.8309,W,0.01,180.13,260319,,,D*77
$GPGGA,205941.400,4305.1632,N,07740.8309,W,2,10,0.94,163.8,M,-34.4,M,0000,0000*5E
lng=-77.680519, lat=43.086051, altitude=163.80, speed=0.01, satellites=10, angle=180.1300, fixquality=2
$GPRMC,205941.600,A,4305.1632,N,07740.8309,W,0.01,180.13,260319,,,D*73
$GPGGA,205941.800,4305.1632,N,07740.8309,W,2,10,0.94,163.8,M,-34.4,M,0000,0000*52
lng=-77.680519, lat=43.086051, altitude=163.80, speed=0.01, satellites=10, angle=180.1300, fixquality=2
$GPRMC,205942.000,A,4305.1632,N,07740.8309,W,0.01,180.13,260319,,,D*76
$GPGGA,205942.200,4305.1632,N,07740.8309,W,2,10,0.94,163.8,M,-34.4,M,0000,0000*5B
lng=-77.680519, lat=43.086051, altitude=163.80, speed=0.01, satellites=10, angle=180.1300, fixquality=2
$GPRMC,205942.400,A,4305.1632,N,07740.8309,W,0.00,180.13,260319,,,D*73
$GPGGA,205942.600,4305.1632,N,07740.8309,W,2,10,0.94,163.8,M,-34.4,M,0000,0000*5F
lng=-77.680519, lat=43.086051, altitude=163.80, speed=0.00, satellites=10, angle=180.1300, fixquality=2
$GPRMC,205942.800,A,4305.1632,N,07740.8309,W,0.01,180.13,260319,,,D*7E
$GPGGA,205943.000,4305.1632,N,07740.8309,W,2,10,0.94,163.8,M,-34.4,M,0000,0000*58
lng=-77.680519, lat=43.086051, altitude=163.80, speed=0.01, satellites=10, angle=180.1300, fixquality=2
$GPRMC,205943.200,A,4305.1632,N,07740.8309,W,0.01,180.13,260319,,,D*75
$GPGGA,205943.400,4305.1632,N,07740.8309,W,2,10,0.94,163.8,M,-34.4,M,0000,0000*5C
lng=-77.680519, lat=43.086051, altitude=163.80, speed=0.01, satellites=10, angle=180.1300, fixquality=2
$GPRMC,205943.600,A,4305.1632,N,07740.8309,W,0.01,180.13,260319,,,D*71
$GPGGA,205943.800,4305.1632,N,07740.8309,W,2,10,0.94,163.8,M,-34.4,M,0000,0000*50
lng=-77.680519, lat=43.086051, altitude=163.80, speed=0.01, satellites=10, angle=180.1300, fixquality=2
$GPRMC,205944.000,A,4305.1632,N,07740.8309,W,0.01,180.13,260319,,,D*70
$GPGGA,205944.200,4305.1632,N,07740.8309,W,2,10,0.94,163.8,M,-34.4,M,0000,0000*5D
lng=-77.680519, lat=43.086051, altitude=163.80, speed=0.01, satellites=10, angle=180.1300, fixquality=2
$GPRMC,205944.400,A,4305.1632,N,07740.8309,W,0.00,180.13,260319,,,D*75
$GPGGA,205944.600,4305.1632,N,07740.8309,W,2,10,0.94,163.8,M,-34.4,M,0000,0000*59
lng=-77.680519, lat=43.086051, altitude=163.80, speed=0.00, satellites=10, angle=180.1300, fixquality=2
$GPRMC,205944.800,A,4305.1632,N,07740.8309,W,0.01,180.13,260319,,,D*78
$GPGGA,205945.000,4305.1632,N,07740.8309,W,2,10,0.94,163.8,M,-34.4,M,0000,0000*5E
lng=-77.680519, lat=43.086051, altitude=163.80, speed=0.01, satellites=10, angle=180.1300, fixquality=2
$GPRMC,205945.200,A,4305.1632,N,07740.8309,W,0.01,180.13,260319,,,D*73
$GPGGA,205945.400,4305.1632,N,07740.8309,W,2,10,0.94,163.8,M,-34.4,M,0000,0000*5A
lng=-77.680519, lat=43.086051, altitude=163.80, speed=0.01, satellites=10, angle=180.1300, fixquality=2
$GPRMC,205945.600,A,4305.1632,N,07740.8309,W,0.01,180.13,260319,,,D*77
$GPGGA,205945.800,4305.1632,N,07740.8309,W,2,10,0.94,163.8,M,-34.4,M,0000,0000*56
lng=-77.680519, lat=43.086051, altitude=163.80, speed=0.01, satellites=10, angle=180.1300, fixquality=2
$GPRMC,205946.000,A,4305.1632,N,07740.8309,W,0.01,180.13,260319,,,D*72
$GPGGA,205946.200,4305.1632,N,07740.8309,W,2,10,0.94,163.8,M,-34.4,M,0000,0000*5F
lng=-77.680519, lat=43.086051, altitude=163.80, speed=0.01, satellites=10, angle=180.1300, fixquality=2
$GPRMC,205946.400,A,4305.1632,N,07740.8309,W,0.00,180.13,260319,,,D*77
$GPGGA,205946.600,4305.1632,N,07740.8309,W,2,10,0.94,163.8,M,-34.4,M,0000,0000*5B
lng=-77.680519, lat=43.086051, altitude=163.80, speed=0.00, satellites=10, angle=180.1300, fixquality=2
$GPRMC,205946.800,A,4305.1632,N,07740.8309,W,0.01,180.13,260319,,,D*7A
$GPGGA,205947.000,4305.1632,N,07740.8309,W,2,10,0.94,163.8,M,-34.4,M,0000,0000*5C
lng=-77.680519, lat=43.086051, altitude=163.80, speed=0.01, satellites=10, angle=180.1300, fixquality=2
$GPRMC,205947.200,A,4305.1632,N,07740.8309,W,0.01,180.13,260319,,,D*71
$GPGGA,205947.400,4305.1632,N,07740.8309,W,2,10,0.94,163.8,M,-34.4,M,0000,0000*58
lng=-77.680519, lat=43.086051, altitude=163.80, speed=0.01, satellites=10, angle=180.1300, fixquality=2
$GPRMC,205947.600,A,4305.1632,N,07740.8309,W,0.00,180.13,260319,,,D*74
$GPGGA,205947.800,4305.1632,N,07740.8309,W,2,10,0.94,163.8,M,-34.4,M,0000,0000*54
lng=-77.680519, lat=43.086051, altitude=163.80, speed=0.00, satellites=10, angle=180.1300, fixquality=2
$GPRMC,205948.000,A,4305.1632,N,07740.8309,W,0.01,180.13,260319,,,D*7C
$GPGGA,205948.200,4305.1632,N,07740.8309,W,2,10,0.94,163.8,M,-34.4,M,0000,0000*51
lng=-77.680519, lat=43.086051, altitude=163.80, speed=0.01, satellites=10, angle=180.1300, fixquality=2
$GPRMC,205948.400,A,4305.1632,N,07740.8309,W,0.01,180.13,260319,,,D*78
$GPGGA,205948.600,4305.1632,N,07740.8309,W,2,10,0.94,163.8,M,-34.4,M,0000,0000*55
lng=-77.680519, lat=43.086051, altitude=163.80, speed=0.01, satellites=10, angle=180.1300, fixquality=2
$GPRMC,205948.800,A,4305.1632,N,07740.8309,W,0.00,180.13,260319,,,D*75
$GPGGA,205949.000,4305.1632,N,07740.8309,W,2,10,0.94,163.8,M,-34.4,M,0000,0000*52
lng=-77.680519, lat=43.086051, altitude=163.80, speed=0.00, satellites=10, angle=180.1300, fixquality=2
$GPRMC,205949.200,A,4305.1632,N,07740.8309,W,0.00,180.13,260319,,,D*7E
$GPGGA,205949.400,4305.1632,N,07740.8309,W,2,10,0.94,163.8,M,-34.4,M,0000,0000*56
lng=-77.680519, lat=43.086051, altitude=163.80, speed=0.00, satellites=10, angle=180.1300, fixquality=2
$GPRMC,205949.600,A,4305.1632,N,07740.8309,W,0.01,180.13,260319,,,D*7B
$GPGGA,205949.800,4305.1632,N,07740.8309,W,2,10,0.94,163.8,M,-34.4,M,0000,0000*5A
lng=-77.680519, lat=43.086051, altitude=163.80, speed=0.01, satellites=10, angle=180.1300, fixquality=2
$GPRMC,205950.000,A,4305.1632,N,07740.8309,W,0.00,180.13,260319,,,D*74
$GPGGA,205950.200,4305.1632,N,07740.8309,W,2,10,0.94,163.8,M,-34.4,M,0000,0000*58
lng=-77.680519, lat=43.086051, altitude=163.80, speed=0.00, satellites=10, angle=180.1300, fixquality=2
$GPRMC,205950.400,A,4305.1632,N,07740.8309,W,0.00,180.13,260319,,,D*70
$GPGGA,205950.600,4305.1632,N,07740.8309,W,2,10,0.94,163.8,M,-34.4,M,0000,0000*5C
lng=-77.680519, lat=43.086051, altitude=163.80, speed=0.00, satellites=10, angle=180.1300, fixquality=2
$GPRMC,205950.800,A,4305.1632,N,07740.8309,W,0.00,180.13,260319,,,D*7C
$GPGGA,205951.000,4305.1632,N,07740.8309,W,2,10,0.94,163.8,M,-34.4,M,0000,0000*5B
lng=-77.680519, lat=43.086051, altitude=163.80, speed=0.00, satellites=10, angle=180.1300, fixquality=2
$GPRMC,205951.200,A,4305.1632,N,07740.8309,W,0.00,180.13,260319,,,D*77
$GPGGA,205951.400,4305.1632,N,07740.8309,W,2,10,0.94,163.8,M,-34.4,M,0000,0000*5F
lng=-77.680519, lat=43.086051, altitude=163.80, speed=0.00, satellites=10, angle=180.1300, fixquality=2
$GPRMC,205951.600,A,4305.1632,N,07740.8309,W,0.00,180.13,260319,,,D*73
$GPGGA,205951.800,4305.1632,N,07740.8309,W,2,10,0.94,163.8,M,-34.4,M,0000,0000*53
lng=-77.680519, lat=43.086051, altitude=163.80, speed=0.00, satellites=10, angle=180.1300, fixquality=2
$GPRMC,205952.000,A,4305.1632,N,07740.8309,W,0.01,180.13,260319,,,D*77
$GPGGA,205952.200,4305.1632,N,07740.8309,W,2,10,0.94,163.8,M,-34.4,M,0000,0000*5A
lng=-77.680519, lat=43.086051, altitude=163.80, speed=0.01, satellites=10, angle=180.1300, fixquality=2
$GPRMC,205952.400,A,4305.1632,N,07740.8309,W,0.01,180.13,260319,,,D*73
$GPGGA,205952.600,4305.1632,N,07740.8309,W,2,10,0.94,163.8,M,-34.4,M,0000,0000*5E
lng=-77.680519, lat=43.086051, altitude=163.80, speed=0.01, satellites=10, angle=180.1300, fixquality=2
$GPRMC,205952.800,A,4305.1632,N,07740.8309,W,0.01,180.13,260319,,,D*7F
$GPGGA,205953.000,4305.1632,N,07740.8309,W,2,10,0.94,163.8,M,-34.4,M,0000,0000*59
lng=-77.680519, lat=43.086051, altitude=163.80, speed=0.01, satellites=10, angle=180.1300, fixquality=2
$GPRMC,205953.200,A,4305.1632,N,07740.8309,W,0.00,180.13,260319,,,D*75
$GPGGA,205953.400,4305.1632,N,07740.8309,W,2,10,0.94,163.8,M,-34.4,M,0000,0000*5D
lng=-77.680519, lat=43.086051, altitude=163.80, speed=0.00, satellites=10, angle=180.1300, fixquality=2
$GPRMC,205953.600,A,4305.1632,N,07740.8309,W,0.00,180.13,260319,,,D*71
$GPGGA,205953.800,4305.1632,N,07740.8309,W,2,10,0.94,163.8,M,-34.4,M,0000,0000*51
lng=-77.680519, lat=43.086051, altitude=163.80, speed=0.00, satellites=10, angle=180.1300, fixquality=2
$GPRMC,205954.000,A,4305.1632,N,07740.8309,W,0.01,180.13,260319,,,D*71
$GPGGA,205954.200,4305.1632,N,07740.8309,W,2,10,0.94,163.8,M,-34.4,M,0000,0000*5C
lng=-77.680519, lat=43.086051, altitude=163.80, speed=0.01, satellites=10, angle=180.1300, fixquality=2
$GPRMC,205954.400,A,4305.1632,N,07740.8309,W,0.00,180.13,260319,,,D*74
$GPGGA,205954.600,4305.1632,N,07740.8309,W,2,10,0.94,163.8,M,-34.4,M,0000,0000*58
lng=-77.680519, lat=43.086051, altitude=163.80, speed=0.00, satellites=10, angle=180.1300, fixquality=2
$GPRMC,205954.800,A,4305.1632,N,07740.8309,W,0.01,180.13,260319,,,D*79
$GPGGA,205955.000,4305.1632,N,07740.8309,W,2,09,1.04,163.8,M,-34.4,M,0000,0000*5F
lng=-77.680519, lat=43.086051, altitude=163.80, speed=0.01, satellites=10, angle=180.1300, fixquality=2
$GPRMC,205955.200,A,4305.1632,N,07740.8309,W,0.01,180.13,260319,,,D*72
$GPGGA,205955.400,4305.1632,N,07740.8309,W,2,10,0.94,163.8,M,-34.4,M,0000,0000*5B
lng=-77.680519, lat=43.086051, altitude=163.80, speed=0.01, satellites=9, angle=180.1300, fixquality=2
$GPRMC,205955.600,A,4305.1632,N,07740.8309,W,0.01,180.13,260319,,,D*76
$GPGGA,205955.800,4305.1632,N,07740.8309,W,2,10,0.94,163.8,M,-34.4,M,0000,0000*57
lng=-77.680519, lat=43.086051, altitude=163.80, speed=0.01, satellites=10, angle=180.1300, fixquality=2
$GPRMC,205956.000,A,4305.1632,N,07740.8309,W,0.00,180.13,260319,,,D*72
$GPGGA,205956.200,4305.1632,N,07740.8309,W,2,10,0.94,163.8,M,-34.4,M,0000,0000*5E
lng=-77.680519, lat=43.086051, altitude=163.80, speed=0.00, satellites=10, angle=180.1300, fixquality=2
$GPRMC,205956.400,A,4305.1632,N,07740.8309,W,0.00,180.13,260319,,,D*76
$GPGGA,205956.600,4305.1632,N,07740.8309,W,2,10,0.94,163.8,M,-34.4,M,0000,0000*5A
lng=-77.680519, lat=43.086051, altitude=163.80, speed=0.00, satellites=10, angle=180.1300, fixquality=2
$GPRMC,205956.800,A,4305.1632,N,07740.8309,W,0.00,180.13,260319,,,D*7A
$GPGGA,205957.000,4305.1632,N,07740.8309,W,2,10,0.94,163.8,M,-34.4,M,0000,0000*5D
lng=-77.680519, lat=43.086051, altitude=163.80, speed=0.00, satellites=10, angle=180.1300, fixquality=2
$GPRMC,205957.200,A,4305.1632,N,07740.8309,W,0.00,180.13,260319,,,D*71
$GPGGA,205957.400,4305.1632,N,07740.8309,W,2,10,0.94,163.8,M,-34.4,M,0000,0000*59
lng=-77.680519, lat=43.086051, altitude=163.80, speed=0.00, satellites=10, angle=180.1300, fixquality=2
$GPRMC,205957.600,A,4305.1632,N,07740.8309,W,0.01,180.13,260319,,,D*74
$GPGGA,205957.800,4305.1632,N,07740.8309,W,2,10,0.94,163.8,M,-34.4,M,0000,0000*55
lng=-77.680519, lat=43.086051, altitude=163.80, speed=0.01, satellites=10, angle=180.1300, fixquality=2
$GPRMC,205958.000,A,4305.1632,N,07740.8309,W,0.00,180.13,260319,,,D*7C
$GPGGA,205958.200,4305.1632,N,07740.8309,W,2,10,0.94,163.8,M,-34.4,M,0000,0000*50
lng=-77.680519, lat=43.086051, altitude=163.80, speed=0.00, satellites=10, angle=180.1300, fixquality=2
$GPRMC,205958.400,A,4305.1632,N,07740.8309,W,0.00,180.13,260319,,,D*78
$GPGGA,205958.600,4305.1632,N,07740.8309,W,2,10,0.94,163.8,M,-34.4,M,0000,0000*54
lng=-77.680519, lat=43.086051, altitude=163.80, speed=0.00, satellites=10, angle=180.1300, fixquality=2
$GPRMC,205958.800,A,4305.1632,N,07740.8309,W,0.01,180.13,260319,,,D*75
$GPGGA,205959.000,4305.1632,N,07740.8309,W,2,10,0.94,163.8,M,-34.4,M,0000,0000*53
lng=-77.680519, lat=43.086051, altitude=163.80, speed=0.01, satellites=10, angle=180.1300, fixquality=2
$GPRMC,205959.200,A,4305.1632,N,07740.8309,W,0.01,180.13,260319,,,D*7E
$GPGGA,205959.400,4305.1632,N,07740.8309,W,2,10,0.94,163.8,M,-34.4,M,0000,0000*57
lng=-77.680519, lat=43.086051, altitude=163.80, speed=0.01, satellites=10, angle=180.1300, fixquality=2
$GPRMC,205959.600,A,4305.1632,N,07740.8309,W,0.00,180.13,260319,,,D*7B
$GPGGA,205959.800,4305.1632,N,07740.8309,W,2,10,0.94,163.8,M,-34.4,M,0000,0000*5B
lng=-77.680519, lat=43.086051, altitude=163.80, speed=0.00, satellites=10, angle=180.1300, fixquality=2
$GPRMC,210000.000,A,4305.1632,N,07740.8309,W,0.01,180.13,260319,,,D*7D
$GPGGA,210000.200,4305.1632,N,07740.8309,W,2,10,0.94,163.8,M,-34.4,M,0000,0000*50
lng=-77.680519, lat=43.086051, altitude=163.80, speed=0.01, satellites=10, angle=180.1300, fixquality=2
$GPRMC,210000.400,A,4305.1632,N,07740.8310,W,0.00,180.13,260319,,,D*70
$GPGGA,210000.600,4305.1632,N,07740.8310,W,2,10,0.94,163.8,M,-34.4,M,0000,0000*5C
lng=-77.680519, lat=43.086051, altitude=163.80, speed=0.00, satellites=10, angle=180.1300, fixquality=2
$GPRMC,210000.800,A,4305.1632,N,07740.8310,W,0.01,180.13,260319,,,D*7D
$GPGGA,210001.000,4305.1632,N,07740.8310,W,2,10,0.94,163.8,M,-34.4,M,0000,0000*5B
lng=-77.680519, lat=43.086051, altitude=163.80, speed=0.01, satellites=10, angle=180.1300, fixquality=2
$GPRMC,210001.200,A,4305.1632,N,07740.8310,W,0.00,180.13,260319,,,D*77
$GPGGA,210001.400,4305.1632,N,07740.8310,W,2,10,0.94,163.8,M,-34.4,M,0000,0000*5F
lng=-77.680519, lat=43.086051, altitude=163.80, speed=0.00, satellites=10, angle=180.1300, fixquality=2
$GPRMC,210001.600,A,4305.1632,N,07740.8310,W,0.00,180.13,260319,,,D*73
$GPGGA,210001.800,4305.1632,N,07740.8310,W,2,10,0.94,163.8,M,-34.4,M,0000,0000*53
lng=-77.680519, lat=43.086051, altitude=163.80, speed=0.00, satellites=10, angle=180.1300, fixquality=2
$GPRMC,210002.000,A,4305.1632,N,07740.8310,W,0.00,180.13,260319,,,D*76
$GPGGA,210002.200,4305.1632,N,07740.8310,W,2,10,0.94,163.8,M,-34.4,M,0000,0000*5A
lng=-77.680519, lat=43.086051, altitude=163.80, speed=0.00, satellites=10, angle=180.1300, fixquality=2
$GPRMC,210002.400,A,4305.1632,N,07740.8310,W,0.01,180.13,260319,,,D*73
$GPGGA,210002.600,4305.1632,N,07740.8310,W,2,10,0.94,163.8,M,-34.4,M,0000,0000*5E
lng=-77.680519, lat=43.086051, altitude=163.80, speed=0.01, satellites=10, angle=180.1300, fixquality=2
$GPRMC,210002.800,A,4305.1632,N,07740.8310,W,0.01,180.13,260319,,,D*7F
$GPGGA,210003.000,4305.1632,N,07740.8310,W,2,10,0.94,163.8,M,-34.4,M,0000,0000*59
lng=-77.680519, lat=43.086051, altitude=163.80, speed=0.01, satellites=10, angle=180.1300, fixquality=2
$GPRMC,210003.200,A,4305.1632,N,07740.8310,W,0.00,180.13,260319,,,D*75
$GPGGA,210003.400,4305.1632,N,07740.8310,W,2,10,0.94,163.8,M,-34.4,M,0000,0000*5D
lng=-77.680519, lat=43.086051, altitude=163.80, speed=0.00, satellites=10, angle=180.1300, fixquality=2
$GPRMC,210003.600,A,4305.1632,N,07740.8310,W,0.01,180.13,260319,,,D*70
$GPGGA,210003.800,4305.1632,N,07740.8310,W,2,10,0.94,163.8,M,-34.4,M,0000,0000*51
lng=-77.680519, lat=43.086051, altitude=163.80, speed=0.01, satellites=10, angle=180.1300, fixquality=2
$GPRMC,210004.000,A,4305.1632,N,07740.8310,W,0.01,180.13,260319,,,D*71
$GPGGA,210004.200,4305.1632,N,07740.8310,W,2,10,0.94,163.8,M,-34.4,M,0000,0000*5C
lng=-77.680519, lat=43.086051, altitude=163.80, speed=0.01, satellites=10, angle=180.1300, fixquality=2
$GPRMC,210004.400,A,4305.1632,N,07740.8310,W,0.00,180.13,260319,,,D*74
$GPGGA,210004.600,4305.1632,N,07740.8310,W,2,10,0.94,163.8,M,-34.4,M,0000,0000*58
lng=-77.680519, lat=43.086051, altitude=163.80, speed=0.00, satellites=10, angle=180.1300, fixquality=2
$GPRMC,210004.800,A,4305.1632,N,07740.8310,W,0.00,180.13,260319,,,D*78
$GPGGA,210005.000,4305.1632,N,07740.8310,W,2,10,0.94,163.8,M,-34.4,M,0000,0000*5F
lng=-77.680519, lat=43.086051, altitude=163.80, speed=0.00, satellites=10, angle=180.1300, fixquality=2
$GPRMC,210005.200,A,4305.1632,N,07740.8310,W,0.01,180.13,260319,,,D*72
$GPGGA,210005.400,4305.1632,N,07740.8310,W,2,10,0.94,163.8,M,-34.4,M,0000,0000*5B
lng=-77.680519, lat=43.086051, altitude=163.80, speed=0.01, satellites=10, angle=180.1300, fixquality=2
$GPRMC,210005.600,A,4305.1632,N,07740.8310,W,0.01,180.13,260319,,,D*76
$GPGGA,210005.800,4305.1632,N,07740.8310,W,2,10,0.94,163.8,M,-34.4,M,0000,0000*57
lng=-77.680519, lat=43.086051, altitude=163.80, speed=0.01, satellites=10, angle=180.1300, fixquality=2
$GPRMC,210006.000,A,4305.1632,N,07740.8310,W,0.03,180.13,260319,,,D*71
$GPGGA,210006.200,4305.1632,N,07740.8310,W,2,10,0.94,163.8,M,-34.4,M,0000,0000*5E
lng=-77.680519, lat=43.086051, altitude=163.80, speed=0.03, satellites=10, angle=180.1300, fixquality=2
$GPRMC,210006.400,A,4305.1632,N,07740.8310,W,0.05,180.13,260319,,,D*73
$GPGGA,210006.600,4305.1632,N,07740.8310,W,2,10,0.94,163.8,M,-34.4,M,0000,0000*5A
lng=-77.680519, lat=43.086051, altitude=163.80, speed=0.05, satellites=10, angle=180.1300, fixquality=2
$GPRMC,210006.800,A,4305.1632,N,07740.8310,W,0.41,180.13,260319,,,D*7F
$GPGGA,210007.000,4305.1632,N,07740.8310,W,2,10,0.94,163.8,M,-34.4,M,0000,0000*5D
lng=-77.680519, lat=43.086051, altitude=163.80, speed=0.41, satellites=10, angle=180.1300, fixquality=2
$GPRMC,210007.200,A,4305.1632,N,07740.8310,W,1.43,180.13,260319,,,D*77
$GPGGA,210007.400,4305.1633,N,07740.8310,W,2,10,0.94,163.8,M,-34.4,M,0000,0000*58
lng=-77.680519, lat=43.086051, altitude=163.80, speed=1.43, satellites=10, angle=180.1300, fixquality=2
$GPRMC,210007.600,A,4305.1634,N,07740.8310,W,1.70,356.46,260319,,,D*7C
$GPGGA,210007.800,4305.1635,N,07740.8310,W,2,10,0.94,163.8,M,-34.4,M,0000,0000*52
lng=-77.680519, lat=43.086059, altitude=163.80, speed=1.70, satellites=10, angle=356.4600, fixquality=2
$GPRMC,210008.000,A,4305.1636,N,07740.8311,W,1.93,1.55,260319,,,D*78
$GPGGA,210008.200,4305.1636,N,07740.8311,W,2,10,0.94,163.8,M,-34.4,M,0000,0000*55
lng=-77.680519, lat=43.086059, altitude=163.80, speed=1.93, satellites=10, angle=1.5500, fixquality=2
$GPRMC,210008.400,A,4305.1637,N,07740.8311,W,1.66,3.15,260319,,,D*71
$GPGGA,210008.600,4305.1638,N,07740.8311,W,2,10,0.94,163.8,M,-34.4,M,0000,0000*5F
lng=-77.680519, lat=43.086059, altitude=163.80, speed=1.66, satellites=10, angle=3.1500, fixquality=2
$GPRMC,210008.800,A,4305.1639,N,07740.8311,W,1.59,11.05,260319,,,D*4D
$GPGGA,210009.000,4305.1640,N,07740.8311,W,2,10,0.94,163.7,M,-34.4,M,0000,0000*58
lng=-77.680519, lat=43.086067, altitude=163.80, speed=1.59, satellites=10, angle=11.0500, fixquality=2
$GPRMC,210009.200,A,4305.1641,N,07740.8311,W,1.58,18.37,260319,,,D*40
$GPGGA,210009.400,4305.1641,N,07740.8311,W,2,10,0.90,163.7,M,-34.4,M,0000,0000*59
lng=-77.680519, lat=43.086067, altitude=163.70, speed=1.58, satellites=10, angle=18.3700, fixquality=2
$GPRMC,210009.600,A,4305.1642,N,07740.8311,W,1.56,18.58,260319,,,D*40
$GPGGA,210009.800,4305.1643,N,07740.8310,W,2,10,0.90,163.7,M,-34.4,M,0000,0000*56
lng=-77.680519, lat=43.086067, altitude=163.70, speed=1.56, satellites=10, angle=18.5800, fixquality=2
$GPRMC,210010.000,A,4305.1644,N,07740.8310,W,1.57,23.18,260319,,,D*44
$GPGGA,210010.200,4305.1645,N,07740.8309,W,2,10,0.90,163.7,M,-34.4,M,0000,0000*5A
lng=-77.680519, lat=43.086074, altitude=163.70, speed=1.57, satellites=10, angle=23.1800, fixquality=2
$GPRMC,210010.400,A,4305.1646,N,07740.8309,W,1.62,17.43,260319,,,D*45
$GPGGA,210010.600,4305.1646,N,07740.8309,W,2,10,0.90,163.8,M,-34.4,M,0000,0000*52
lng=-77.680519, lat=43.086074, altitude=163.70, speed=1.62, satellites=10, angle=17.4300, fixquality=2
$GPRMC,210010.800,A,4305.1647,N,07740.8309,W,1.39,17.46,260319,,,D*43
$GPGGA,210011.000,4305.1648,N,07740.8309,W,2,10,0.90,163.8,M,-34.4,M,0000,0000*5B
lng=-77.680519, lat=43.086074, altitude=163.80, speed=1.39, satellites=10, angle=17.4600, fixquality=2
$GPRMC,210011.200,A,4305.1648,N,07740.8309,W,0.99,24.62,260319,,,D*4A
$GPGGA,210011.400,4305.1648,N,07740.8309,W,2,10,0.90,163.8,M,-34.4,M,0000,0000*5F
lng=-77.680519, lat=43.086082, altitude=163.80, speed=0.99, satellites=10, angle=24.6200, fixquality=2
$GPRMC,210011.600,A,4305.1649,N,07740.8309,W,0.89,31.74,260319,,,D*4D
$GPGGA,210011.800,4305.1649,N,07740.8308,W,2,09,1.06,163.8,M,-34.4,M,0000,0000*55
lng=-77.680519, lat=43.086082, altitude=163.80, speed=0.89, satellites=10, angle=31.7400, fixquality=2
$GPRMC,210012.000,A,4305.1649,N,07740.8307,W,0.88,47.49,260319,,,D*48
$GPGGA,210012.200,4305.1649,N,07740.8307,W,2,10,0.90,163.8,M,-34.4,M,0000,0000*55
lng=-77.680511, lat=43.086082, altitude=163.80, speed=0.88, satellites=9, angle=47.4900, fixquality=2
$GPRMC,210012.400,A,4305.1650,N,07740.8307,W,1.06,38.34,260319,,,D*41
$GPGGA,210012.600,4305.1650,N,07740.8306,W,2,10,0.90,163.7,M,-34.4,M,0000,0000*57
lng=-77.680511, lat=43.086082, altitude=163.80, speed=1.06, satellites=10, angle=38.3400, fixquality=2
$GPRMC,210012.800,A,4305.1650,N,07740.8306,W,1.18,46.14,260319,,,D*48
$GPGGA,210013.000,4305.1651,N,07740.8305,W,2,10,0.90,163.7,M,-34.4,M,0000,0000*52
lng=-77.680511, lat=43.086082, altitude=163.70, speed=1.18, satellites=10, angle=46.1400, fixquality=2
$GPRMC,210013.200,A,4305.1651,N,07740.8304,W,1.51,64.60,260319,,,D*4E
$GPGGA,210013.400,4305.1651,N,07740.8303,W,2,09,1.06,163.6,M,-34.4,M,0000,0000*57
lng=-77.680511, lat=43.086082, altitude=163.70, speed=1.51, satellites=10, angle=64.6000, fixquality=2
$GPRMC,210013.600,A,4305.1652,N,07740.8303,W,1.49,61.55,260319,,,D*44
$GPGGA,210013.800,4305.1652,N,07740.8302,W,2,10,0.90,163.6,M,-34.4,M,0000,0000*5F
lng=-77.680503, lat=43.086082, altitude=163.60, speed=1.49, satellites=9, angle=61.5500, fixquality=2
$GPRMC,210014.000,A,4305.1652,N,07740.8301,W,0.64,68.93,260319,,,D*4A
$GPGGA,210014.200,4305.1652,N,07740.8301,W,2,09,1.06,163.5,M,-34.4,M,0000,0000*54
lng=-77.680503, lat=43.086082, altitude=163.60, speed=0.64, satellites=10, angle=68.9300, fixquality=2
$GPRMC,210014.400,A,4305.1652,N,07740.8301,W,0.16,68.93,260319,,,D*4B
$GPGGA,210014.600,4305.1652,N,07740.8302,W,2,09,1.06,163.5,M,-34.4,M,0000,0000*53
lng=-77.680503, lat=43.086082, altitude=163.50, speed=0.16, satellites=9, angle=68.9300, fixquality=2
$GPRMC,210014.800,A,4305.1652,N,07740.8302,W,0.23,68.93,260319,,,D*42
$GPGGA,210015.000,4305.1652,N,07740.8302,W,2,10,0.90,163.6,M,-34.4,M,0000,0000*51
lng=-77.680503, lat=43.086082, altitude=163.50, speed=0.23, satellites=9, angle=68.9300, fixquality=2
$GPRMC,210015.200,A,4305.1652,N,07740.8302,W,0.35,68.93,260319,,,D*4E
$GPGGA,210015.400,4305.1651,N,07740.8303,W,2,09,1.06,163.6,M,-34.4,M,0000,0000*51
lng=-77.680503, lat=43.086082, altitude=163.60, speed=0.35, satellites=10, angle=68.9300, fixquality=2
$GPRMC,210015.600,A,4305.1651,N,07740.8303,W,0.82,235.68,260319,,,D*7A
$GPGGA,210015.800,4305.1651,N,07740.8304,W,2,09,1.06,163.6,M,-34.4,M,0000,0000*5A
lng=-77.680503, lat=43.086082, altitude=163.60, speed=0.82, satellites=9, angle=235.6800, fixquality=2
$GPRMC,210016.000,A,4305.1650,N,07740.8305,W,1.70,241.13,260319,,,D*7B
$GPGGA,210016.200,4305.1650,N,07740.8307,W,2,10,0.90,163.6,M,-34.4,M,0000,0000*57
lng=-77.680511, lat=43.086082, altitude=163.60, speed=1.70, satellites=9, angle=241.1300, fixquality=2
$GPRMC,210016.400,A,4305.1649,N,07740.8308,W,2.13,245.59,260319,,,D*76
$GPGGA,210016.600,4305.1649,N,07740.8310,W,2,10,0.90,163.7,M,-34.4,M,0000,0000*5C
lng=-77.680511, lat=43.086082, altitude=163.60, speed=2.13, satellites=10, angle=245.5900, fixquality=2
$GPRMC,210016.800,A,4305.1648,N,07740.8312,W,2.62,252.05,260319,,,D*79
$GPGGA,210017.000,4305.1646,N,07740.8314,W,2,10,0.90,163.7,M,-34.4,M,0000,0000*50
lng=-77.680519, lat=43.086082, altitude=163.70, speed=2.62, satellites=10, angle=252.0500, fixquality=2
$GPRMC,210017.200,A,4305.1646,N,07740.8317,W,3.03,263.54,260319,,,D*79
$GPGGA,210017.400,4305.1645,N,07740.8319,W,2,10,0.90,163.8,M,-34.4,M,0000,0000*55
lng=-77.680526, lat=43.086074, altitude=163.70, speed=3.03, satellites=10, angle=263.5400, fixquality=2
$GPRMC,210017.600,A,4305.1645,N,07740.8321,W,3.67,267.99,260319,,,D*7C
$GPGGA,210017.800,4305.1645,N,07740.8324,W,2,10,0.90,163.9,M,-34.4,M,0000,0000*56
lng=-77.680534, lat=43.086074, altitude=163.80, speed=3.67, satellites=10, angle=267.9900, fixquality=2
$GPRMC,210018.000,A,4305.1645,N,07740.8327,W,4.10,273.63,260319,,,D*74
$GPGGA,210018.200,4305.1645,N,07740.8330,W,2,10,0.94,163.9,M,-34.4,M,0000,0000*52
lng=-77.680541, lat=43.086074, altitude=163.90, speed=4.10, satellites=10, angle=273.6300, fixquality=2
$GPRMC,210018.400,A,4305.1646,N,07740.8333,W,4.29,282.15,260319,,,D*73
$GPGGA,210018.600,4305.1646,N,07740.8336,W,2,10,0.94,164.0,M,-34.4,M,0000,0000*5D
lng=-77.680557, lat=43.086074, altitude=163.90, speed=4.29, satellites=10, angle=282.1500, fixquality=2
$GPRMC,210018.800,A,4305.1646,N,07740.8340,W,5.13,285.11,260319,,,D*70
$GPGGA,210019.000,4305.1647,N,07740.8345,W,2,10,0.94,164.0,M,-34.4,M,0000,0000*5F
lng=-77.680564, lat=43.086074, altitude=164.00, speed=5.13, satellites=10, angle=285.1100, fixquality=2
$GPRMC,210019.200,A,4305.1648,N,07740.8350,W,6.37,284.62,260319,,,D*74
$GPGGA,210019.400,4305.1649,N,07740.8355,W,2,10,0.94,164.0,M,-34.4,M,0000,0000*54
lng=-77.680580, lat=43.086082, altitude=164.00, speed=6.37, satellites=10, angle=284.6200, fixquality=2
$GPRMC,210019.600,A,4305.1649,N,07740.8361,W,7.43,284.59,260319,,,D*79
$GPGGA,210019.800,4305.1650,N,07740.8366,W,2,10,0.94,164.0,M,-34.4,M,0000,0000*50
lng=-77.680595, lat=43.086082, altitude=164.00, speed=7.43, satellites=10, angle=284.5900, fixquality=2
$GPRMC,210020.000,A,4305.1651,N,07740.8372,W,8.69,281.68,260319,,,D*7E
$GPGGA,210020.200,4305.1652,N,07740.8379,W,2,10,0.94,164.1,M,-34.4,M,0000,0000*5D
lng=-77.680625, lat=43.086082, altitude=164.00, speed=8.69, satellites=10, angle=281.6800, fixquality=2
$GPRMC,210020.400,A,4305.1653,N,07740.8387,W,10.38,280.37,260319,,,D*44
$GPGGA,210020.600,4305.1654,N,07740.8394,W,2,10,0.94,164.1,M,-34.4,M,0000,0000*5C
lng=-77.680648, lat=43.086093, altitude=164.10, speed=10.38, satellites=10, angle=280.3700, fixquality=2
$GPRMC,210020.800,A,4305.1654,N,07740.8403,W,11.87,277.92,260319,,,D*46
$GPGGA,210021.000,4305.1655,N,07740.8412,W,2,10,0.94,164.1,M,-34.4,M,0000,0000*53
lng=-77.680671, lat=43.086093, altitude=164.10, speed=11.87, satellites=10, angle=277.9200, fixquality=2
$GPRMC,210021.200,A,4305.1655,N,07740.8421,W,12.83,276.37,260319,,,D*45
$GPGGA,210021.400,4305.1655,N,07740.8431,W,2,10,0.94,164.0,M,-34.4,M,0000,0000*57
lng=-77.680702, lat=43.086093, altitude=164.10, speed=12.83, satellites=10, angle=276.3700, fixquality=2
$GPRMC,210021.600,A,4305.1655,N,07740.8442,W,14.45,272.62,260319,,,D*4C
$GPGGA,210021.800,4305.1654,N,07740.8454,W,2,10,0.94,164.0,M,-34.4,M,0000,0000*59
lng=-77.680740, lat=43.086093, altitude=164.00, speed=14.45, satellites=10, angle=272.6200, fixquality=2
$GPRMC,210022.000,A,4305.1653,N,07740.8465,W,15.80,270.04,260319,,,D*40
$GPGGA,210022.200,4305.1653,N,07740.8477,W,2,10,0.94,164.0,M,-34.4,M,0000,0000*56
lng=-77.680778, lat=43.086093, altitude=164.00, speed=15.80, satellites=10, angle=270.0400, fixquality=2
$GPRMC,210022.400,A,4305.1652,N,07740.8490,W,16.93,268.57,260319,,,D*41
$GPGGA,210022.600,4305.1652,N,07740.8503,W,2,10,0.94,164.0,M,-34.4,M,0000,0000*51
lng=-77.680816, lat=43.086082, altitude=164.00, speed=16.93, satellites=10, angle=268.5700, fixquality=2
$GPRMC,210022.800,A,4305.1651,N,07740.8516,W,17.91,267.90,260319,,,D*46
$GPGGA,210023.000,4305.1649,N,07740.8530,W,2,10,0.94,164.0,M,-34.4,M,0000,0000*5C
lng=-77.680862, lat=43.086082, altitude=164.00, speed=17.91, satellites=10, angle=267.9000, fixquality=2
$GPRMC,210023.200,A,4305.1648,N,07740.8544,W,18.36,267.00,260319,,,D*49
$GPGGA,210023.400,4305.1647,N,07740.8558,W,2,10,0.94,164.1,M,-34.4,M,0000,0000*59
lng=-77.680908, lat=43.086082, altitude=164.00, speed=18.36, satellites=10, angle=267.0000, fixquality=2
$GPRMC,210023.600,A,4305.1646,N,07740.8572,W,18.29,267.18,260319,,,D*41
$GPGGA,210023.800,4305.1645,N,07740.8586,W,2,10,0.94,164.1,M,-34.4,M,0000,0000*54
lng=-77.680953, lat=43.086074, altitude=164.10, speed=18.29, satellites=10, angle=267.1800, fixquality=2
$GPRMC,210024.000,A,4305.1644,N,07740.8600,W,18.03,267.23,260319,,,D*44
$GPGGA,210024.200,4305.1644,N,07740.8614,W,2,10,0.94,164.1,M,-34.4,M,0000,0000*50
lng=-77.680999, lat=43.086074, altitude=164.10, speed=18.03, satellites=10, angle=267.2300, fixquality=2
$GPRMC,210024.400,A,4305.1643,N,07740.8628,W,17.51,267.84,260319,,,D*48
$GPGGA,210024.600,4305.1643,N,07740.8641,W,2,10,0.94,164.1,M,-34.4,M,0000,0000*53
lng=-77.681045, lat=43.086067, altitude=164.10, speed=17.51, satellites=10, angle=267.8400, fixquality=2
$GPRMC,210024.800,A,4305.1643,N,07740.8653,W,16.34,267.67,260319,,,D*47
$GPGGA,210025.000,4305.1643,N,07740.8665,W,2,10,0.94,164.1,M,-34.4,M,0000,0000*52
lng=-77.681083, lat=43.086067, altitude=164.10, speed=16.34, satellites=10, angle=267.6700, fixquality=2
$GPRMC,210025.200,A,4305.1643,N,07740.8677,W,14.58,268.82,260319,,,D*46
$GPGGA,210025.400,4305.1643,N,07740.8688,W,2,10,0.94,164.1,M,-34.4,M,0000,0000*55
lng=-77.681129, lat=43.086067, altitude=164.10, speed=14.58, satellites=10, angle=268.8200, fixquality=2
$GPRMC,210025.600,A,4305.1643,N,07740.8698,W,12.48,269.01,260319,,,D*4E
$GPGGA,210025.800,4305.1643,N,07740.8707,W,2,10,0.94,164.1,M,-34.4,M,0000,0000*5F
lng=-77.681159, lat=43.086067, altitude=164.10, speed=12.48, satellites=10, angle=269.0100, fixquality=2
$GPRMC,210026.000,A,4305.1643,N,07740.8715,W,10.42,269.75,260319,,,D*44
$GPGGA,210026.200,4305.1643,N,07740.8723,W,2,10,0.94,164.1,M,-34.4,M,0000,0000*50
lng=-77.681190, lat=43.086067, altitude=164.10, speed=10.42, satellites=10, angle=269.7500, fixquality=2
$GPRMC,210026.400,A,4305.1643,N,07740.8730,W,8.35,269.99,260319,,,D*7C
$GPGGA,210026.600,4305.1643,N,07740.8736,W,2,10,0.94,164.1,M,-34.4,M,0000,0000*50
lng=-77.681221, lat=43.086067, altitude=164.10, speed=8.35, satellites=10, angle=269.9900, fixquality=2
$GPRMC,210026.800,A,4305.1643,N,07740.8741,W,6.63,271.14,260319,,,D*77
$GPGGA,210027.000,4305.1643,N,07740.8746,W,2,10,0.94,164.1,M,-34.4,M,0000,0000*50
lng=-77.681236, lat=43.086067, altitude=164.10, speed=6.63, satellites=10, angle=271.1400, fixquality=2
$GPRMC,210027.200,A,4305.1643,N,07740.8752,W,6.36,269.30,260319,,,D*71
$GPGGA,210027.400,4305.1643,N,07740.8757,W,2,10,0.94,164.1,M,-34.4,M,0000,0000*54
lng=-77.681251, lat=43.086067, altitude=164.10, speed=6.36, satellites=10, angle=269.3000, fixquality=2
$GPRMC,210027.600,A,4305.1643,N,07740.8762,W,7.20,266.78,260319,,,D*73
$GPGGA,210027.800,4305.1642,N,07740.8768,W,2,10,0.94,164.0,M,-34.4,M,0000,0000*54
lng=-77.681266, lat=43.086067, altitude=164.10, speed=7.20, satellites=10, angle=266.7800, fixquality=2
$GPRMC,210028.000,A,4305.1642,N,07740.8774,W,8.29,263.81,260319,,,D*79
$GPGGA,210028.200,4305.1641,N,07740.8781,W,2,10,0.94,164.1,M,-34.4,M,0000,0000*54
lng=-77.681289, lat=43.086067, altitude=164.00, speed=8.29, satellites=10, angle=263.8100, fixquality=2
$GPRMC,210028.400,A,4305.1640,N,07740.8788,W,9.33,259.71,260319,,,D*70
$GPGGA,210028.600,4305.1639,N,07740.8795,W,2,10,0.94,164.1,M,-34.4,M,0000,0000*5A
lng=-77.681312, lat=43.086067, altitude=164.10, speed=9.33, satellites=10, angle=259.7100, fixquality=2
$GPRMC,210028.800,A,4305.1637,N,07740.8803,W,10.22,255.17,260319,,,D*44
$GPGGA,210029.000,4305.1635,N,07740.8812,W,2,10,0.94,164.1,M,-34.4,M,0000,0000*51
lng=-77.681343, lat=43.086059, altitude=164.10, speed=10.22, satellites=10, angle=255.1700, fixquality=2
$GPRMC,210029.200,A,4305.1634,N,07740.8820,W,11.41,248.92,260319,,,D*48
$GPGGA,210029.400,4305.1631,N,07740.8830,W,2,10,0.94,164.4,M,-34.4,M,0000,0000*54
lng=-77.681365, lat=43.086059, altitude=164.10, speed=11.41, satellites=10, angle=248.9200, fixquality=2
$GPRMC,210029.600,A,4305.1626,N,07740.8837,W,12.19,238.30,260319,,,D*48
$GPGGA,210029.800,4305.1621,N,07740.8843,W,2,10,0.94,164.5,M,-34.4,M,0000,0000*5C
lng=-77.681396, lat=43.086044, altitude=164.40, speed=12.19, satellites=10, angle=238.3000, fixquality=2
$GPRMC,210030.000,A,4305.1615,N,07740.8850,W,12.69,222.64,260319,,,D*4A
$GPGGA,210030.200,4305.1609,N,07740.8857,W,2,10,0.94,164.4,M,-34.4,M,0000,0000*50
lng=-77.681411, lat=43.086025, altitude=164.50, speed=12.69, satellites=10, angle=222.6400, fixquality=2
$GPRMC,210030.400,A,4305.1604,N,07740.8864,W,12.95,213.28,260319,,,D*40
$GPGGA,210030.600,4305.1597,N,07740.8869,W,2,10,0.94,164.6,M,-34.4,M,0000,0000*5F
lng=-77.681434, lat=43.086002, altitude=164.40, speed=12.95, satellites=10, angle=213.2800, fixquality=2
$GPRMC,210030.800,A,4305.1591,N,07740.8875,W,13.30,204.89,260319,,,D*40
$GPGGA,210031.000,4305.1584,N,07740.8879,W,2,10,0.94,164.7,M,-34.4,M,0000,0000*5A
lng=-77.681465, lat=43.085987, altitude=164.60, speed=13.30, satellites=10, angle=204.8900, fixquality=2
$GPRMC,210031.200,A,4305.1577,N,07740.8883,W,12.97,197.75,260319,,,D*4C
$GPGGA,210031.400,4305.1569,N,07740.8887,W,2,10,0.94,164.7,M,-34.4,M,0000,0000*5C
lng=-77.681472, lat=43.085960, altitude=164.70, speed=12.97, satellites=10, angle=197.7500, fixquality=2
$GPRMC,210031.600,A,4305.1563,N,07740.8890,W,12.95,196.38,260319,,,D*45
$GPGGA,210031.800,4305.1556,N,07740.8892,W,2,10,0.94,164.8,M,-34.4,M,0000,0000*57
lng=-77.681488, lat=43.085937, altitude=164.70, speed=12.95, satellites=10, angle=196.3800, fixquality=2
$GPRMC,210032.000,A,4305.1549,N,07740.8894,W,13.02,192.28,260319,,,D*46
$GPGGA,210032.200,4305.1542,N,07740.8896,W,2,10,0.90,164.8,M,-34.4,M,0000,0000*5B
lng=-77.681488, lat=43.085914, altitude=164.80, speed=13.02, satellites=10, angle=192.2800, fixquality=2
$GPRMC,210032.400,A,4305.1535,N,07740.8897,W,13.12,189.02,260319,,,D*49
$GPGGA,210032.600,4305.1527,N,07740.8898,W,2,10,0.90,164.9,M,-34.4,M,0000,0000*53
lng=-77.681495, lat=43.085887, altitude=164.80, speed=13.12, satellites=10, angle=189.0200, fixquality=2
$GPRMC,210032.800,A,4305.1520,N,07740.8898,W,13.36,186.04,260319,,,D*41
$GPGGA,210033.000,4305.1512,N,07740.8899,W,2,10,0.94,164.9,M,-34.4,M,0000,0000*57
lng=-77.681495, lat=43.085865, altitude=164.90, speed=13.36, satellites=10, angle=186.0400, fixquality=2
$GPRMC,210033.200,A,4305.1505,N,07740.8900,W,13.46,185.66,260319,,,D*4D
$GPGGA,210033.400,4305.1499,N,07740.8902,W,2,10,0.90,165.0,M,-34.4,M,0000,0000*5E
lng=-77.681503, lat=43.085838, altitude=164.90, speed=13.46, satellites=10, angle=185.6600, fixquality=2
$GPRMC,210033.600,A,4305.1493,N,07740.8904,W,13.10,189.72,260319,,,D*49
$GPGGA,210033.800,4305.1487,N,07740.8907,W,2,10,0.94,165.1,M,-34.4,M,0000,0000*5D
lng=-77.681510, lat=43.085823, altitude=165.00, speed=13.10, satellites=10, angle=189.7200, fixquality=2
$GPRMC,210034.000,A,4305.1481,N,07740.8910,W,12.72,198.28,260319,,,D*44
$GPGGA,210034.200,4305.1476,N,07740.8915,W,2,10,0.90,165.3,M,-34.4,M,0000,0000*5B
lng=-77.681518, lat=43.085800, altitude=165.10, speed=12.72, satellites=10, angle=198.2800, fixquality=2
$GPRMC,210034.400,A,4305.1471,N,07740.8920,W,11.98,210.86,260319,,,D*4C
$GPGGA,210034.600,4305.1466,N,07740.8924,W,2,10,0.90,165.3,M,-34.4,M,0000,0000*5C
lng=-77.681533, lat=43.085781, altitude=165.30, speed=11.98, satellites=10, angle=210.8600, fixquality=2
$GPRMC,210034.800,A,4305.1462,N,07740.8928,W,10.74,215.12,260319,,,D*41
$GPGGA,210035.000,4305.1458,N,07740.8934,W,2,10,0.94,165.4,M,-34.4,M,0000,0000*54
lng=-77.681541, lat=43.085765, altitude=165.30, speed=10.74, satellites=10, angle=215.1200, fixquality=2
$GPRMC,210035.200,A,4305.1455,N,07740.8939,W,10.63,223.14,260319,,,D*4B
$GPGGA,210035.400,4305.1452,N,07740.8948,W,2,10,0.90,165.5,M,-34.4,M,0000,0000*54
lng=-77.681564, lat=43.085758, altitude=165.40, speed=10.63, satellites=10, angle=223.1400, fixquality=2
$GPRMC,210035.600,A,4305.1448,N,07740.8957,W,11.22,229.50,260319,,,D*45
$GPGGA,210035.800,4305.1446,N,07740.8965,W,2,10,0.94,165.7,M,-34.4,M,0000,0000*54
lng=-77.681594, lat=43.085750, altitude=165.50, speed=11.22, satellites=10, angle=229.5000, fixquality=2
$GPRMC,210036.000,A,4305.1444,N,07740.8974,W,11.22,238.64,260319,,,D*4A
$GPGGA,210036.200,4305.1442,N,07740.8982,W,2,10,0.90,165.8,M,-34.4,M,0000,0000*5B
lng=-77.681625, lat=43.085742, altitude=165.70, speed=11.22, satellites=10, angle=238.6400, fixquality=2
$GPRMC,210036.400,A,4305.1441,N,07740.8990,W,11.56,241.16,260319,,,D*49
$GPGGA,210036.600,4305.1443,N,07740.9003,W,2,10,0.90,166.0,M,-34.4,M,0000,0000*54
lng=-77.681648, lat=43.085735, altitude=165.80, speed=11.56, satellites=10, angle=241.1600, fixquality=2
$GPRMC,210036.800,A,4305.1445,N,07740.9015,W,15.80,274.03,260319,,,D*49
$GPGGA,210037.000,4305.1446,N,07740.9028,W,2,10,0.94,166.0,M,-34.4,M,0000,0000*5B
lng=-77.681686, lat=43.085742, altitude=166.00, speed=15.80, satellites=10, angle=274.0300, fixquality=2
$GPRMC,210037.200,A,4305.1447,N,07740.9040,W,16.51,275.81,260319,,,D*44
$GPGGA,210037.400,4305.1448,N,07740.9052,W,2,10,0.90,166.0,M,-34.4,M,0000,0000*58
lng=-77.681732, lat=43.085742, altitude=166.00, speed=16.51, satellites=10, angle=275.8100, fixquality=2
$GPRMC,210037.600,A,4305.1450,N,07740.9066,W,17.67,278.04,260319,,,D*46
$GPGGA,210037.800,4305.1451,N,07740.9080,W,2,10,0.90,166.1,M,-34.4,M,0000,0000*52
lng=-77.681777, lat=43.085750, altitude=166.00, speed=17.67, satellites=10, angle=278.0400, fixquality=2
$GPRMC,210038.000,A,4305.1453,N,07740.9093,W,18.59,281.75,260319,,,D*44
$GPGGA,210038.200,4305.1455,N,07740.9107,W,2,10,0.90,166.1,M,-34.4,M,0000,0000*5D
lng=-77.681816, lat=43.085758, altitude=166.10, speed=18.59, satellites=10, angle=281.7500, fixquality=2
$GPRMC,210038.400,A,4305.1456,N,07740.9121,W,18.96,281.37,260319,,,D*48
$GPGGA,210038.600,4305.1458,N,07740.9136,W,2,10,0.94,166.1,M,-34.4,M,0000,0000*52
lng=-77.681869, lat=43.085758, altitude=166.10, speed=18.96, satellites=10, angle=281.3700, fixquality=2
$GPRMC,210038.800,A,4305.1460,N,07740.9151,W,19.42,282.08,260319,,,D*41
$GPGGA,210039.000,4305.1462,N,07740.9166,W,2,10,0.94,166.2,M,-34.4,M,0000,0000*5A
lng=-77.681915, lat=43.085765, altitude=166.10, speed=19.42, satellites=10, angle=282.0800, fixquality=2
$GPRMC,210039.200,A,4305.1465,N,07740.9181,W,19.61,282.04,260319,,,D*4F
$GPGGA,210039.400,4305.1467,N,07740.9197,W,2,10,0.90,166.3,M,-34.4,M,0000,0000*50
lng=-77.681968, lat=43.085773, altitude=166.20, speed=19.61, satellites=10, angle=282.0400, fixquality=2
$GPRMC,210039.600,A,4305.1469,N,07740.9213,W,19.65,283.48,260319,,,D*42
$GPGGA,210039.800,4305.1471,N,07740.9229,W,2,10,0.94,166.5,M,-34.4,M,0000,0000*5F
lng=-77.682022, lat=43.085781, altitude=166.30, speed=19.65, satellites=10, angle=283.4800, fixquality=2
$GPRMC,210040.000,A,4305.1474,N,07740.9244,W,19.40,286.05,260319,,,D*4F
$GPGGA,210040.200,4305.1477,N,07740.9258,W,2,10,0.94,166.8,M,-34.4,M,0000,0000*56
lng=-77.682075, lat=43.085792, altitude=166.50, speed=19.40, satellites=10, angle=286.0500, fixquality=2
$GPRMC,210040.400,A,4305.1480,N,07740.9272,W,19.38,285.09,260319,,,D*45
$GPGGA,210040.600,4305.1483,N,07740.9286,W,2,10,0.94,167.1,M,-34.4,M,0000,0000*52
lng=-77.682121, lat=43.085800, altitude=166.80, speed=19.38, satellites=10, angle=285.0900, fixquality=2
$GPRMC,210040.800,A,4305.1485,N,07740.9302,W,20.12,283.74,260319,,,D*44
$GPGGA,210041.000,4305.1487,N,07740.9318,W,2,10,0.94,167.4,M,-34.4,M,0000,0000*52
lng=-77.682167, lat=43.085807, altitude=167.10, speed=20.12, satellites=10, angle=283.7400, fixquality=2
$GPRMC,210041.200,A,4305.1489,N,07740.9334,W,20.40,280.20,260319,,,D*43
$GPGGA,210041.400,4305.1492,N,07740.9350,W,2,10,0.94,167.5,M,-34.4,M,0000,0000*5F
lng=-77.682228, lat=43.085815, altitude=167.40, speed=20.40, satellites=10, angle=280.2000, fixquality=2
$GPRMC,210041.600,A,4305.1493,N,07740.9367,W,20.80,276.43,260319,,,D*4A
$GPGGA,210041.800,4305.1493,N,07740.9384,W,2,10,0.94,167.6,M,-34.4,M,0000,0000*58
lng=-77.682273, lat=43.085823, altitude=167.50, speed=20.80, satellites=10, angle=276.4300, fixquality=2
$GPRMC,210042.000,A,4305.1494,N,07740.9402,W,20.86,274.72,260319,,,D*4A
$GPGGA,210042.200,4305.1494,N,07740.9419,W,2,10,0.94,167.6,M,-34.4,M,0000,0000*55
lng=-77.682342, lat=43.085823, altitude=167.60, speed=20.86, satellites=10, angle=274.7200, fixquality=2
$GPRMC,210042.400,A,4305.1494,N,07740.9435,W,20.64,272.95,260319,,,D*49
$GPGGA,210042.600,4305.1495,N,07740.9451,W,2,10,0.94,167.6,M,-34.4,M,0000,0000*5C
lng=-77.682388, lat=43.085823, altitude=167.60, speed=20.64, satellites=10, angle=272.9500, fixquality=2
$GPRMC,210042.800,A,4305.1495,N,07740.9466,W,20.54,270.10,260319,,,D*4E
$GPGGA,210043.000,4305.1495,N,07740.9481,W,2,10,0.94,167.8,M,-34.4,M,0000,0000*58
lng=-77.682449, lat=43.085823, altitude=167.60, speed=20.54, satellites=10, angle=270.1000, fixquality=2
$GPRMC,210043.200,A,4305.1494,N,07740.9496,W,20.28,266.78,260319,,,D*49
$GPGGA,210043.400,4305.1494,N,07740.9512,W,2,10,0.94,167.9,M,-34.4,M,0000,0000*57
lng=-77.682495, lat=43.085823, altitude=167.80, speed=20.28, satellites=10, angle=266.7800, fixquality=2
$GPRMC,210043.600,A,4305.1493,N,07740.9527,W,19.68,264.39,260319,,,D*48
$GPGGA,210043.800,4305.1492,N,07740.9543,W,2,10,0.94,167.9,M,-34.4,M,0000,0000*59
lng=-77.682540, lat=43.085823, altitude=167.90, speed=19.68, satellites=10, angle=264.3900, fixquality=2
$GPRMC,210044.000,A,4305.1492,N,07740.9557,W,19.38,264.79,260319,,,D*4E
$GPGGA,210044.200,4305.1491,N,07740.9573,W,2,10,0.94,168.1,M,-34.4,M,0000,0000*53
lng=-77.682594, lat=43.085823, altitude=167.90, speed=19.38, satellites=10, angle=264.7900, fixquality=2
$GPRMC,210044.400,A,4305.1490,N,07740.9588,W,19.37,266.36,260319,,,D*4C
$GPGGA,210044.600,4305.1489,N,07740.9603,W,2,10,0.94,168.0,M,-34.4,M,0000,0000*5B
lng=-77.682647, lat=43.085815, altitude=168.10, speed=19.37, satellites=10, angle=266.3600, fixquality=2
$GPRMC,210044.800,A,4305.1489,N,07740.9617,W,19.40,267.21,260319,,,D*4A
$GPGGA,210045.000,4305.1489,N,07740.9632,W,2,10,0.94,168.1,M,-34.4,M,0000,0000*5F
lng=-77.682701, lat=43.085815, altitude=168.00, speed=19.40, satellites=10, angle=267.2100, fixquality=2
$GPRMC,210045.200,A,4305.1488,N,07740.9647,W,18.69,267.51,260319,,,D*48
$GPGGA,210045.400,4305.1488,N,07740.9661,W,2,10,0.94,168.3,M,-34.4,M,0000,0000*5E
lng=-77.682746, lat=43.085815, altitude=168.10, speed=18.69, satellites=10, angle=267.5100, fixquality=2
$GPRMC,210045.600,A,4305.1488,N,07740.9675,W,17.44,268.38,260319,,,D*4D
$GPGGA,210045.800,4305.1487,N,07740.9688,W,2,10,0.94,168.5,M,-34.4,M,0000,0000*5C
lng=-77.682785, lat=43.085815, altitude=168.30, speed=17.44, satellites=10, angle=268.3800, fixquality=2
$GPRMC,210046.000,A,4305.1488,N,07740.9700,W,15.59,268.38,260319,,,D*45
$GPGGA,210046.200,4305.1489,N,07740.9711,W,2,10,0.94,168.5,M,-34.4,M,0000,0000*5A
lng=-77.682838, lat=43.085815, altitude=168.50, speed=15.59, satellites=10, angle=268.3800, fixquality=2
$GPRMC,210046.400,A,4305.1490,N,07740.9722,W,13.62,268.60,260319,,,D*4B
$GPGGA,210046.600,4305.1491,N,07740.9732,W,2,09,1.29,168.6,M,-34.4,M,0000,0000*5A
lng=-77.682868, lat=43.085815, altitude=168.50, speed=13.62, satellites=10, angle=268.6000, fixquality=2
$GPRMC,210046.800,A,4305.1491,N,07740.9740,W,11.31,268.59,260319,,,D*4C
$GPGGA,210047.000,4305.1491,N,07740.9749,W,2,09,1.29,168.7,M,-34.4,M,0000,0000*50
lng=-77.682899, lat=43.085815, altitude=168.60, speed=11.31, satellites=9, angle=268.5900, fixquality=2
$GPRMC,210047.200,A,4305.1492,N,07740.9756,W,9.03,268.63,260319,,,D*72
$GPGGA,210047.400,4305.1493,N,07740.9762,W,2,09,1.29,168.7,M,-34.4,M,0000,0000*5F
lng=-77.682929, lat=43.085823, altitude=168.70, speed=9.03, satellites=9, angle=268.6300, fixquality=2
$GPRMC,210047.600,A,4305.1493,N,07740.9767,W,6.44,267.40,260319,,,D*77
$GPGGA,210047.800,4305.1493,N,07740.9772,W,2,09,1.29,168.9,M,-34.4,M,0000,0000*5C
lng=-77.682945, lat=43.085823, altitude=168.70, speed=6.44, satellites=9, angle=267.4000, fixquality=2
$GPRMC,210048.000,A,4305.1494,N,07740.9775,W,4.30,268.90,260319,,,D*79
$GPGGA,210048.200,4305.1495,N,07740.9777,W,2,10,0.94,168.9,M,-34.4,M,0000,0000*55
lng=-77.682960, lat=43.085823, altitude=168.90, speed=4.30, satellites=9, angle=268.9000, fixquality=2
$GPRMC,210048.400,A,4305.1496,N,07740.9780,W,2.30,269.36,260319,,,D*7E
$GPGGA,210048.600,4305.1497,N,07740.9779,W,2,10,0.90,169.3,M,-34.4,M,0000,0000*52
lng=-77.682968, lat=43.085823, altitude=168.90, speed=2.30, satellites=10, angle=269.3600, fixquality=2
$GPRMC,210048.800,A,4305.1497,N,07740.9780,W,1.81,269.36,260319,,,D*7A
$GPGGA,210049.000,4305.1498,N,07740.9781,W,2,10,0.90,169.4,M,-34.4,M,0000,0000*5A
lng=-77.682968, lat=43.085830, altitude=169.30, speed=1.81, satellites=10, angle=269.3600, fixquality=2
$GPRMC,210049.200,A,4305.1498,N,07740.9783,W,2.64,269.36,260319,,,D*75
$GPGGA,210049.400,4305.1499,N,07740.9785,W,2,10,0.90,169.4,M,-34.4,M,0000,0000*5B
lng=-77.682975, lat=43.085830, altitude=169.40, speed=2.64, satellites=10, angle=269.3600, fixquality=2
$GPRMC,210049.600,A,4305.1499,N,07740.9787,W,3.88,261.82,260319,,,D*70
$GPGGA,210049.800,4305.1499,N,07740.9789,W,2,10,0.90,169.5,M,-34.4,M,0000,0000*5A
lng=-77.682975, lat=43.085830, altitude=169.40, speed=3.88, satellites=10, angle=261.8200, fixquality=2
$GPRMC,210050.000,A,4305.1498,N,07740.9793,W,5.55,257.08,260319,,,D*7B
$GPGGA,210050.200,4305.1498,N,07740.9797,W,2,10,0.94,169.6,M,-34.4,M,0000,0000*51
lng=-77.682991, lat=43.085830, altitude=169.50, speed=5.55, satellites=10, angle=257.0800, fixquality=2
$GPRMC,210050.400,A,4305.1496,N,07740.9802,W,7.27,248.44,260319,,,D*77
$GPGGA,210050.600,4305.1495,N,07740.9807,W,2,10,0.94,169.8,M,-34.4,M,0000,0000*50
lng=-77.682998, lat=43.085823, altitude=169.60, speed=7.27, satellites=10, angle=248.4400, fixquality=2
$GPRMC,210050.800,A,4305.1492,N,07740.9813,W,8.54,236.38,260319,,,D*76
$GPGGA,210051.000,4305.1489,N,07740.9818,W,2,10,0.94,169.8,M,-34.4,M,0000,0000*54
lng=-77.683021, lat=43.085823, altitude=169.80, speed=8.54, satellites=10, angle=236.3800, fixquality=2
$GPRMC,210051.200,A,4305.1485,N,07740.9823,W,9.86,224.92,260319,,,D*75
$GPGGA,210051.400,4305.1481,N,07740.9828,W,2,10,0.94,169.8,M,-34.4,M,0000,0000*5B
lng=-77.683036, lat=43.085807, altitude=169.80, speed=9.86, satellites=10, angle=224.9200, fixquality=2
$GPRMC,210051.600,A,4305.1476,N,07740.9833,W,11.21,213.82,260319,,,D*4D
$GPGGA,210051.800,4305.1471,N,07740.9836,W,2,10,0.94,170.0,M,-34.4,M,0000,0000*57
lng=-77.683059, lat=43.085792, altitude=169.80, speed=11.21, satellites=10, angle=213.8200, fixquality=2
$GPRMC,210052.000,A,4305.1465,N,07740.9840,W,12.29,207.27,260319,,,D*4F
$GPGGA,210052.200,4305.1459,N,07740.9844,W,2,10,0.94,170.1,M,-34.4,M,0000,0000*50
lng=-77.683067, lat=43.085773, altitude=170.00, speed=12.29, satellites=10, angle=207.2700, fixquality=2
$GPRMC,210052.400,A,4305.1453,N,07740.9847,W,13.16,199.43,260319,,,D*42
$GPGGA,210052.600,4305.1446,N,07740.9850,W,2,10,0.94,170.2,M,-34.4,M,0000,0000*5C
lng=-77.683082, lat=43.085758, altitude=170.10, speed=13.16, satellites=10, angle=199.4300, fixquality=2
$GPRMC,210052.800,A,4305.1441,N,07740.9850,W,14.44,195.82,260319,,,D*4A
$GPGGA,210053.000,4305.1435,N,07740.9850,W,2,10,0.94,170.4,M,-34.4,M,0000,0000*59
lng=-77.683082, lat=43.085735, altitude=170.20, speed=14.44, satellites=10, angle=195.8200, fixquality=2
$GPRMC,210053.200,A,4305.1429,N,07740.9850,W,15.32,193.52,260319,,,D*44
$GPGGA,210053.400,4305.1421,N,07740.9852,W,2,10,0.94,170.5,M,-34.4,M,0000,0000*5B
lng=-77.683082, lat=43.085716, altitude=170.40, speed=15.32, satellites=10, angle=193.5200, fixquality=2
$GPRMC,210053.600,A,4305.1413,N,07740.9853,W,16.25,192.75,260319,,,D*4B
$GPGGA,210053.800,4305.1406,N,07740.9854,W,2,10,0.94,170.7,M,-34.4,M,0000,0000*56
lng=-77.683090, lat=43.085685, altitude=170.50, speed=16.25, satellites=10, angle=192.7500, fixquality=2
$GPRMC,210054.000,A,4305.1398,N,07740.9856,W,16.88,192.16,260319,,,D*49
$GPGGA,210054.200,4305.1390,N,07740.9859,W,2,10,0.90,171.0,M,-34.4,M,0000,0000*5C
lng=-77.683097, lat=43.085659, altitude=170.70, speed=16.88, satellites=10, angle=192.1600, fixquality=2
$GPRMC,210054.400,A,4305.1381,N,07740.9863,W,17.12,195.37,260319,,,D*45
$GPGGA,210054.600,4305.1372,N,07740.9867,W,2,10,0.90,171.1,M,-34.4,M,0000,0000*58
lng=-77.683105, lat=43.085636, altitude=171.00, speed=17.12, satellites=10, angle=195.3700, fixquality=2
$GPRMC,210054.800,A,4305.1364,N,07740.9872,W,17.35,200.33,260319,,,D*4C
$GPGGA,210055.000,4305.1355,N,07740.9877,W,2,10,0.94,171.3,M,-34.4,M,0000,0000*5D
lng=-77.683120, lat=43.085605, altitude=171.10, speed=17.35, satellites=10, angle=200.3300, fixquality=2
$GPRMC,210055.200,A,4305.1347,N,07740.9882,W,17.52,204.88,260319,,,D*4C
$GPGGA,210055.400,4305.1340,N,07740.9887,W,2,10,0.94,171.6,M,-34.4,M,0000,0000*57
lng=-77.683135, lat=43.085578, altitude=171.30, speed=17.52, satellites=10, angle=204.8800, fixquality=2
$GPRMC,210055.600,A,4305.1332,N,07740.9894,W,17.67,210.85,260319,,,D*43
$GPGGA,210055.800,4305.1324,N,07740.9901,W,2,10,0.94,171.7,M,-34.4,M,0000,0000*57
lng=-77.683151, lat=43.085556, altitude=171.60, speed=17.67, satellites=10, angle=210.8500, fixquality=2
$GPRMC,210056.000,A,4305.1316,N,07740.9909,W,17.88,217.48,260319,,,D*42
$GPGGA,210056.200,4305.1309,N,07740.9917,W,2,10,0.94,171.7,M,-34.4,M,0000,0000*56
lng=-77.683181, lat=43.085529, altitude=171.70, speed=17.88, satellites=10, angle=217.4800, fixquality=2
$GPRMC,210056.400,A,4305.1302,N,07740.9926,W,18.22,222.28,260319,,,D*41
$GPGGA,210056.600,4305.1294,N,07740.9935,W,2,10,0.94,171.6,M,-34.4,M,0000,0000*56
lng=-77.683212, lat=43.085506, altitude=171.70, speed=18.22, satellites=10, angle=222.2800, fixquality=2
$GPRMC,210056.800,A,4305.1287,N,07740.9945,W,19.28,226.90,260319,,,D*48
$GPGGA,210057.000,4305.1280,N,07740.9954,W,2,10,0.94,171.6,M,-34.4,M,0000,0000*53
lng=-77.683242, lat=43.085483, altitude=171.60, speed=19.28, satellites=10, angle=226.9000, fixquality=2
$GPRMC,210057.200,A,4305.1273,N,07740.9965,W,20.44,229.83,260319,,,D*47
$GPGGA,210057.400,4305.1266,N,07740.9977,W,2,10,0.94,171.5,M,-34.4,M,0000,0000*5D
lng=-77.683273, lat=43.085456, altitude=171.60, speed=20.44, satellites=10, angle=229.8300, fixquality=2
$GPRMC,210057.600,A,4305.1258,N,07740.9990,W,21.81,232.87,260319,,,D*46
$GPGGA,210057.800,4305.1251,N,07741.0003,W,2,10,0.94,171.4,M,-34.4,M,0000,0000*56
lng=-77.683319, lat=43.085433, altitude=171.50, speed=21.81, satellites=10, angle=232.8700, fixquality=2
$GPRMC,210058.000,A,4305.1243,N,07741.0016,W,23.14,234.13,260319,,,D*4F
$GPGGA,210058.200,4305.1235,N,07741.0030,W,2,10,0.94,171.3,M,-34.4,M,0000,0000*56
lng=-77.683357, lat=43.085407, altitude=171.40, speed=23.14, satellites=10, angle=234.1300, fixquality=2
$GPRMC,210058.400,A,4305.1227,N,07741.0045,W,24.28,234.17,260319,,,D*43
$GPGGA,210058.600,4305.1219,N,07741.0060,W,2,10,0.94,171.1,M,-34.4,M,0000,0000*5B
lng=-77.683403, lat=43.085376, altitude=171.30, speed=24.28, satellites=10, angle=234.1700, fixquality=2
$GPRMC,210058.800,A,4305.1210,N,07741.0074,W,24.99,233.93,260319,,,D*48
$GPGGA,210059.000,4305.1202,N,07741.0090,W,2,10,0.94,170.9,M,-34.4,M,0000,0000*50
lng=-77.683456, lat=43.085350, altitude=171.10, speed=24.99, satellites=10, angle=233.9300, fixquality=2
$GPRMC,210059.200,A,4305.1193,N,07741.0105,W,25.40,234.64,260319,,,D*46
$GPGGA,210059.400,4305.1185,N,07741.0120,W,2,10,0.94,170.8,M,-34.4,M,0000,0000*53
lng=-77.683509, lat=43.085319, altitude=170.90, speed=25.40, satellites=10, angle=234.6400, fixquality=2
$GPRMC,210059.600,A,4305.1177,N,07741.0136,W,25.41,234.44,260319,,,D*4B
$GPGGA,210059.800,4305.1168,N,07741.0151,W,2,10,0.94,170.7,M,-34.4,M,0000,0000*55
lng=-77.683563, lat=43.085292, altitude=170.80, speed=25.41, satellites=10, angle=234.4400, fixquality=2
$GPRMC,210100.000,A,4305.1160,N,07741.0167,W,25.39,235.08,260319,,,D*44
$GPGGA,210100.200,4305.1152,N,07741.0183,W,2,10,0.94,170.5,M,-34.4,M,0000,0000*56
lng=-77.683609, lat=43.085269, altitude=170.70, speed=25.39, satellites=10, angle=235.0800, fixquality=2
$GPRMC,210100.400,A,4305.1144,N,07741.0199,W,25.15,234.16,260319,,,D*47
$GPGGA,210100.600,4305.1136,N,07741.0214,W,2,10,0.94,170.3,M,-34.4,M,0000,0000*5B
lng=-77.683670, lat=43.085239, altitude=170.50, speed=25.15, satellites=10, angle=234.1600, fixquality=2
$GPRMC,210100.800,A,4305.1128,N,07741.0230,W,25.00,235.80,260319,,,D*4B
$GPGGA,210101.000,4305.1121,N,07741.0246,W,2,10,0.94,170.1,M,-34.4,M,0000,0000*5F
lng=-77.683715, lat=43.085212, altitude=170.30, speed=25.00, satellites=10, angle=235.8000, fixquality=2
$GPRMC,210101.200,A,4305.1113,N,07741.0262,W,24.75,240.21,260319,,,D*45
$GPGGA,210101.400,4305.1107,N,07741.0278,W,2,10,0.94,170.0,M,-34.4,M,0000,0000*53
lng=-77.683769, lat=43.085189, altitude=170.10, speed=24.75, satellites=10, angle=240.2100, fixquality=2
$GPRMC,210101.600,A,4305.1101,N,07741.0295,W,23.98,246.42,260319,,,D*4D
$GPGGA,210101.800,4305.1096,N,07741.0311,W,2,10,0.94,169.8,M,-34.4,M,0000,0000*58
lng=-77.683822, lat=43.085163, altitude=170.00, speed=23.98, satellites=10, angle=246.4200, fixquality=2
$GPRMC,210102.000,A,4305.1091,N,07741.0328,W,22.75,251.85,260319,,,D*48
$GPGGA,210102.200,4305.1087,N,07741.0344,W,2,10,0.94,169.6,M,-34.4,M,0000,0000*5F
lng=-77.683876, lat=43.085147, altitude=169.80, speed=22.75, satellites=10, angle=251.8500, fixquality=2
$GPRMC,210102.400,A,4305.1084,N,07741.0360,W,21.48,256.19,260319,,,D*4B
$GPGGA,210102.600,4305.1082,N,07741.0376,W,2,10,0.94,169.5,M,-34.4,M,0000,0000*5C
lng=-77.683937, lat=43.085140, altitude=169.60, speed=21.48, satellites=10, angle=256.1900, fixquality=2
$GPRMC,210102.800,A,4305.1080,N,07741.0392,W,20.60,263.77,260319,,,D*4B
$GPGGA,210103.000,4305.1079,N,07741.0407,W,2,10,0.94,169.4,M,-34.4,M,0000,0000*5F
lng=-77.683982, lat=43.085132, altitude=169.50, speed=20.60, satellites=10, angle=263.7700, fixquality=2
$GPRMC,210103.200,A,4305.1078,N,07741.0422,W,19.84,269.28,260319,,,D*4B
$GPGGA,210103.400,4305.1078,N,07741.0436,W,2,10,0.94,169.3,M,-34.4,M,0000,0000*5F
lng=-77.684036, lat=43.085132, altitude=169.40, speed=19.84, satellites=10, angle=269.2800, fixquality=2
$GPRMC,210103.600,A,4305.1079,N,07741.0451,W,19.07,275.46,260319,,,D*44
$GPGGA,210103.800,4305.1081,N,07741.0465,W,2,10,0.94,169.1,M,-34.4,M,0000,0000*51
lng=-77.684082, lat=43.085132, altitude=169.30, speed=19.07, satellites=10, angle=275.4600, fixquality=2
$GPRMC,210104.000,A,4305.1082,N,07741.0479,W,18.47,280.90,260319,,,D*4F
$GPGGA,210104.200,4305.1084,N,07741.0492,W,2,10,0.94,169.0,M,-34.4,M,0000,0000*50
lng=-77.684127, lat=43.085140, altitude=169.10, speed=18.47, satellites=10, angle=280.9000, fixquality=2
$GPRMC,210104.400,A,4305.1087,N,07741.0506,W,18.10,285.95,260319,,,D*45
$GPGGA,210104.600,4305.1090,N,07741.0519,W,2,10,0.94,168.9,M,-34.4,M,0000,0000*5B
lng=-77.684181, lat=43.085147, altitude=169.00, speed=18.10, satellites=10, angle=285.9500, fixquality=2
$GPRMC,210104.800,A,4305.1094,N,07741.0532,W,18.10,291.34,260319,,,D*42
$GPGGA,210105.000,4305.1098,N,07741.0544,W,2,10,0.94,168.8,M,-34.4,M,0000,0000*5D
lng=-77.684219, lat=43.085155, altitude=168.90, speed=18.10, satellites=10, angle=291.3400, fixquality=2
$GPRMC,210105.200,A,4305.1102,N,07741.0557,W,18.03,296.08,260319,,,D*4E
$GPGGA,210105.400,4305.1106,N,07741.0569,W,2,10,0.94,168.6,M,-34.4,M,0000,0000*5E
lng=-77.684257, lat=43.085170, altitude=168.80, speed=18.03, satellites=10, angle=296.0800, fixquality=2
$GPRMC,210105.600,A,4305.1111,N,07741.0582,W,18.00,297.19,260319,,,D*42
$GPGGA,210105.800,4305.1116,N,07741.0594,W,2,10,0.94,168.5,M,-34.4,M,0000,0000*52
lng=-77.684303, lat=43.085189, altitude=168.60, speed=18.00, satellites=10, angle=297.1900, fixquality=2
$GPRMC,210106.000,A,4305.1121,N,07741.0605,W,17.20,299.04,260319,,,D*47
$GPGGA,210106.200,4305.1125,N,07741.0617,W,2,10,0.94,168.4,M,-34.4,M,0000,0000*52
lng=-77.684341, lat=43.085205, altitude=168.50, speed=17.20, satellites=10, angle=299.0400, fixquality=2
$GPRMC,210106.400,A,4305.1130,N,07741.0628,W,15.36,299.05,260319,,,D*48
$GPGGA,210106.600,4305.1134,N,07741.0639,W,2,10,0.94,168.4,M,-34.4,M,0000,0000*5A
lng=-77.684379, lat=43.085212, altitude=168.40, speed=15.36, satellites=10, angle=299.0500, fixquality=2
$GPRMC,210106.800,A,4305.1137,N,07741.0650,W,13.42,297.92,260319,,,D*49
$GPGGA,210107.000,4305.1141,N,07741.0659,W,2,10,0.94,168.3,M,-34.4,M,0000,0000*5E
lng=-77.684417, lat=43.085227, altitude=168.40, speed=13.42, satellites=10, angle=297.9200, fixquality=2
$GPRMC,210107.200,A,4305.1144,N,07741.0668,W,11.51,297.88,260319,,,D*46
$GPGGA,210107.400,4305.1146,N,07741.0676,W,2,10,0.94,168.2,M,-34.4,M,0000,0000*51
lng=-77.684448, lat=43.085239, altitude=168.30, speed=11.51, satellites=10, angle=297.8800, fixquality=2
$GPRMC,210107.600,A,4305.1149,N,07741.0684,W,9.98,300.54,260319,,,D*7F
$GPGGA,210107.800,4305.1152,N,07741.0692,W,2,10,0.94,168.1,M,-34.4,M,0000,0000*51
lng=-77.684471, lat=43.085247, altitude=168.20, speed=9.98, satellites=10, angle=300.5400, fixquality=2
$GPRMC,210108.000,A,4305.1154,N,07741.0700,W,9.78,301.26,260319,,,D*7D
$GPGGA,210108.200,4305.1157,N,07741.0706,W,2,10,0.94,168.0,M,-34.4,M,0000,0000*5C
lng=-77.684494, lat=43.085254, altitude=168.10, speed=9.78, satellites=10, angle=301.2600, fixquality=2
$GPRMC,210108.400,A,4305.1160,N,07741.0713,W,9.07,301.85,260319,,,D*7D
$GPGGA,210108.600,4305.1162,N,07741.0719,W,2,10,0.94,167.9,M,-34.4,M,0000,0000*56
lng=-77.684524, lat=43.085269, altitude=168.00, speed=9.07, satellites=10, angle=301.8500, fixquality=2
$GPRMC,210108.800,A,4305.1165,N,07741.0725,W,8.09,299.46,260319,,,D*71
$GPGGA,210109.000,4305.1167,N,07741.0730,W,2,10,0.94,167.8,M,-34.4,M,0000,0000*5E
lng=-77.684539, lat=43.085277, altitude=167.90, speed=8.09, satellites=10, angle=299.4600, fixquality=2
$GPRMC,210109.200,A,4305.1168,N,07741.0735,W,7.11,297.65,260319,,,D*7F
$GPGGA,210109.400,4305.1170,N,07741.0739,W,2,10,0.90,167.8,M,-34.4,M,0000,0000*51
lng=-77.684562, lat=43.085277, altitude=167.80, speed=7.11, satellites=10, angle=297.6500, fixquality=2
$GPRMC,210109.600,A,4305.1171,N,07741.0743,W,5.21,292.35,260319,,,D*73
$GPGGA,210109.800,4305.1172,N,07741.0746,W,2,10,0.90,167.7,M,-34.4,M,0000,0000*58
lng=-77.684570, lat=43.085285, altitude=167.80, speed=5.21, satellites=10, angle=292.3500, fixquality=2
$GPRMC,210110.000,A,4305.1173,N,07741.0749,W,3.22,284.22,260319,,,D*71
$GPGGA,210110.200,4305.1173,N,07741.0752,W,2,10,0.90,167.6,M,-34.4,M,0000,0000*5F
lng=-77.684577, lat=43.085285, altitude=167.70, speed=3.22, satellites=10, angle=284.2200, fixquality=2
$GPRMC,210110.400,A,4305.1173,N,07741.0753,W,2.11,281.70,260319,,,D*7D
$GPGGA,210110.600,4305.1173,N,07741.0754,W,2,10,0.90,167.6,M,-34.4,M,0000,0000*5D
lng=-77.684585, lat=43.085285, altitude=167.60, speed=2.11, satellites=10, angle=281.7000, fixquality=2
$GPRMC,210110.800,A,4305.1172,N,07741.0754,W,0.60,281.70,260319,,,D*73
$GPGGA,210111.000,4305.1172,N,07741.0754,W,2,10,0.90,167.6,M,-34.4,M,0000,0000*5B
lng=-77.684585, lat=43.085285, altitude=167.60, speed=0.60, satellites=10, angle=281.7000, fixquality=2
$GPRMC,210111.200,A,4305.1171,N,07741.0755,W,0.62,281.70,260319,,,D*78
