Vers 57
USE_SERIAL_FEEDBACK=false
DEVELOPMENT_MODE=false
USE_RMC_ONLY=false

$GPRMC,193316.800,A,4308.3012,N,07726.2652,W,0.00,179.07,220319,,,D*75
$GPGGA,193317.000,4308.3012,N,07726.2652,W,2,10,0.85,161.0,M,-34.4,M,0000,0000*5F
lng=-77.437751, lat=43.138355, altitude=161.00, speed=0.00, satellites=10, angle=179.0700, fixquality=2
$GPRMC,193317.200,A,4308.3013,N,07726.2652,W,0.08,179.07,220319,,,D*77
$GPGGA,193317.400,4308.3013,N,07726.2652,W,2,10,0.85,161.0,M,-34.4,M,0000,0000*5A
lng=-77.437751, lat=43.138355, altitude=161.00, speed=0.08, satellites=10, angle=179.0700, fixquality=2
$GPRMC,193317.600,A,4308.3013,N,07726.2652,W,0.13,179.07,220319,,,D*79
$GPGGA,193317.800,4308.3013,N,07726.2652,W,2,10,0.85,161.0,M,-34.4,M,0000,0000*56
lng=-77.437751, lat=43.138355, altitude=161.00, speed=0.13, satellites=10, angle=179.0700, fixquality=2
$GPRMC,193318.000,A,4308.3013,N,07726.2652,W,0.00,179.07,220319,,,D*72
$GPGGA,193318.200,4308.3013,N,07726.2652,W,2,10,0.89,161.0,M,-34.4,M,0000,0000*5F
lng=-77.437751, lat=43.138355, altitude=161.00, speed=0.00, satellites=10, angle=179.0700, fixquality=2
$GPRMC,193318.400,A,4308.3013,N,07726.2652,W,0.00,179.07,220319,,,D*76
$GPGGA,193318.600,4308.3013,N,07726.2652,W,2,10,0.89,161.0,M,-34.4,M,0000,0000*5B
lng=-77.437751, lat=43.138355, altitude=161.00, speed=0.00, satellites=10, angle=179.0700, fixquality=2
$GPRMC,193318.800,A,4308.3013,N,07726.2652,W,0.00,179.07,220319,,,D*7A
$GPGGA,193319.000,4308.3013,N,07726.2652,W,2,09,0.94,161.0,M,-34.4,M,0000,0000*58
lng=-77.437751, lat=43.138355, altitude=161.00, speed=0.00, satellites=10, angle=179.0700, fixquality=2
$GPRMC,193319.200,A,4308.3013,N,07726.2652,W,0.08,179.07,220319,,,D*79
$GPGGA,193319.400,4308.3013,N,07726.2652,W,2,09,0.90,161.0,M,-34.4,M,0000,0000*58
lng=-77.437751, lat=43.138355, altitude=161.00, speed=0.08, satellites=9, angle=179.0700, fixquality=2
$GPRMC,193319.600,A,4308.3013,N,07726.2652,W,0.15,179.07,220319,,,D*71
$GPGGA,193319.800,4308.3013,N,07726.2652,W,2,09,0.90,161.0,M,-34.4,M,0000,0000*54
lng=-77.437751, lat=43.138355, altitude=161.00, speed=0.15, satellites=9, angle=179.0700, fixquality=2
$GPRMC,193320.000,A,4308.3013,N,07726.2652,W,0.00,179.07,220319,,,D*79
$GPGGA,193320.200,4308.3013,N,07726.2652,W,2,09,0.94,161.0,M,-34.4,M,0000,0000*50
lng=-77.437751, lat=43.138355, altitude=161.00, speed=0.00, satellites=9, angle=179.0700, fixquality=2
$GPRMC,193320.400,A,4308.3013,N,07726.2652,W,0.00,179.07,220319,,,D*7D
$GPGGA,193320.600,4308.3013,N,07726.2652,W,2,09,0.94,161.0,M,-34.4,M,0000,0000*54
lng=-77.437751, lat=43.138355, altitude=161.00, speed=0.00, satellites=9, angle=179.0700, fixquality=2
$GPRMC,193320.800,A,4308.3013,N,07726.2652,W,0.05,179.07,220319,,,D*74
$GPGGA,193321.000,4308.3013,N,07726.2652,W,2,09,0.94,161.0,M,-34.4,M,0000,0000*53
lng=-77.437751, lat=43.138355, altitude=161.00, speed=0.05, satellites=9, angle=179.0700, fixquality=2
$GPRMC,193321.200,A,4308.3013,N,07726.2652,W,0.00,179.07,220319,,,D*7A
$GPGGA,193321.400,4308.3013,N,07726.2652,W,2,10,0.89,161.0,M,-34.4,M,0000,0000*53
lng=-77.437751, lat=43.138355, altitude=161.00, speed=0.00, satellites=9, angle=179.0700, fixquality=2
$GPRMC,193321.600,A,4308.3013,N,07726.2652,W,0.08,179.07,220319,,,D*76
$GPGGA,193321.800,4308.3013,N,07726.2652,W,2,10,0.85,161.0,M,-34.4,M,0000,0000*53
lng=-77.437751, lat=43.138355, altitude=161.00, speed=0.08, satellites=10, angle=179.0700, fixquality=2
$GPRMC,193322.000,A,4308.3013,N,07726.2652,W,0.00,179.07,220319,,,D*7B
$GPGGA,193322.200,4308.3013,N,07726.2652,W,2,10,0.89,161.0,M,-34.4,M,0000,0000*56
lng=-77.437751, lat=43.138355, altitude=161.00, speed=0.00, satellites=10, angle=179.0700, fixquality=2
$GPRMC,193322.400,A,4308.3013,N,07726.2652,W,0.00,179.07,220319,,,D*7F
$GPGGA,193322.600,4308.3013,N,07726.2652,W,2,10,0.89,161.0,M,-34.4,M,0000,0000*52
lng=-77.437751, lat=43.138355, altitude=161.00, speed=0.00, satellites=10, angle=179.0700, fixquality=2
$GPRMC,193322.800,A,4308.3013,N,07726.2652,W,0.00,179.07,220319,,,D*73
$GPGGA,193323.000,4308.3013,N,07726.2652,W,2,10,0.89,161.0,M,-34.4,M,0000,0000*55
lng=-77.437751, lat=43.138355, altitude=161.00, speed=0.00, satellites=10, angle=179.0700, fixquality=2
$GPRMC,193323.200,A,4308.3013,N,07726.2652,W,0.00,179.07,220319,,,D*78
$GPGGA,193323.400,4308.3013,N,07726.2652,W,2,10,0.89,161.0,M,-34.4,M,0000,0000*51
lng=-77.437751, lat=43.138355, altitude=161.00, speed=0.00, satellites=10, angle=179.0700, fixquality=2
$GPRMC,193323.600,A,4308.3013,N,07726.2652,W,0.00,179.07,220319,,,D*7C
$GPGGA,193323.800,4308.3013,N,07726.2652,W,2,10,0.89,161.0,M,-34.4,M,0000,0000*5D
lng=-77.437751, lat=43.138355, altitude=161.00, speed=0.00, satellites=10, angle=179.0700, fixquality=2
$GPRMC,193324.000,A,4308.3013,N,07726.2652,W,0.00,179.07,220319,,,D*7D
$GPGGA,193324.200,4308.3013,N,07726.2652,W,2,10,0.89,161.0,M,-34.4,M,0000,0000*50
lng=-77.437751, lat=43.138355, altitude=161.00, speed=0.00, satellites=10, angle=179.0700, fixquality=2
$GPRMC,193324.400,A,4308.3013,N,07726.2652,W,0.00,179.07,220319,,,D*79
$GPGGA,193324.600,4308.3013,N,07726.2652,W,2,10,0.89,161.0,M,-34.4,M,0000,0000*54
lng=-77.437751, lat=43.138355, altitude=161.00, speed=0.00, satellites=10, angle=179.0700, fixquality=2
$GPRMC,193324.800,A,4308.3013,N,07726.2652,W,0.00,179.07,220319,,,D*75
$GPGGA,193325.000,4308.3013,N,07726.2652,W,2,10,0.89,161.0,M,-34.4,M,0000,0000*53
lng=-77.437751, lat=43.138355, altitude=161.00, speed=0.00, satellites=10, angle=179.0700, fixquality=2
$GPRMC,193325.200,A,4308.3013,N,07726.2652,W,0.00,179.07,220319,,,D*7E
$GPGGA,193325.400,4308.3013,N,07726.2652,W,2,10,0.89,161.0,M,-34.4,M,0000,0000*57
lng=-77.437751, lat=43.138355, altitude=161.00, speed=0.00, satellites=10, angle=179.0700, fixquality=2
$GPRMC,193325.600,A,4308.3013,N,07726.2652,W,0.00,179.07,220319,,,D*7A
$GPGGA,193325.800,4308.3013,N,07726.2652,W,2,10,0.89,161.0,M,-34.4,M,0000,0000*5B
lng=-77.437751, lat=43.138355, altitude=161.00, speed=0.00, satellites=10, angle=179.0700, fixquality=2
$GPRMC,193326.000,A,4308.3013,N,07726.2652,W,0.00,179.07,220319,,,D*7F
$GPGGA,193326.200,4308.3013,N,07726.2652,W,2,10,0.89,161.0,M,-34.4,M,0000,0000*52
lng=-77.437751, lat=43.138355, altitude=161.00, speed=0.00, satellites=10, angle=179.0700, fixquality=2
$GPRMC,193326.400,A,4308.3013,N,07726.2652,W,0.00,179.07,220319,,,D*7B
$GPGGA,193326.600,4308.3013,N,07726.2652,W,2,10,0.89,161.0,M,-34.4,M,0000,0000*56
lng=-77.437751, lat=43.138355, altitude=161.00, speed=0.00, satellites=10, angle=179.0700, fixquality=2
$GPRMC,193326.800,A,4308.3013,N,07726.2652,W,0.00,179.07,220319,,,D*77
$GPGGA,193327.000,4308.3013,N,07726.2652,W,2,10,0.89,161.0,M,-34.4,M,0000,0000*51
lng=-77.437751, lat=43.138355, altitude=161.00, speed=0.00, satellites=10, angle=179.0700, fixquality=2
$GPRMC,193327.200,A,4308.3013,N,07726.2652,W,0.00,179.07,220319,,,D*7C
$GPGGA,193327.400,4308.3013,N,07726.2652,W,2,10,0.89,161.0,M,-34.4,M,0000,0000*55
lng=-77.437751, lat=43.138355, altitude=161.00, speed=0.00, satellites=10, angle=179.0700, fixquality=2
$GPRMC,193327.600,A,4308.3013,N,07726.2652,W,0.00,179.07,220319,,,D*78
$GPGGA,193327.800,4308.3013,N,07726.2652,W,2,10,0.89,161.0,M,-34.4,M,0000,0000*59
lng=-77.437751, lat=43.138355, altitude=161.00, speed=0.00, satellites=10, angle=179.0700, fixquality=2
$GPRMC,193328.000,A,4308.3013,N,07726.2652,W,0.00,179.07,220319,,,D*71
$GPGGA,193328.200,4308.3013,N,07726.2652,W,2,10,0.89,161.0,M,-34.4,M,0000,0000*5C
lng=-77.437751, lat=43.138355, altitude=161.00, speed=0.00, satellites=10, angle=179.0700, fixquality=2
$GPRMC,193328.400,A,4308.3013,N,07726.2652,W,0.00,179.07,220319,,,D*75
$GPGGA,193328.600,4308.3013,N,07726.2652,W,2,10,0.89,161.0,M,-34.4,M,0000,0000*58
lng=-77.437751, lat=43.138355, altitude=161.00, speed=0.00, satellites=10, angle=179.0700, fixquality=2
$GPRMC,193328.800,A,4308.3013,N,07726.2652,W,0.00,179.07,220319,,,D*79
$GPGGA,193329.000,4308.3013,N,07726.2652,W,2,10,0.89,161.0,M,-34.4,M,0000,0000*5F
lng=-77.437751, lat=43.138355, altitude=161.00, speed=0.00, satellites=10, angle=179.0700, fixquality=2
$GPRMC,193329.200,A,4308.3013,N,07726.2652,W,0.00,179.07,220319,,,D*72
$GPGGA,193329.400,4308.3013,N,07726.2652,W,2,10,0.89,161.0,M,-34.4,M,0000,0000*5B
lng=-77.437751, lat=43.138355, altitude=161.00, speed=0.00, satellites=10, angle=179.0700, fixquality=2
$GPRMC,193329.600,A,4308.3013,N,07726.2652,W,0.00,179.07,220319,,,D*76
$GPGGA,193329.800,4308.3013,N,07726.2652,W,2,10,0.89,161.0,M,-34.4,M,0000,0000*57
lng=-77.437751, lat=43.138355, altitude=161.00, speed=0.00, satellites=10, angle=179.0700, fixquality=2
$GPRMC,193330.000,A,4308.3013,N,07726.2652,W,0.00,179.07,220319,,,D*78
$GPGGA,193330.200,4308.3013,N,07726.2652,W,2,10,0.89,161.0,M,-34.4,M,0000,0000*55
lng=-77.437751, lat=43.138355, altitude=161.00, speed=0.00, satellites=10, angle=179.0700, fixquality=2
$GPRMC,193330.400,A,4308.3013,N,07726.2652,W,0.00,179.07,220319,,,D*7C
$GPGGA,193330.600,4308.3013,N,07726.2652,W,2,10,0.89,161.0,M,-34.4,M,0000,0000*51
lng=-77.437751, lat=43.138355, altitude=161.00, speed=0.00, satellites=10, angle=179.0700, fixquality=2
$GPRMC,193330.800,A,4308.3013,N,07726.2652,W,0.00,179.07,220319,,,D*70
$GPGGA,193331.000,4308.3013,N,07726.2652,W,2,10,0.89,161.0,M,-34.4,M,0000,0000*56
lng=-77.437751, lat=43.138355, altitude=161.00, speed=0.00, satellites=10, angle=179.0700, fixquality=2
$GPRMC,193331.200,A,4308.3013,N,07726.2652,W,0.00,179.07,220319,,,D*7B
$GPGGA,193331.400,4308.3013,N,07726.2652,W,2,10,0.89,161.0,M,-34.4,M,0000,0000*52
lng=-77.437751, lat=43.138355, altitude=161.00, speed=0.00, satellites=10, angle=179.0700, fixquality=2
$GPRMC,193331.600,A,4308.3013,N,07726.2651,W,0.00,179.07,220319,,,D*7C
$GPGGA,193331.800,4308.3013,N,07726.2651,W,2,10,0.85,161.0,M,-34.4,M,0000,0000*51
lng=-77.437751, lat=43.138355, altitude=161.00, speed=0.00, satellites=10, angle=179.0700, fixquality=2
$GPRMC,193332.000,A,4308.3013,N,07726.2651,W,0.06,179.07,220319,,,D*7F
$GPGGA,193332.200,4308.3013,N,07726.2651,W,2,10,0.85,161.0,M,-34.4,M,0000,0000*58
lng=-77.437751, lat=43.138355, altitude=161.00, speed=0.06, satellites=10, angle=179.0700, fixquality=2
$GPRMC,193332.400,A,4308.3013,N,07726.2651,W,0.08,179.07,220319,,,D*75
$GPGGA,193332.600,4308.3013,N,07726.2651,W,2,10,0.85,161.0,M,-34.4,M,0000,0000*5C
lng=-77.437751, lat=43.138355, altitude=161.00, speed=0.08, satellites=10, angle=179.0700, fixquality=2
$GPRMC,193332.800,A,4308.3013,N,07726.2651,W,0.13,179.07,220319,,,D*73
$GPGGA,193333.000,4308.3013,N,07726.2651,W,2,10,0.85,160.9,M,-34.4,M,0000,0000*53
lng=-77.437751, lat=43.138355, altitude=161.00, speed=0.13, satellites=10, angle=179.0700, fixquality=2
$GPRMC,193333.200,A,4308.3013,N,07726.2651,W,0.17,179.07,220319,,,D*7C
$GPGGA,193333.400,4308.3013,N,07726.2651,W,2,10,0.85,160.9,M,-34.4,M,0000,0000*57
lng=-77.437751, lat=43.138355, altitude=160.90, speed=0.17, satellites=10, angle=179.0700, fixquality=2
$GPRMC,193333.600,A,4308.3013,N,07726.2650,W,0.22,179.07,220319,,,D*7F
$GPGGA,193333.800,4308.3013,N,07726.2650,W,2,10,0.85,160.9,M,-34.4,M,0000,0000*5A
lng=-77.437751, lat=43.138355, altitude=160.90, speed=0.22, satellites=10, angle=179.0700, fixquality=2
$GPRMC,193334.000,A,4308.3013,N,07726.2650,W,0.25,179.07,220319,,,D*79
$GPGGA,193334.200,4308.3013,N,07726.2650,W,2,10,0.85,160.9,M,-34.4,M,0000,0000*57
lng=-77.437751, lat=43.138355, altitude=160.90, speed=0.25, satellites=10, angle=179.0700, fixquality=2
$GPRMC,193334.400,A,4308.3013,N,07726.2650,W,0.31,179.07,220319,,,D*78
$GPGGA,193334.600,4308.3013,N,07726.2649,W,2,10,0.85,160.9,M,-34.4,M,0000,0000*5B
lng=-77.437751, lat=43.138355, altitude=160.90, speed=0.31, satellites=10, angle=179.0700, fixquality=2
$GPRMC,193334.800,A,4308.3013,N,07726.2649,W,0.00,179.07,220319,,,D*7E
$GPGGA,193335.000,4308.3013,N,07726.2649,W,2,10,0.89,160.9,M,-34.4,M,0000,0000*50
lng=-77.437751, lat=43.138355, altitude=160.90, speed=0.00, satellites=10, angle=179.0700, fixquality=2
$GPRMC,193335.200,A,4308.3013,N,07726.2649,W,0.00,179.07,220319,,,D*75
$GPGGA,193335.400,4308.3013,N,07726.2649,W,2,10,0.89,160.9,M,-34.4,M,0000,0000*54
lng=-77.437751, lat=43.138355, altitude=160.90, speed=0.00, satellites=10, angle=179.0700, fixquality=2
$GPRMC,193335.600,A,4308.3013,N,07726.2649,W,0.00,179.07,220319,,,D*71
$GPGGA,193335.800,4308.3013,N,07726.2649,W,2,10,0.89,160.9,M,-34.4,M,0000,0000*58
lng=-77.437751, lat=43.138355, altitude=160.90, speed=0.00, satellites=10, angle=179.0700, fixquality=2
$GPRMC,193336.000,A,4308.3013,N,07726.2649,W,0.00,179.07,220319,,,D*74
$GPGGA,193336.200,4308.3013,N,07726.2649,W,2,10,0.89,160.9,M,-34.4,M,0000,0000*51
lng=-77.437751, lat=43.138355, altitude=160.90, speed=0.00, satellites=10, angle=179.0700, fixquality=2
$GPRMC,193336.400,A,4308.3013,N,07726.2649,W,0.00,179.07,220319,,,D*70
$GPGGA,193336.600,4308.3013,N,07726.2649,W,2,10,0.89,160.9,M,-34.4,M,0000,0000*55
lng=-77.437751, lat=43.138355, altitude=160.90, speed=0.00, satellites=10, angle=179.0700, fixquality=2
$GPRMC,193336.800,A,4308.3013,N,07726.2649,W,0.00,179.07,220319,,,D*7C
$GPGGA,193337.000,4308.3013,N,07726.2649,W,2,10,0.89,160.9,M,-34.4,M,0000,0000*52
lng=-77.437751, lat=43.138355, altitude=160.90, speed=0.00, satellites=10, angle=179.0700, fixquality=2
$GPRMC,193337.200,A,4308.3013,N,07726.2649,W,0.00,179.07,220319,,,D*77
$GPGGA,193337.400,4308.3013,N,07726.2649,W,2,10,0.89,160.9,M,-34.4,M,0000,0000*56
lng=-77.437751, lat=43.138355, altitude=160.90, speed=0.00, satellites=10, angle=179.0700, fixquality=2
$GPRMC,193337.600,A,4308.3013,N,07726.2649,W,0.00,179.07,220319,,,D*73
$GPGGA,193337.800,4308.3013,N,07726.2649,W,2,10,0.89,160.9,M,-34.4,M,0000,0000*5A
lng=-77.437751, lat=43.138355, altitude=160.90, speed=0.00, satellites=10, angle=179.0700, fixquality=2
$GPRMC,193338.000,A,4308.3013,N,07726.2649,W,0.00,179.07,220319,,,D*7A
$GPGGA,193338.200,4308.3013,N,07726.2649,W,2,10,0.89,160.9,M,-34.4,M,0000,0000*5F
lng=-77.437751, lat=43.138355, altitude=160.90, speed=0.00, satellites=10, angle=179.0700, fixquality=2
$GPRMC,193338.400,A,4308.3013,N,07726.2649,W,0.00,179.07,220319,,,D*7E
$GPGGA,193338.600,4308.3013,N,07726.2649,W,2,10,0.89,160.9,M,-34.4,M,0000,0000*5B
lng=-77.437751, lat=43.138355, altitude=160.90, speed=0.00, satellites=10, angle=179.0700, fixquality=2
$GPRMC,193338.800,A,4308.3013,N,07726.2649,W,0.00,179.07,220319,,,D*72
$GPGGA,193339.000,4308.3013,N,07726.2649,W,2,10,0.89,160.9,M,-34.4,M,0000,0000*5C
lng=-77.437751, lat=43.138355, altitude=160.90, speed=0.00, satellites=10, angle=179.0700, fixquality=2
$GPRMC,193339.200,A,4308.3013,N,07726.2649,W,0.00,179.07,220319,,,D*79
$GPGGA,193339.400,4308.3013,N,07726.2649,W,2,10,0.89,160.9,M,-34.4,M,0000,0000*58
lng=-77.437751, lat=43.138355, altitude=160.90, speed=0.00, satellites=10, angle=179.0700, fixquality=2
$GPRMC,193339.600,A,4308.3013,N,07726.2649,W,0.00,179.07,220319,,,D*7D
$GPGGA,193339.800,4308.3013,N,07726.2649,W,2,10,0.89,160.9,M,-34.4,M,0000,0000*54
lng=-77.437751, lat=43.138355, altitude=160.90, speed=0.00, satellites=10, angle=179.0700, fixquality=2
$GPRMC,193340.000,A,4308.3013,N,07726.2649,W,0.00,179.07,220319,,,D*75
$GPGGA,193340.200,4308.3013,N,07726.2649,W,2,10,0.89,160.9,M,-34.4,M,0000,0000*50
lng=-77.437751, lat=43.138355, altitude=160.90, speed=0.00, satellites=10, angle=179.0700, fixquality=2
$GPRMC,193340.400,A,4308.3013,N,07726.2649,W,0.00,179.07,220319,,,D*71
$GPGGA,193340.600,4308.3013,N,07726.2649,W,2,10,0.89,160.9,M,-34.4,M,0000,0000*54
lng=-77.437751, lat=43.138355, altitude=160.90, speed=0.00, satellites=10, angle=179.0700, fixquality=2
$GPRMC,193340.800,A,4308.3013,N,07726.2649,W,0.00,179.07,220319,,,D*7D
$GPGGA,193341.000,4308.3013,N,07726.2649,W,2,10,0.89,160.9,M,-34.4,M,0000,0000*53
lng=-77.437751, lat=43.138355, altitude=160.90, speed=0.00, satellites=10, angle=179.0700, fixquality=2
$GPRMC,193341.200,A,4308.3013,N,07726.2649,W,0.00,179.07,220319,,,D*76
$GPGGA,193341.400,4308.3013,N,07726.2649,W,2,10,0.89,160.9,M,-34.4,M,0000,0000*57
lng=-77.437751, lat=43.138355, altitude=160.90, speed=0.00, satellites=10, angle=179.0700, fixquality=2
$GPRMC,193341.600,A,4308.3013,N,07726.2649,W,0.00,179.07,220319,,,D*72
$GPGGA,193341.800,4308.3013,N,07726.2649,W,2,10,0.89,160.9,M,-34.4,M,0000,0000*5B
lng=-77.437751, lat=43.138355, altitude=160.90, speed=0.00, satellites=10, angle=179.0700, fixquality=2
$GPRMC,193342.000,A,4308.3013,N,07726.2649,W,0.00,179.07,220319,,,D*77
$GPGGA,193342.200,4308.3013,N,07726.2649,W,2,10,0.89,160.9,M,-34.4,M,0000,0000*52
lng=-77.437751, lat=43.138355, altitude=160.90, speed=0.00, satellites=10, angle=179.0700, fixquality=2
$GPRMC,193342.400,A,4308.3013,N,07726.2649,W,0.00,179.07,220319,,,D*73
$GPGGA,193342.600,4308.3013,N,07726.2649,W,2,10,0.89,160.9,M,-34.4,M,0000,0000*56
lng=-77.437751, lat=43.138355, altitude=160.90, speed=0.00, satellites=10, angle=179.0700, fixquality=2
$GPRMC,193342.800,A,4308.3013,N,07726.2649,W,0.00,179.07,220319,,,D*7F
$GPGGA,193343.000,4308.3013,N,07726.2649,W,2,10,0.89,160.9,M,-34.4,M,0000,0000*51
lng=-77.437751, lat=43.138355, altitude=160.90, speed=0.00, satellites=10, angle=179.0700, fixquality=2
$GPRMC,193343.200,A,4308.3013,N,07726.2649,W,0.00,179.07,220319,,,D*74
$GPGGA,193343.400,4308.3013,N,07726.2649,W,2,10,0.89,160.9,M,-34.4,M,0000,0000*55
lng=-77.437751, lat=43.138355, altitude=160.90, speed=0.00, satellites=10, angle=179.0700, fixquality=2
$GPRMC,193343.600,A,4308.3013,N,07726.2649,W,0.00,179.07,220319,,,D*70
$GPGGA,193343.800,4308.3013,N,07726.2649,W,2,10,0.89,160.9,M,-34.4,M,0000,0000*59
lng=-77.437751, lat=43.138355, altitude=160.90, speed=0.00, satellites=10, angle=179.0700, fixquality=2
$GPRMC,193344.000,A,4308.3013,N,07726.2649,W,0.00,179.07,220319,,,D*71
$GPGGA,193344.200,4308.3013,N,07726.2649,W,2,10,0.89,160.9,M,-34.4,M,0000,0000*54
lng=-77.437751, lat=43.138355, altitude=160.90, speed=0.00, satellites=10, angle=179.0700, fixquality=2
$GPRMC,193344.400,A,4308.3013,N,07726.2649,W,0.00,179.07,220319,,,D*75
$GPGGA,193344.600,4308.3013,N,07726.2649,W,2,10,0.89,160.9,M,-34.4,M,0000,0000*50
lng=-77.437751, lat=43.138355, altitude=160.90, speed=0.00, satellites=10, angle=179.0700, fixquality=2
$GPRMC,193344.800,A,4308.3013,N,07726.2649,W,0.00,179.07,220319,,,D*79
$GPGGA,193345.000,4308.3013,N,07726.2649,W,2,10,0.89,160.9,M,-34.4,M,0000,0000*57
lng=-77.437751, lat=43.138355, altitude=160.90, speed=0.00, satellites=10, angle=179.0700, fixquality=2
$GPRMC,193345.200,A,4308.3013,N,07726.2649,W,0.00,179.07,220319,,,D*72
$GPGGA,193345.400,4308.3013,N,07726.2649,W,2,10,0.89,160.9,M,-34.4,M,0000,0000*53
lng=-77.437751, lat=43.138355, altitude=160.90, speed=0.00, satellites=10, angle=179.0700, fixquality=2
$GPRMC,193345.600,A,4308.3013,N,07726.2649,W,0.00,179.07,220319,,,D*76
$GPGGA,193345.800,4308.3013,N,07726.2649,W,2,10,0.89,160.9,M,-34.4,M,0000,0000*5F
lng=-77.437751, lat=43.138355, altitude=160.90, speed=0.00, satellites=10, angle=179.0700, fixquality=2
$GPRMC,193346.000,A,4308.3013,N,07726.2649,W,0.00,179.07,220319,,,D*73
$GPGGA,193346.200,4308.3013,N,07726.2649,W,2,10,0.89,160.9,M,-34.4,M,0000,0000*56
lng=-77.437751, lat=43.138355, altitude=160.90, speed=0.00, satellites=10, angle=179.0700, fixquality=2
$GPRMC,193346.400,A,4308.3013,N,07726.2649,W,0.00,179.07,220319,,,D*77
$GPGGA,193346.600,4308.3013,N,07726.2649,W,2,10,0.89,160.9,M,-34.4,M,0000,0000*52
lng=-77.437751, lat=43.138355, altitude=160.90, speed=0.00, satellites=10, angle=179.0700, fixquality=2
$GPRMC,193346.800,A,4308.3013,N,07726.2649,W,0.00,179.07,220319,,,D*7B
$GPGGA,193347.000,4308.3013,N,07726.2649,W,2,10,0.89,160.9,M,-34.4,M,0000,0000*55
lng=-77.437751, lat=43.138355, altitude=160.90, speed=0.00, satellites=10, angle=179.0700, fixquality=2
$GPRMC,193347.200,A,4308.3013,N,07726.2649,W,0.00,179.07,220319,,,D*70
$GPGGA,193347.400,4308.3013,N,07726.2649,W,2,10,0.89,160.9,M,-34.4,M,0000,0000*51
lng=-77.437751, lat=43.138355, altitude=160.90, speed=0.00, satellites=10, angle=179.0700, fixquality=2
$GPRMC,193347.600,A,4308.3013,N,07726.2649,W,0.00,179.07,220319,,,D*74
$GPGGA,193347.800,4308.3013,N,07726.2649,W,2,10,0.89,160.9,M,-34.4,M,0000,0000*5D
lng=-77.437751, lat=43.138355, altitude=160.90, speed=0.00, satellites=10, angle=179.0700, fixquality=2
$GPRMC,193348.000,A,4308.3013,N,07726.2649,W,0.00,179.07,220319,,,D*7D
$GPGGA,193348.200,4308.3013,N,07726.2649,W,2,10,0.89,160.9,M,-34.4,M,0000,0000*58
lng=-77.437751, lat=43.138355, altitude=160.90, speed=0.00, satellites=10, angle=179.0700, fixquality=2
$GPRMC,193348.400,A,4308.3013,N,07726.2649,W,0.00,179.07,220319,,,D*79
$GPGGA,193348.600,4308.3013,N,07726.2649,W,2,10,0.89,160.9,M,-34.4,M,0000,0000*5C
lng=-77.437751, lat=43.138355, altitude=160.90, speed=0.00, satellites=10, angle=179.0700, fixquality=2
$GPRMC,193348.800,A,4308.3013,N,07726.2649,W,0.00,179.07,220319,,,D*75
$GPGGA,193349.000,4308.3013,N,07726.2649,W,2,10,0.89,160.9,M,-34.4,M,0000,0000*5B
lng=-77.437751, lat=43.138355, altitude=160.90, speed=0.00, satellites=10, angle=179.0700, fixquality=2
$GPRMC,193349.200,A,4308.3013,N,07726.2649,W,0.00,179.07,220319,,,D*7E
$GPGGA,193349.400,4308.3013,N,07726.2649,W,2,10,0.89,160.9,M,-34.4,M,0000,0000*5F
lng=-77.437751, lat=43.138355, altitude=160.90, speed=0.00, satellites=10, angle=179.0700, fixquality=2
$GPRMC,193349.600,A,4308.3013,N,07726.2649,W,0.00,179.07,220319,,,D*7A
$GPGGA,193349.800,4308.3013,N,07726.2649,W,2,10,0.89,160.9,M,-34.4,M,0000,0000*53
lng=-77.437751, lat=43.138355, altitude=160.90, speed=0.00, satellites=10, angle=179.0700, fixquality=2
$GPRMC,193350.000,A,4308.3013,N,07726.2649,W,0.00,179.07,220319,,,D*74
$GPGGA,193350.200,4308.3013,N,07726.2649,W,2,10,0.89,160.9,M,-34.4,M,0000,0000*51
lng=-77.437751, lat=43.138355, altitude=160.90, speed=0.00, satellites=10, angle=179.0700, fixquality=2
$GPRMC,193350.400,A,4308.3013,N,07726.2649,W,0.00,179.07,220319,,,D*70
$GPGGA,193350.600,4308.3013,N,07726.2649,W,2,10,0.89,160.9,M,-34.4,M,0000,0000*55
lng=-77.437751, lat=43.138355, altitude=160.90, speed=0.00, satellites=10, angle=179.0700, fixquality=2
$GPRMC,193350.800,A,4308.3013,N,07726.2649,W,0.00,179.07,220319,,,D*7C
$GPGGA,193351.000,4308.3013,N,07726.2649,W,2,10,0.89,160.9,M,-34.4,M,0000,0000*52
lng=-77.437751, lat=43.138355, altitude=160.90, speed=0.00, satellites=10, angle=179.0700, fixquality=2
$GPRMC,193351.200,A,4308.3013,N,07726.2649,W,0.00,179.07,220319,,,D*77
$GPGGA,193351.400,4308.3013,N,07726.2649,W,2,10,0.89,160.9,M,-34.4,M,0000,0000*56
lng=-77.437751, lat=43.138355, altitude=160.90, speed=0.00, satellites=10, angle=179.0700, fixquality=2
$GPRMC,193351.600,A,4308.3013,N,07726.2649,W,0.00,179.07,220319,,,D*73
$GPGGA,193351.800,4308.3013,N,07726.2649,W,2,10,0.89,160.9,M,-34.4,M,0000,0000*5A
lng=-77.437751, lat=43.138355, altitude=160.90, speed=0.00, satellites=10, angle=179.0700, fixquality=2
$GPRMC,193352.000,A,4308.3013,N,07726.2649,W,0.00,179.07,220319,,,D*76
$GPGGA,193352.200,4308.3013,N,07726.2649,W,2,10,0.89,160.9,M,-34.4,M,0000,0000*53
lng=-77.437751, lat=43.138355, altitude=160.90, speed=0.00, satellites=10, angle=179.0700, fixquality=2
$GPRMC,193352.400,A,4308.3013,N,07726.2649,W,0.00,179.07,220319,,,D*72
$GPGGA,193352.600,4308.3013,N,07726.2649,W,2,10,0.89,160.9,M,-34.4,M,0000,0000*57
lng=-77.437751, lat=43.138355, altitude=160.90, speed=0.00, satellites=10, angle=179.0700, fixquality=2
$GPRMC,193352.800,A,4308.3013,N,07726.2649,W,0.00,179.07,220319,,,D*7E
$GPGGA,193353.000,4308.3013,N,07726.2649,W,2,10,0.89,160.9,M,-34.4,M,0000,0000*50
lng=-77.437751, lat=43.138355, altitude=160.90, speed=0.00, satellites=10, angle=179.0700, fixquality=2
$GPRMC,193353.200,A,4308.3013,N,07726.2649,W,0.00,179.07,220319,,,D*75
$GPGGA,193353.400,4308.3013,N,07726.2649,W,2,10,0.89,160.9,M,-34.4,M,0000,0000*54
lng=-77.437751, lat=43.138355, altitude=160.90, speed=0.00, satellites=10, angle=179.0700, fixquality=2
$GPRMC,193353.600,A,4308.3013,N,07726.2649,W,0.00,179.07,220319,,,D*71
$GPGGA,193353.800,4308.3013,N,07726.2649,W,2,10,0.89,160.9,M,-34.4,M,0000,0000*58
lng=-77.437751, lat=43.138355, altitude=160.90, speed=0.00, satellites=10, angle=179.0700, fixquality=2
$GPRMC,193354.000,A,4308.3013,N,07726.2649,W,0.00,179.07,220319,,,D*70
$GPGGA,193354.200,4308.3013,N,07726.2649,W,2,10,0.89,160.9,M,-34.4,M,0000,0000*55
lng=-77.437751, lat=43.138355, altitude=160.90, speed=0.00, satellites=10, angle=179.0700, fixquality=2
$GPRMC,193354.400,A,4308.3013,N,07726.2649,W,0.00,179.07,220319,,,D*74
$GPGGA,193354.600,4308.3013,N,07726.2649,W,2,10,0.89,160.9,M,-34.4,M,0000,0000*51
lng=-77.437751, lat=43.138355, altitude=160.90, speed=0.00, satellites=10, angle=179.0700, fixquality=2
$GPRMC,193354.800,A,4308.3013,N,07726.2649,W,0.00,179.07,220319,,,D*78
$GPGGA,193355.000,4308.3013,N,07726.2649,W,2,10,0.89,160.9,M,-34.4,M,0000,0000*56
lng=-77.437751, lat=43.138355, altitude=160.90, speed=0.00, satellites=10, angle=179.0700, fixquality=2
$GPRMC,193355.200,A,4308.3013,N,07726.2649,W,0.00,179.07,220319,,,D*73
$GPGGA,193355.400,4308.3013,N,07726.2649,W,2,10,0.89,160.9,M,-34.4,M,0000,0000*52
lng=-77.437751, lat=43.138355, altitude=160.90, speed=0.00, satellites=10, angle=179.0700, fixquality=2
$GPRMC,193355.600,A,4308.3013,N,07726.2649,W,0.00,179.07,220319,,,D*77
$GPGGA,193355.800,4308.3013,N,07726.2649,W,2,10,0.89,160.9,M,-34.4,M,0000,0000*5E
lng=-77.437751, lat=43.138355, altitude=160.90, speed=0.00, satellites=10, angle=179.0700, fixquality=2
$GPRMC,193356.000,A,4308.3013,N,07726.2649,W,0.00,179.07,220319,,,D*72
$GPGGA,193356.200,4308.3013,N,07726.2649,W,2,10,0.89,160.9,M,-34.4,M,0000,0000*57
lng=-77.437751, lat=43.138355, altitude=160.90, speed=0.00, satellites=10, angle=179.0700, fixquality=2
$GPRMC,193356.400,A,4308.3013,N,07726.2649,W,0.00,179.07,220319,,,D*76
$GPGGA,193356.600,4308.3013,N,07726.2649,W,2,10,0.89,160.9,M,-34.4,M,0000,0000*53
lng=-77.437751, lat=43.138355, altitude=160.90, speed=0.00, satellites=10, angle=179.0700, fixquality=2
$GPRMC,193356.800,A,4308.3013,N,07726.2649,W,0.00,179.07,220319,,,D*7A
$GPGGA,193357.000,4308.3013,N,07726.2649,W,2,10,0.89,160.9,M,-34.4,M,0000,0000*54
lng=-77.437751, lat=43.138355, altitude=160.90, speed=0.00, satellites=10, angle=179.0700, fixquality=2
$GPRMC,193357.200,A,4308.3013,N,07726.2649,W,0.00,179.07,220319,,,D*71
$GPGGA,193357.400,4308.3013,N,07726.2649,W,2,10,0.89,160.9,M,-34.4,M,0000,0000*50
lng=-77.437751, lat=43.138355, altitude=160.90, speed=0.00, satellites=10, angle=179.0700, fixquality=2
$GPRMC,193357.600,A,4308.3013,N,07726.2649,W,0.00,179.07,220319,,,D*75
$GPGGA,193357.800,4308.3013,N,07726.2649,W,2,10,0.89,160.9,M,-34.4,M,0000,0000*5C
lng=-77.437751, lat=43.138355, altitude=160.90, speed=0.00, satellites=10, angle=179.0700, fixquality=2
$GPRMC,193358.000,A,4308.3013,N,07726.2649,W,0.00,179.07,220319,,,D*7C
$GPGGA,193358.200,4308.3013,N,07726.2649,W,2,10,0.89,160.9,M,-34.4,M,0000,0000*59
lng=-77.437751, lat=43.138355, altitude=160.90, speed=0.00, satellites=10, angle=179.0700, fixquality=2
$GPRMC,193358.400,A,4308.3013,N,07726.2649,W,0.00,179.07,220319,,,D*78
$GPGGA,193358.600,4308.3013,N,07726.2649,W,2,10,0.89,160.9,M,-34.4,M,0000,0000*5D
lng=-77.437751, lat=43.138355, altitude=160.90, speed=0.00, satellites=10, angle=179.0700, fixquality=2
$GPRMC,193358.800,A,4308.3013,N,07726.2649,W,0.00,179.07,220319,,,D*74
$GPGGA,193359.000,4308.3013,N,07726.2649,W,2,10,0.89,160.9,M,-34.4,M,0000,0000*5A
lng=-77.437751, lat=43.138355, altitude=160.90, speed=0.00, satellites=10, angle=179.0700, fixquality=2
$GPRMC,193359.200,A,4308.3013,N,07726.2649,W,0.00,179.07,220319,,,D*7F
$GPGGA,193359.400,4308.3013,N,07726.2649,W,2,10,0.89,160.9,M,-34.4,M,0000,0000*5E
lng=-77.437751, lat=43.138355, altitude=160.90, speed=0.00, satellites=10, angle=179.0700, fixquality=2
$GPRMC,193359.600,A,4308.3013,N,07726.2649,W,0.06,179.07,220319,,,D*7D
$GPGGA,193359.800,4308.3013,N,07726.2649,W,2,10,0.89,160.9,M,-34.4,M,0000,0000*52
lng=-77.437751, lat=43.138355, altitude=160.90, speed=0.06, satellites=10, angle=179.0700, fixquality=2
$GPRMC,193400.000,A,4308.3013,N,07726.2649,W,0.00,179.07,220319,,,D*76
$GPGGA,193400.200,4308.3013,N,07726.2649,W,2,10,0.89,160.9,M,-34.4,M,0000,0000*53
lng=-77.437751, lat=43.138355, altitude=160.90, speed=0.00, satellites=10, angle=179.0700, fixquality=2
$GPRMC,193400.400,A,4308.3013,N,07726.2649,W,0.00,179.07,220319,,,D*72
$GPGGA,193400.600,4308.3013,N,07726.2649,W,2,10,0.89,160.9,M,-34.4,M,0000,0000*57
lng=-77.437751, lat=43.138355, altitude=160.90, speed=0.00, satellites=10, angle=179.0700, fixquality=2
$GPRMC,193400.800,A,4308.3013,N,07726.2649,W,0.00,179.07,220319,,,D*7E
$GPGGA,193401.000,4308.3013,N,07726.2649,W,2,10,0.89,160.9,M,-34.4,M,0000,0000*50
lng=-77.437751, lat=43.138355, altitude=160.90, speed=0.00, satellites=10, angle=179.0700, fixquality=2
$GPRMC,193401.200,A,4308.3013,N,07726.2649,W,0.00,179.07,220319,,,D*75
$GPGGA,193401.400,4308.3013,N,07726.2649,W,2,10,0.89,160.9,M,-34.4,M,0000,0000*54
lng=-77.437751, lat=43.138355, altitude=160.90, speed=0.00, satellites=10, angle=179.0700, fixquality=2
$GPRMC,193401.600,A,4308.3013,N,07726.2649,W,0.00,179.07,220319,,,D*71
$GPGGA,193401.800,4308.3013,N,07726.2649,W,2,10,0.89,160.9,M,-34.4,M,0000,0000*58
lng=-77.437751, lat=43.138355, altitude=160.90, speed=0.00, satellites=10, angle=179.0700, fixquality=2
$GPRMC,193402.000,A,4308.3013,N,07726.2649,W,0.00,179.07,220319,,,D*74
$GPGGA,193402.200,4308.3013,N,07726.2649,W,2,10,0.89,160.9,M,-34.4,M,0000,0000*51
lng=-77.437751, lat=43.138355, altitude=160.90, speed=0.00, satellites=10, angle=179.0700, fixquality=2
$GPRMC,193402.400,A,4308.3013,N,07726.2649,W,0.00,179.07,220319,,,D*70
$GPGGA,193402.600,4308.3013,N,07726.2649,W,2,10,0.89,160.9,M,-34.4,M,0000,0000*55
lng=-77.437751, lat=43.138355, altitude=160.90, speed=0.00, satellites=10, angle=179.0700, fixquality=2
$GPRMC,193402.800,A,4308.3013,N,07726.2649,W,0.00,179.07,220319,,,D*7C
$GPGGA,193403.000,4308.3013,N,07726.2649,W,2,10,0.89,160.9,M,-34.4,M,0000,0000*52
lng=-77.437751, lat=43.138355, altitude=160.90, speed=0.00, satellites=10, angle=179.0700, fixquality=2
$GPRMC,193403.200,A,4308.3013,N,07726.2649,W,0.00,179.07,220319,,,D*77
$GPGGA,193403.400,4308.3013,N,07726.2649,W,2,10,0.89,160.9,M,-34.4,M,0000,0000*56
lng=-77.437751, lat=43.138355, altitude=160.90, speed=0.00, satellites=10, angle=179.0700, fixquality=2
$GPRMC,193403.600,A,4308.3013,N,07726.2649,W,0.00,179.07,220319,,,D*73
$GPGGA,193403.800,4308.3013,N,07726.2649,W,2,10,0.89,160.9,M,-34.4,M,0000,0000*5A
lng=-77.437751, lat=43.138355, altitude=160.90, speed=0.00, satellites=10, angle=179.0700, fixquality=2
$GPRMC,193404.000,A,4308.3013,N,07726.2649,W,0.00,179.07,220319,,,D*72
$GPGGA,193404.200,4308.3013,N,07726.2649,W,2,10,0.89,160.9,M,-34.4,M,0000,0000*57
lng=-77.437751, lat=43.138355, altitude=160.90, speed=0.00, satellites=10, angle=179.0700, fixquality=2
$GPRMC,193404.400,A,4308.3013,N,07726.2649,W,0.00,179.07,220319,,,D*76
$GPGGA,193404.600,4308.3013,N,07726.2649,W,2,10,0.89,160.9,M,-34.4,M,0000,0000*53
lng=-77.437751, lat=43.138355, altitude=160.90, speed=0.00, satellites=10, angle=179.0700, fixquality=2
$GPRMC,193404.800,A,4308.3013,N,07726.2649,W,0.00,179.07,220319,,,D*7A
$GPGGA,193405.000,4308.3013,N,07726.2649,W,2,10,0.89,160.9,M,-34.4,M,0000,0000*54
lng=-77.437751, lat=43.138355, altitude=160.90, speed=0.00, satellites=10, angle=179.0700, fixquality=2
$GPRMC,193405.200,A,4308.3013,N,07726.2649,W,0.00,179.07,220319,,,D*71
$GPGGA,193405.400,4308.3013,N,07726.2649,W,2,10,0.89,160.9,M,-34.4,M,0000,0000*50
lng=-77.437751, lat=43.138355, altitude=160.90, speed=0.00, satellites=10, angle=179.0700, fixquality=2
$GPRMC,193405.600,A,4308.3013,N,07726.2649,W,0.00,179.07,220319,,,D*75
$GPGGA,193405.800,4308.3013,N,07726.2649,W,2,10,0.89,160.9,M,-34.4,M,0000,0000*5C
lng=-77.437751, lat=43.138355, altitude=160.90, speed=0.00, satellites=10, angle=179.0700, fixquality=2
$GPRMC,193406.000,A,4308.3013,N,07726.2649,W,0.00,179.07,220319,,,D*70
$GPGGA,193406.200,4308.3013,N,07726.2649,W,2,10,0.89,160.9,M,-34.4,M,0000,0000*55
lng=-77.437751, lat=43.138355, altitude=160.90, speed=0.00, satellites=10, angle=179.0700, fixquality=2
$GPRMC,193406.400,A,4308.3013,N,07726.2649,W,0.00,179.07,220319,,,D*74
$GPGGA,193406.600,4308.3013,N,07726.2649,W,2,10,0.89,160.9,M,-34.4,M,0000,0000*51
lng=-77.437751, lat=43.138355, altitude=160.90, speed=0.00, satellites=10, angle=179.0700, fixquality=2
$GPRMC,193406.800,A,4308.3013,N,07726.2649,W,0.00,179.07,220319,,,D*78
$GPGGA,193407.000,4308.3013,N,07726.2649,W,2,10,0.89,160.9,M,-34.4,M,0000,0000*56
lng=-77.437751, lat=43.138355, altitude=160.90, speed=0.00, satellites=10, angle=179.0700, fixquality=2
$GPRMC,193407.200,A,4308.3013,N,07726.2649,W,0.00,179.07,220319,,,D*73
$GPGGA,193407.400,4308.3013,N,07726.2649,W,2,10,0.89,160.9,M,-34.4,M,0000,0000*52
lng=-77.437751, lat=43.138355, altitude=160.90, speed=0.00, satellites=10, angle=179.0700, fixquality=2
$GPRMC,193407.600,A,4308.3013,N,07726.2649,W,0.00,179.07,220319,,,D*77
$GPGGA,193407.800,4308.3013,N,07726.2649,W,2,10,0.89,160.9,M,-34.4,M,0000,0000*5E
lng=-77.437751, lat=43.138355, altitude=160.90, speed=0.00, satellites=10, angle=179.0700, fixquality=2
$GPRMC,193408.000,A,4308.3013,N,07726.2649,W,0.00,179.07,220319,,,D*7E
$GPGGA,193408.200,4308.3013,N,07726.2649,W,2,10,0.89,160.9,M,-34.4,M,0000,0000*5B
lng=-77.437751, lat=43.138355, altitude=160.90, speed=0.00, satellites=10, angle=179.0700, fixquality=2
$GPRMC,193408.400,A,4308.3013,N,07726.2649,W,0.00,179.07,220319,,,D*7A
$GPGGA,193408.600,4308.3013,N,07726.2649,W,2,10,0.89,160.9,M,-34.4,M,0000,0000*5F
lng=-77.437751, lat=43.138355, altitude=160.90, speed=0.00, satellites=10, angle=179.0700, fixquality=2
$GPRMC,193408.800,A,4308.3013,N,07726.2649,W,0.00,179.07,220319,,,D*76
$GPGGA,193409.000,4308.3013,N,07726.2649,W,2,10,0.89,160.9,M,-34.4,M,0000,0000*58
lng=-77.437751, lat=43.138355, altitude=160.90, speed=0.00, satellites=10, angle=179.0700, fixquality=2
$GPRMC,193409.200,A,4308.3013,N,07726.2649,W,0.00,179.07,220319,,,D*7D
$GPGGA,193409.400,4308.3013,N,07726.2649,W,2,10,0.89,160.9,M,-34.4,M,0000,0000*5C
lng=-77.437751, lat=43.138355, altitude=160.90, speed=0.00, satellites=10, angle=179.0700, fixquality=2
$GPRMC,193409.600,A,4308.3013,N,07726.2649,W,0.00,179.07,220319,,,D*79
$GPGGA,193409.800,4308.3013,N,07726.2649,W,2,10,0.89,160.9,M,-34.4,M,0000,0000*50
lng=-77.437751, lat=43.138355, altitude=160.90, speed=0.00, satellites=10, angle=179.0700, fixquality=2
$GPRMC,193410.000,A,4308.3013,N,07726.2649,W,0.00,179.07,220319,,,D*77
$GPGGA,193410.200,4308.3013,N,07726.2649,W,2,10,0.89,160.9,M,-34.4,M,0000,0000*52
lng=-77.437751, lat=43.138355, altitude=160.90, speed=0.00, satellites=10, angle=179.0700, fixquality=2
$GPRMC,193410.400,A,4308.3013,N,07726.2649,W,0.00,179.07,220319,,,D*73
$GPGGA,193410.600,4308.3013,N,07726.2649,W,2,10,0.89,160.9,M,-34.4,M,0000,0000*56
lng=-77.437751, lat=43.138355, altitude=160.90, speed=0.00, satellites=10, angle=179.0700, fixquality=2
$GPRMC,193410.800,A,4308.3013,N,07726.2649,W,0.00,179.07,220319,,,D*7F
$GPGGA,193411.000,4308.3013,N,07726.2649,W,2,10,0.89,160.9,M,-34.4,M,0000,0000*51
lng=-77.437751, lat=43.138355, altitude=160.90, speed=0.00, satellites=10, angle=179.0700, fixquality=2
$GPRMC,193411.200,A,4308.3013,N,07726.2649,W,0.00,179.07,220319,,,D*74
$GPGGA,193411.400,4308.3013,N,07726.2649,W,2,10,0.89,160.9,M,-34.4,M,0000,0000*55
lng=-77.437751, lat=43.138355, altitude=160.90, speed=0.00, satellites=10, angle=179.0700, fixquality=2
$GPRMC,193411.600,A,4308.3013,N,07726.2649,W,0.00,179.07,220319,,,D*70
$GPGGA,193411.800,4308.3013,N,07726.2649,W,2,10,0.89,160.9,M,-34.4,M,0000,0000*59
lng=-77.437751, lat=43.138355, altitude=160.90, speed=0.00, satellites=10, angle=179.0700, fixquality=2
$GPRMC,193412.000,A,4308.3013,N,07726.2649,W,0.00,179.07,220319,,,D*75
$GPGGA,193412.200,4308.3013,N,07726.2649,W,2,10,0.89,160.9,M,-34.4,M,0000,0000*50
lng=-77.437751, lat=43.138355, altitude=160.90, speed=0.00, satellites=10, angle=179.0700, fixquality=2
$GPRMC,193412.400,A,4308.3013,N,07726.2649,W,0.00,179.07,220319,,,D*71
$GPGGA,193412.600,4308.3013,N,07726.2649,W,2,10,0.89,160.9,M,-34.4,M,0000,0000*54
lng=-77.437751, lat=43.138355, altitude=160.90, speed=0.00, satellites=10, angle=179.0700, fixquality=2
$GPRMC,193412.800,A,4308.3013,N,07726.2649,W,0.00,179.07,220319,,,D*7D
$GPGGA,193413.000,4308.3013,N,07726.2649,W,2,10,0.89,160.9,M,-34.4,M,0000,0000*53
lng=-77.437751, lat=43.138355, altitude=160.90, speed=0.00, satellites=10, angle=179.0700, fixquality=2
$GPRMC,193413.200,A,4308.3013,N,07726.2649,W,0.00,179.07,220319,,,D*76
$GPGGA,193413.400,4308.3013,N,07726.2649,W,2,10,0.89,160.9,M,-34.4,M,0000,0000*57
lng=-77.437751, lat=43.138355, altitude=160.90, speed=0.00, satellites=10, angle=179.0700, fixquality=2
$GPRMC,193413.600,A,4308.3013,N,07726.2649,W,0.00,179.07,220319,,,D*72
$GPGGA,193413.800,4308.3013,N,07726.2649,W,2,10,0.89,160.9,M,-34.4,M,0000,0000*5B
lng=-77.437751, lat=43.138355, altitude=160.90, speed=0.00, satellites=10, angle=179.0700, fixquality=2
$GPRMC,193414.000,A,4308.3013,N,07726.2649,W,0.00,179.07,220319,,,D*73
$GPGGA,193414.200,4308.3013,N,07726.2649,W,2,10,0.89,160.9,M,-34.4,M,0000,0000*56
lng=-77.437751, lat=43.138355, altitude=160.90, speed=0.00, satellites=10, angle=179.0700, fixquality=2
$GPRMC,193414.400,A,4308.3013,N,07726.2649,W,0.00,179.07,220319,,,D*77
$GPGGA,193414.600,4308.3013,N,07726.2649,W,2,10,0.89,160.9,M,-34.4,M,0000,0000*52
lng=-77.437751, lat=43.138355, altitude=160.90, speed=0.00, satellites=10, angle=179.0700, fixquality=2
$GPRMC,193414.800,A,4308.3013,N,07726.2649,W,0.00,179.07,220319,,,D*7B
$GPGGA,193415.000,4308.3013,N,07726.2649,W,2,10,0.89,160.9,M,-34.4,M,0000,0000*55
lng=-77.437751, lat=43.138355, altitude=160.90, speed=0.00, satellites=10, angle=179.0700, fixquality=2
$GPRMC,193415.200,A,4308.3013,N,07726.2649,W,0.00,179.07,220319,,,D*70
$GPGGA,193415.400,4308.3013,N,07726.2649,W,2,10,0.89,160.9,M,-34.4,M,0000,0000*51
lng=-77.437751, lat=43.138355, altitude=160.90, speed=0.00, satellites=10, angle=179.0700, fixquality=2
$GPRMC,193415.600,A,4308.3013,N,07726.2649,W,0.00,179.07,220319,,,D*74
$GPGGA,193415.800,4308.3013,N,07726.2649,W,2,10,0.89,160.9,M,-34.4,M,0000,0000*5D
lng=-77.437751, lat=43.138355, altitude=160.90, speed=0.00, satellites=10, angle=179.0700, fixquality=2
$GPRMC,193416.000,A,4308.3013,N,07726.2649,W,0.00,179.07,220319,,,D*71
$GPGGA,193416.200,4308.3013,N,07726.2649,W,2,10,0.89,160.9,M,-34.4,M,0000,0000*54
lng=-77.437751, lat=43.138355, altitude=160.90, speed=0.00, satellites=10, angle=179.0700, fixquality=2
$GPRMC,193416.400,A,4308.3013,N,07726.2649,W,0.00,179.07,220319,,,D*75
$GPGGA,193416.600,4308.3013,N,07726.2649,W,2,10,0.89,160.9,M,-34.4,M,0000,0000*50
lng=-77.437751, lat=43.138355, altitude=160.90, speed=0.00, satellites=10, angle=179.0700, fixquality=2
$GPRMC,193416.800,A,4308.3013,N,07726.2649,W,0.00,179.07,220319,,,D*79
$GPGGA,193417.000,4308.3013,N,07726.2649,W,2,10,0.89,160.9,M,-34.4,M,0000,0000*57
lng=-77.437751, lat=43.138355, altitude=160.90, speed=0.00, satellites=10, angle=179.0700, fixquality=2
$GPRMC,193417.200,A,4308.3013,N,07726.2649,W,0.00,179.07,220319,,,D*72
$GPGGA,193417.400,4308.3013,N,07726.2649,W,2,10,0.89,160.9,M,-34.4,M,0000,0000*53
lng=-77.437751, lat=43.138355, altitude=160.90, speed=0.00, satellites=10, angle=179.0700, fixquality=2
$GPRMC,193417.600,A,4308.3013,N,07726.2649,W,0.00,179.07,220319,,,D*76
$GPGGA,193417.800,4308.3013,N,07726.2649,W,2,10,0.89,160.9,M,-34.4,M,0000,0000*5F
lng=-77.437751, lat=43.138355, altitude=160.90, speed=0.00, satellites=10, angle=179.0700, fixquality=2
$GPRMC,193418.000,A,4308.3013,N,07726.2649,W,0.00,179.07,220319,,,D*7F
$GPGGA,193418.200,4308.3013,N,07726.2649,W,2,10,0.89,160.9,M,-34.4,M,0000,0000*5A
lng=-77.437751, lat=43.138355, altitude=160.90, speed=0.00, satellites=10, angle=179.0700, fixquality=2
$GPRMC,193418.400,A,4308.3013,N,07726.2649,W,0.00,179.07,220319,,,D*7B
$GPGGA,193418.600,4308.3013,N,07726.2649,W,2,09,1.38,160.9,M,-34.4,M,0000,0000*5D
lng=-77.437751, lat=43.138355, altitude=160.90, speed=0.00, satellites=10, angle=179.0700, fixquality=2
$GPRMC,193418.800,A,4308.3013,N,07726.2649,W,0.00,179.07,220319,,,D*77
$GPGGA,193419.000,4308.3013,N,07726.2649,W,2,10,0.89,160.9,M,-34.4,M,0000,0000*59
lng=-77.437751, lat=43.138355, altitude=160.90, speed=0.00, satellites=9, angle=179.0700, fixquality=2
$GPRMC,193419.200,A,4308.3013,N,07726.2649,W,0.00,179.07,220319,,,D*7C
$GPGGA,193419.400,4308.3013,N,07726.2649,W,2,10,0.89,160.9,M,-34.4,M,0000,0000*5D
lng=-77.437751, lat=43.138355, altitude=160.90, speed=0.00, satellites=10, angle=179.0700, fixquality=2
$GPRMC,193419.600,A,4308.3013,N,07726.2649,W,0.00,179.07,220319,,,D*78
$GPGGA,193419.800,4308.3013,N,07726.2649,W,2,10,0.89,160.9,M,-34.4,M,0000,0000*51
lng=-77.437751, lat=43.138355, altitude=160.90, speed=0.00, satellites=10, angle=179.0700, fixquality=2
$GPRMC,193420.000,A,4308.3013,N,07726.2649,W,0.00,179.07,220319,,,D*74
$GPGGA,193420.200,4308.3013,N,07726.2649,W,2,10,0.89,160.9,M,-34.4,M,0000,0000*51
lng=-77.437751, lat=43.138355, altitude=160.90, speed=0.00, satellites=10, angle=179.0700, fixquality=2
$GPRMC,193420.400,A,4308.3013,N,07726.2649,W,0.00,179.07,220319,,,D*70
$GPGGA,193420.600,4308.3013,N,07726.2649,W,2,10,0.89,160.9,M,-34.4,M,0000,0000*55
lng=-77.437751, lat=43.138355, altitude=160.90, speed=0.00, satellites=10, angle=179.0700, fixquality=2
$GPRMC,193420.800,A,4308.3013,N,07726.2649,W,0.00,179.07,220319,,,D*7C
$GPGGA,193421.000,4308.3013,N,07726.2649,W,2,10,0.89,160.9,M,-34.4,M,0000,0000*52
lng=-77.437751, lat=43.138355, altitude=160.90, speed=0.00, satellites=10, angle=179.0700, fixquality=2
$GPRMC,193421.200,A,4308.3013,N,07726.2649,W,0.00,179.07,220319,,,D*77
$GPGGA,193421.400,4308.3013,N,07726.2649,W,2,10,0.89,160.9,M,-34.4,M,0000,0000*56
lng=-77.437751, lat=43.138355, altitude=160.90, speed=0.00, satellites=10, angle=179.0700, fixquality=2
$GPRMC,193421.600,A,4308.3013,N,07726.2649,W,0.00,179.07,220319,,,D*73
$GPGGA,193421.800,4308.3013,N,07726.2649,W,2,10,0.89,160.9,M,-34.4,M,0000,0000*5A
lng=-77.437751, lat=43.138355, altitude=160.90, speed=0.00, satellites=10, angle=179.0700, fixquality=2
$GPRMC,193422.000,A,4308.3013,N,07726.2649,W,0.00,179.07,220319,,,D*76
$GPGGA,193422.200,4308.3013,N,07726.2649,W,2,10,0.89,160.9,M,-34.4,M,0000,0000*53
lng=-77.437751, lat=43.138355, altitude=160.90, speed=0.00, satellites=10, angle=179.0700, fixquality=2
$GPRMC,193422.400,A,4308.3013,N,07726.2649,W,0.00,179.07,220319,,,D*72
$GPGGA,193422.600,4308.3013,N,07726.2649,W,2,09,1.38,160.9,M,-34.4,M,0000,0000*54
lng=-77.437751, lat=43.138355, altitude=160.90, speed=0.00, satellites=10, angle=179.0700, fixquality=2
$GPRMC,193422.800,A,4308.3013,N,07726.2649,W,0.00,179.07,220319,,,D*7E
$GPGGA,193423.000,4308.3013,N,07726.2649,W,2,09,1.38,160.9,M,-34.4,M,0000,0000*53
lng=-77.437751, lat=43.138355, altitude=160.90, speed=0.00, satellites=9, angle=179.0700, fixquality=2
$GPRMC,193423.200,A,4308.3013,N,07726.2649,W,0.00,179.07,220319,,,D*75
$GPGGA,193423.400,4308.3013,N,07726.2649,W,2,09,1.38,160.9,M,-34.4,M,0000,0000*57
lng=-77.437751, lat=43.138355, altitude=160.90, speed=0.00, satellites=9, angle=179.0700, fixquality=2
$GPRMC,193423.600,A,4308.3013,N,07726.2649,W,0.00,179.07,220319,,,D*71
$GPGGA,193423.800,4308.3013,N,07726.2649,W,2,09,1.38,160.9,M,-34.4,M,0000,0000*5B
lng=-77.437751, lat=43.138355, altitude=160.90, speed=0.00, satellites=9, angle=179.0700, fixquality=2
$GPRMC,193424.000,A,4308.3013,N,07726.2649,W,0.00,179.07,220319,,,D*70
$GPGGA,193424.200,4308.3013,N,07726.2649,W,2,10,0.89,160.9,M,-34.4,M,0000,0000*55
lng=-77.437751, lat=43.138355, altitude=160.90, speed=0.00, satellites=9, angle=179.0700, fixquality=2
$GPRMC,193424.400,A,4308.3013,N,07726.2649,W,0.00,179.07,220319,,,D*74
$GPGGA,193424.600,4308.3013,N,07726.2649,W,2,10,0.89,160.9,M,-34.4,M,0000,0000*51
lng=-77.437751, lat=43.138355, altitude=160.90, speed=0.00, satellites=10, angle=179.0700, fixquality=2
$GPRMC,193424.800,A,4308.3013,N,07726.2649,W,0.00,179.07,220319,,,D*78
$GPGGA,193425.000,4308.3013,N,07726.2649,W,2,10,0.89,160.9,M,-34.4,M,0000,0000*56
lng=-77.437751, lat=43.138355, altitude=160.90, speed=0.00, satellites=10, angle=179.0700, fixquality=2
$GPRMC,193425.200,A,4308.3013,N,07726.2649,W,0.00,179.07,220319,,,D*73
$GPGGA,193425.400,4308.3013,N,07726.2649,W,2,10,0.89,160.9,M,-34.4,M,0000,0000*52
lng=-77.437751, lat=43.138355, altitude=160.90, speed=0.00, satellites=10, angle=179.0700, fixquality=2
$GPRMC,193425.600,A,4308.3013,N,07726.2649,W,0.00,179.07,220319,,,D*77
$GPGGA,193425.800,4308.3013,N,07726.2649,W,2,09,1.38,160.9,M,-34.4,M,0000,0000*5D
lng=-77.437751, lat=43.138355, altitude=160.90, speed=0.00, satellites=10, angle=179.0700, fixquality=2
$GPRMC,193426.000,A,4308.3013,N,07726.2649,W,0.00,179.07,220319,,,D*72
$GPGGA,193426.200,4308.3013,N,07726.2649,W,2,09,1.38,160.9,M,-34.4,M,0000,0000*54
lng=-77.437751, lat=43.138355, altitude=160.90, speed=0.00, satellites=9, angle=179.0700, fixquality=2
$GPRMC,193426.400,A,4308.3013,N,07726.2649,W,0.00,179.07,220319,,,D*76
$GPGGA,193426.600,4308.3013,N,07726.2649,W,2,09,1.38,160.9,M,-34.4,M,0000,0000*50
lng=-77.437751, lat=43.138355, altitude=160.90, speed=0.00, satellites=9, angle=179.0700, fixquality=2
$GPRMC,193426.800,A,4308.3013,N,07726.2649,W,0.00,179.07,220319,,,D*7A
$GPGGA,193427.000,4308.3013,N,07726.2649,W,2,09,1.38,160.9,M,-34.4,M,0000,0000*57
lng=-77.437751, lat=43.138355, altitude=160.90, speed=0.00, satellites=9, angle=179.0700, fixquality=2
$GPRMC,193427.200,A,4308.3013,N,07726.2649,W,0.00,179.07,220319,,,D*71
$GPGGA,193427.400,4308.3013,N,07726.2649,W,2,09,1.38,160.9,M,-34.4,M,0000,0000*53
lng=-77.437751, lat=43.138355, altitude=160.90, speed=0.00, satellites=9, angle=179.0700, fixquality=2
$GPRMC,193427.600,A,4308.3013,N,07726.2649,W,0.00,179.07,220319,,,D*75
$GPGGA,193427.800,4308.3013,N,07726.2649,W,2,09,1.38,160.9,M,-34.4,M,0000,0000*5F
lng=-77.437751, lat=43.138355, altitude=160.90, speed=0.00, satellites=9, angle=179.0700, fixquality=2
$GPRMC,193428.000,A,4308.3013,N,07726.2649,W,0.00,179.07,220319,,,D*7C
$GPGGA,193428.200,4308.3013,N,07726.2649,W,2,10,0.89,160.9,M,-34.4,M,0000,0000*59
lng=-77.437751, lat=43.138355, altitude=160.90, speed=0.00, satellites=9, angle=179.0700, fixquality=2
$GPRMC,193428.400,A,4308.3013,N,07726.2649,W,0.00,179.07,220319,,,D*78
$GPGGA,193428.600,4308.3013,N,07726.2649,W,2,10,0.89,160.9,M,-34.4,M,0000,0000*5D
lng=-77.437751, lat=43.138355, altitude=160.90, speed=0.00, satellites=10, angle=179.0700, fixquality=2
$GPRMC,193428.800,A,4308.3013,N,07726.2649,W,0.00,179.07,220319,,,D*74
$GPGGA,193429.000,4308.3013,N,07726.2649,W,2,09,0.97,160.9,M,-34.4,M,0000,0000*5D
lng=-77.437751, lat=43.138355, altitude=160.90, speed=0.00, satellites=10, angle=179.0700, fixquality=2
$GPRMC,193429.200,A,4308.3013,N,07726.2649,W,0.00,179.07,220319,,,D*7F
$GPGGA,193429.400,4308.3013,N,07726.2649,W,2,09,0.97,160.9,M,-34.4,M,0000,0000*59
lng=-77.437751, lat=43.138355, altitude=160.90, speed=0.00, satellites=9, angle=179.0700, fixquality=2
$GPRMC,193429.600,A,4308.3013,N,07726.2649,W,0.00,179.07,220319,,,D*7B
$GPGGA,193429.800,4308.3013,N,07726.2649,W,2,09,0.97,160.9,M,-34.4,M,0000,0000*55
lng=-77.437751, lat=43.138355, altitude=160.90, speed=0.00, satellites=9, angle=179.0700, fixquality=2
$GPRMC,193430.000,A,4308.3013,N,07726.2649,W,0.00,179.07,220319,,,D*75
$GPGGA,193430.200,4308.3013,N,07726.2649,W,2,09,0.97,160.9,M,-34.4,M,0000,0000*57
lng=-77.437751, lat=43.138355, altitude=160.90, speed=0.00, satellites=9, angle=179.0700, fixquality=2
$GPRMC,193430.400,A,4308.3013,N,07726.2649,W,0.00,179.07,220319,,,D*71
$GPGGA,193430.600,4308.3013,N,07726.2649,W,2,09,0.97,160.9,M,-34.4,M,0000,0000*53
lng=-77.437751, lat=43.138355, altitude=160.90, speed=0.00, satellites=9, angle=179.0700, fixquality=2
$GPRMC,193430.800,A,4308.3013,N,07726.2649,W,0.03,179.07,220319,,,D*7E
$GPGGA,193431.000,4308.3013,N,07726.2649,W,2,09,0.92,160.9,M,-34.4,M,0000,0000*51
lng=-77.437751, lat=43.138355, altitude=160.90, speed=0.03, satellites=9, angle=179.0700, fixquality=2
$GPRMC,193431.200,A,4308.3013,N,07726.2649,W,0.05,179.07,220319,,,D*73
$GPGGA,193431.400,4308.3013,N,07726.2649,W,2,09,0.92,160.9,M,-34.4,M,0000,0000*55
lng=-77.437751, lat=43.138355, altitude=160.90, speed=0.05, satellites=9, angle=179.0700, fixquality=2
$GPRMC,193431.600,A,4308.3013,N,07726.2649,W,0.06,179.07,220319,,,D*74
$GPGGA,193431.800,4308.3013,N,07726.2649,W,2,09,0.92,160.9,M,-34.4,M,0000,0000*59
lng=-77.437751, lat=43.138355, altitude=160.90, speed=0.06, satellites=9, angle=179.0700, fixquality=2
$GPRMC,193432.000,A,4308.3013,N,07726.2649,W,0.06,179.07,220319,,,D*71
$GPGGA,193432.200,4308.3013,N,07726.2649,W,2,08,1.16,160.9,M,-34.4,M,0000,0000*5C
lng=-77.437751, lat=43.138355, altitude=160.90, speed=0.06, satellites=9, angle=179.0700, fixquality=2
$GPRMC,193432.400,A,4308.3013,N,07726.2649,W,0.00,179.07,220319,,,D*73
$GPGGA,193432.600,4308.3013,N,07726.2649,W,2,09,0.97,160.9,M,-34.4,M,0000,0000*51
lng=-77.437751, lat=43.138355, altitude=160.90, speed=0.00, satellites=8, angle=179.0700, fixquality=2
$GPRMC,193432.800,A,4308.3013,N,07726.2649,W,0.00,179.07,220319,,,D*7F
$GPGGA,193433.000,4308.3013,N,07726.2649,W,2,08,1.16,160.9,M,-34.4,M,0000,0000*5F
lng=-77.437751, lat=43.138355, altitude=160.90, speed=0.00, satellites=9, angle=179.0700, fixquality=2
$GPRMC,193433.200,A,4308.3013,N,07726.2649,W,0.00,179.07,220319,,,D*74
$GPGGA,193433.400,4308.3013,N,07726.2649,W,2,08,1.55,160.9,M,-34.4,M,0000,0000*5C
lng=-77.437751, lat=43.138355, altitude=160.90, speed=0.00, satellites=8, angle=179.0700, fixquality=2
$GPRMC,193433.600,A,4308.3013,N,07726.2649,W,0.00,179.07,220319,,,D*70
$GPGGA,193433.800,4308.3013,N,07726.2649,W,2,08,1.55,160.9,M,-34.4,M,0000,0000*50
lng=-77.437751, lat=43.138355, altitude=160.90, speed=0.00, satellites=8, angle=179.0700, fixquality=2
$GPRMC,193434.000,A,4308.3013,N,07726.2649,W,0.00,179.07,220319,,,D*71
$GPGGA,193434.200,4308.3013,N,07726.2649,W,2,08,1.55,160.9,M,-34.4,M,0000,0000*5D
lng=-77.437751, lat=43.138355, altitude=160.90, speed=0.00, satellites=8, angle=179.0700, fixquality=2
$GPRMC,193434.400,A,4308.3013,N,07726.2649,W,0.00,179.07,220319,,,D*75
$GPGGA,193434.600,4308.3013,N,07726.2649,W,2,08,1.55,160.9,M,-34.4,M,0000,0000*59
lng=-77.437751, lat=43.138355, altitude=160.90, speed=0.00, satellites=8, angle=179.0700, fixquality=2
$GPRMC,193434.800,A,4308.3013,N,07726.2649,W,0.00,179.07,220319,,,D*79
$GPGGA,193435.000,4308.3013,N,07726.2649,W,2,08,1.55,160.9,M,-34.4,M,0000,0000*5E
lng=-77.437751, lat=43.138355, altitude=160.90, speed=0.00, satellites=8, angle=179.0700, fixquality=2
$GPRMC,193435.200,A,4308.3013,N,07726.2649,W,0.00,179.07,220319,,,D*72
$GPGGA,193435.400,4308.3013,N,07726.2649,W,2,08,1.55,160.9,M,-34.4,M,0000,0000*5A
lng=-77.437751, lat=43.138355, altitude=160.90, speed=0.00, satellites=8, angle=179.0700, fixquality=2
$GPRMC,193435.600,A,4308.3013,N,07726.2649,W,0.00,179.07,220319,,,D*76
$GPGGA,193435.800,4308.3013,N,07726.2649,W,2,09,0.97,160.9,M,-34.4,M,0000,0000*58
lng=-77.437751, lat=43.138355, altitude=160.90, speed=0.00, satellites=8, angle=179.0700, fixquality=2
$GPRMC,193436.000,A,4308.3013,N,07726.2649,W,0.01,179.07,220319,,,D*72
$GPGGA,193436.200,4308.3013,N,07726.2649,W,2,09,0.92,160.9,M,-34.4,M,0000,0000*54
lng=-77.437751, lat=43.138355, altitude=160.90, speed=0.01, satellites=9, angle=179.0700, fixquality=2
$GPRMC,193436.400,A,4308.3013,N,07726.2649,W,0.03,179.07,220319,,,D*74
$GPGGA,193436.600,4308.3013,N,07726.2649,W,2,08,1.16,160.9,M,-34.4,M,0000,0000*5C
lng=-77.437751, lat=43.138355, altitude=160.90, speed=0.03, satellites=9, angle=179.0700, fixquality=2
$GPRMC,193436.800,A,4308.3013,N,07726.2649,W,0.07,179.07,220319,,,D*7C
$GPGGA,193437.000,4308.3013,N,07726.2649,W,2,09,0.92,160.9,M,-34.4,M,0000,0000*57
lng=-77.437751, lat=43.138355, altitude=160.90, speed=0.07, satellites=8, angle=179.0700, fixquality=2
$GPRMC,193437.200,A,4308.3013,N,07726.2649,W,0.00,179.07,220319,,,D*70
$GPGGA,193437.400,4308.3013,N,07726.2649,W,2,09,0.97,160.9,M,-34.4,M,0000,0000*56
lng=-77.437751, lat=43.138355, altitude=160.90, speed=0.00, satellites=9, angle=179.0700, fixquality=2
$GPRMC,193437.600,A,4308.3013,N,07726.2649,W,0.00,179.07,220319,,,D*74
$GPGGA,193437.800,4308.3013,N,07726.2649,W,2,09,0.97,160.9,M,-34.4,M,0000,0000*5A
lng=-77.437751, lat=43.138355, altitude=160.90, speed=0.00, satellites=9, angle=179.0700, fixquality=2
$GPRMC,193438.000,A,4308.3013,N,07726.2649,W,0.00,179.07,220319,,,D*7D
$GPGGA,193438.200,4308.3013,N,07726.2649,W,2,08,1.55,160.9,M,-34.4,M,0000,0000*51
lng=-77.437751, lat=43.138355, altitude=160.90, speed=0.00, satellites=9, angle=179.0700, fixquality=2
$GPRMC,193438.400,A,4308.3013,N,07726.2649,W,0.06,179.07,220319,,,D*7F
$GPGGA,193438.600,4308.3013,N,07726.2649,W,2,08,1.16,160.9,M,-34.4,M,0000,0000*52
lng=-77.437751, lat=43.138355, altitude=160.90, speed=0.06, satellites=8, angle=179.0700, fixquality=2
$GPRMC,193438.800,A,4308.3013,N,07726.2649,W,0.00,179.07,220319,,,D*75
$GPGGA,193439.000,4308.3013,N,07726.2649,W,2,09,0.97,160.9,M,-34.4,M,0000,0000*5C
lng=-77.437751, lat=43.138355, altitude=160.90, speed=0.00, satellites=8, angle=179.0700, fixquality=2
$GPRMC,193439.200,A,4308.3013,N,07726.2649,W,0.00,179.07,220319,,,D*7E
$GPGGA,193439.400,4308.3013,N,07726.2649,W,2,09,0.97,160.9,M,-34.4,M,0000,0000*58
lng=-77.437751, lat=43.138355, altitude=160.90, speed=0.00, satellites=9, angle=179.0700, fixquality=2
$GPRMC,193439.600,A,4308.3013,N,07726.2649,W,0.00,179.07,220319,,,D*7A
$GPGGA,193439.800,4308.3013,N,07726.2649,W,2,09,0.98,160.9,M,-34.4,M,0000,0000*5B
lng=-77.437751, lat=43.138355, altitude=160.90, speed=0.00, satellites=9, angle=179.0700, fixquality=2
$GPRMC,193440.000,A,4308.3013,N,07726.2649,W,0.00,179.07,220319,,,D*72
$GPGGA,193440.200,4308.3013,N,07726.2649,W,2,09,0.97,160.9,M,-34.4,M,0000,0000*50
lng=-77.437751, lat=43.138355, altitude=160.90, speed=0.00, satellites=9, angle=179.0700, fixquality=2
$GPRMC,193440.400,A,4308.3013,N,07726.2649,W,0.00,179.07,220319,,,D*76
$GPGGA,193440.600,4308.3013,N,07726.2649,W,2,08,1.55,160.9,M,-34.4,M,0000,0000*5A
lng=-77.437751, lat=43.138355, altitude=160.90, speed=0.00, satellites=9, angle=179.0700, fixquality=2
$GPRMC,193440.800,A,4308.3013,N,07726.2649,W,0.00,179.07,220319,,,D*7A
$GPGGA,193441.000,4308.3013,N,07726.2649,W,2,08,1.55,160.9,M,-34.4,M,0000,0000*5D
lng=-77.437751, lat=43.138355, altitude=160.90, speed=0.00, satellites=8, angle=179.0700, fixquality=2
$GPRMC,193441.200,A,4308.3013,N,07726.2649,W,0.00,179.07,220319,,,D*71
$GPGGA,193441.400,4308.3013,N,07726.2649,W,2,09,0.97,160.9,M,-34.4,M,0000,0000*57
lng=-77.437751, lat=43.138355, altitude=160.90, speed=0.00, satellites=8, angle=179.0700, fixquality=2
$GPRMC,193441.600,A,4308.3013,N,07726.2649,W,0.00,179.07,220319,,,D*75
$GPGGA,193441.800,4308.3013,N,07726.2649,W,2,09,0.97,160.9,M,-34.4,M,0000,0000*5B
lng=-77.437751, lat=43.138355, altitude=160.90, speed=0.00, satellites=9, angle=179.0700, fixquality=2
$GPRMC,193442.000,A,4308.3013,N,07726.2649,W,0.00,179.07,220319,,,D*70
$GPGGA,193442.200,4308.3013,N,07726.2649,W,2,09,0.98,160.9,M,-34.4,M,0000,0000*5D
lng=-77.437751, lat=43.138355, altitude=160.90, speed=0.00, satellites=9, angle=179.0700, fixquality=2
$GPRMC,193442.400,A,4308.3013,N,07726.2649,W,0.00,179.07,220319,,,D*74
$GPGGA,193442.600,4308.3013,N,07726.2649,W,2,09,0.97,160.9,M,-34.4,M,0000,0000*56
lng=-77.437751, lat=43.138355, altitude=160.90, speed=0.00, satellites=9, angle=179.0700, fixquality=2
$GPRMC,193442.800,A,4308.3013,N,07726.2649,W,0.00,179.07,220319,,,D*78
$GPGGA,193443.000,4308.3013,N,07726.2649,W,2,10,0.89,160.9,M,-34.4,M,0000,0000*56
lng=-77.437751, lat=43.138355, altitude=160.90, speed=0.00, satellites=9, angle=179.0700, fixquality=2
$GPRMC,193443.200,A,4308.3013,N,07726.2649,W,0.00,179.07,220319,,,D*73
$GPGGA,193443.400,4308.3013,N,07726.2649,W,2,09,1.38,160.9,M,-34.4,M,0000,0000*51
lng=-77.437751, lat=43.138355, altitude=160.90, speed=0.00, satellites=10, angle=179.0700, fixquality=2
$GPRMC,193443.600,A,4308.3013,N,07726.2649,W,0.00,179.07,220319,,,D*77
$GPGGA,193443.800,4308.3013,N,07726.2649,W,2,10,0.89,160.9,M,-34.4,M,0000,0000*5E
lng=-77.437751, lat=43.138355, altitude=160.90, speed=0.00, satellites=9, angle=179.0700, fixquality=2
$GPRMC,193444.000,A,4308.3013,N,07726.2649,W,0.00,179.07,220319,,,D*76
$GPGGA,193444.200,4308.3013,N,07726.2649,W,2,10,0.89,160.9,M,-34.4,M,0000,0000*53
lng=-77.437751, lat=43.138355, altitude=160.90, speed=0.00, satellites=10, angle=179.0700, fixquality=2
$GPRMC,193444.400,A,4308.3013,N,07726.2649,W,0.00,179.07,220319,,,D*72
$GPGGA,193444.600,4308.3013,N,07726.2649,W,2,10,0.89,160.9,M,-34.4,M,0000,0000*57
lng=-77.437751, lat=43.138355, altitude=160.90, speed=0.00, satellites=10, angle=179.0700, fixquality=2
$GPRMC,193444.800,A,4308.3013,N,07726.2649,W,0.00,179.07,220319,,,D*7E
$GPGGA,193445.000,4308.3013,N,07726.2649,W,2,10,0.89,160.9,M,-34.4,M,0000,0000*50
lng=-77.437751, lat=43.138355, altitude=160.90, speed=0.00, satellites=10, angle=179.0700, fixquality=2
$GPRMC,193445.200,A,4308.3013,N,07726.2649,W,0.00,179.07,220319,,,D*75
$GPGGA,193445.400,4308.3013,N,07726.2649,W,2,10,0.89,160.9,M,-34.4,M,0000,0000*54
lng=-77.437751, lat=43.138355, altitude=160.90, speed=0.00, satellites=10, angle=179.0700, fixquality=2
$GPRMC,193445.600,A,4308.3013,N,07726.2649,W,0.00,179.07,220319,,,D*71
$GPGGA,193445.800,4308.3013,N,07726.2649,W,2,10,0.89,160.9,M,-34.4,M,0000,0000*58
lng=-77.437751, lat=43.138355, altitude=160.90, speed=0.00, satellites=10, angle=179.0700, fixquality=2
$GPRMC,193446.000,A,4308.3013,N,07726.2649,W,0.00,179.07,220319,,,D*74
$GPGGA,193446.200,4308.3013,N,07726.2649,W,2,09,1.38,160.9,M,-34.4,M,0000,0000*52
lng=-77.437751, lat=43.138355, altitude=160.90, speed=0.00, satellites=10, angle=179.0700, fixquality=2
$GPRMC,193446.400,A,4308.3013,N,07726.2649,W,0.00,179.07,220319,,,D*70
$GPGGA,193446.600,4308.3013,N,07726.2649,W,2,10,0.85,160.9,M,-34.4,M,0000,0000*59
lng=-77.437751, lat=43.138355, altitude=160.90, speed=0.00, satellites=9, angle=179.0700, fixquality=2
$GPRMC,193446.800,A,4308.3013,N,07726.2649,W,0.00,179.07,220319,,,D*7C
$GPGGA,193447.000,4308.3013,N,07726.2649,W,2,10,0.89,160.9,M,-34.4,M,0000,0000*52
lng=-77.437751, lat=43.138355, altitude=160.90, speed=0.00, satellites=10, angle=179.0700, fixquality=2
$GPRMC,193447.200,A,4308.3013,N,07726.2649,W,0.00,179.07,220319,,,D*77
$GPGGA,193447.400,4308.3013,N,07726.2649,W,2,10,0.89,160.9,M,-34.4,M,0000,0000*56
lng=-77.437751, lat=43.138355, altitude=160.90, speed=0.00, satellites=10, angle=179.0700, fixquality=2
$GPRMC,193447.600,A,4308.3013,N,07726.2649,W,0.00,179.07,220319,,,D*73
$GPGGA,193447.800,4308.3013,N,07726.2649,W,2,10,0.89,160.9,M,-34.4,M,0000,0000*5A
lng=-77.437751, lat=43.138355, altitude=160.90, speed=0.00, satellites=10, angle=179.0700, fixquality=2
$GPRMC,193448.000,A,4308.3013,N,07726.2649,W,0.00,179.07,220319,,,D*7A
$GPGGA,193448.200,4308.3013,N,07726.2649,W,2,10,0.89,160.9,M,-34.4,M,0000,0000*5F
lng=-77.437751, lat=43.138355, altitude=160.90, speed=0.00, satellites=10, angle=179.0700, fixquality=2
$GPRMC,193448.400,A,4308.3013,N,07726.2649,W,0.00,179.07,220319,,,D*7E
$GPGGA,193448.600,4308.3013,N,07726.2649,W,2,09,1.11,160.9,M,-34.4,M,0000,0000*53
lng=-77.437751, lat=43.138355, altitude=160.90, speed=0.00, satellites=10, angle=179.0700, fixquality=2
$GPRMC,193448.800,A,4308.3013,N,07726.2649,W,0.03,179.07,220319,,,D*71
$GPGGA,193449.000,4308.3013,N,07726.2649,W,2,09,1.11,160.9,M,-34.4,M,0000,0000*54
lng=-77.437751, lat=43.138355, altitude=160.90, speed=0.03, satellites=9, angle=179.0700, fixquality=2
$GPRMC,193449.200,A,4308.3013,N,07726.2649,W,0.00,179.07,220319,,,D*79
$GPGGA,193449.400,4308.3013,N,07726.2649,W,2,09,1.38,160.9,M,-34.4,M,0000,0000*5B
lng=-77.437751, lat=43.138355, altitude=160.90, speed=0.00, satellites=9, angle=179.0700, fixquality=2
$GPRMC,193449.600,A,4308.3013,N,07726.2649,W,0.00,179.07,220319,,,D*7D
$GPGGA,193449.800,4308.3013,N,07726.2649,W,2,09,1.38,160.9,M,-34.4,M,0000,0000*57
lng=-77.437751, lat=43.138355, altitude=160.90, speed=0.00, satellites=9, angle=179.0700, fixquality=2
$GPRMC,193450.000,A,4308.3013,N,07726.2649,W,0.03,179.07,220319,,,D*70
