Vers 57
USE_SERIAL_FEEDBACK=false
DEVELOPMENT_MODE=false
USE_RMC_ONLY=false

$GPRMC,142955.200,A,4308.3049,N,07726.2631,W,0.13,87.23,220319,,,A*44
$GPGGA,142955.400,4308.3048,N,07726.2629,W,1,04,2.13,156.6,M,-34.4,M,,*51
$GPRMC,142955.600,A,4308.3048,N,07726.2628,W,0.17,242.32,220319,,,A*76
$GPGGA,142955.800,4308.3047,N,07726.2627,W,1,04,2.13,156.7,M,-34.4,M,,*5D
$GPRMC,142956.000,A,4308.3047,N,07726.2626,W,0.15,239.58,220319,,,A*70
$GPGGA,142956.200,4308.3047,N,07726.2627,W,1,04,2.13,156.4,M,-34.4,M,,*57
$GPRMC,142956.400,A,4308.3047,N,07726.2628,W,0.27,259.89,220319,,,A*71
$GPGGA,142956.600,4308.3047,N,07726.2628,W,1,04,2.13,156.0,M,-34.4,M,,*58
$GPRMC,142956.800,A,4308.3047,N,07726.2627,W,0.18,255.50,220319,,,A*76
$GPGGA,142957.000,4308.3046,N,07726.2628,W,1,04,2.13,155.5,M,-34.4,M,,*58
$GPRMC,142957.200,A,4308.3046,N,07726.2628,W,0.18,252.92,220319,,,A*7A
$GPGGA,142957.400,4308.3045,N,07726.2628,W,1,04,2.13,155.1,M,-34.4,M,,*5B
$GPRMC,142957.600,A,4308.3045,N,07726.2629,W,0.19,212.80,220319,,,A*7A
$GPGGA,142957.800,4308.3045,N,07726.2629,W,1,04,2.13,154.7,M,-34.4,M,,*51
$GPRMC,142958.000,A,4308.3045,N,07726.2630,W,0.19,226.54,220319,,,A*75
$GPGGA,142958.200,4308.3044,N,07726.2631,W,1,04,2.13,154.3,M,-34.4,M,,*58
$GPRMC,142958.400,A,4308.3044,N,07726.2632,W,0.11,223.98,220319,,,A*7F
$GPGGA,142958.600,4308.3044,N,07726.2632,W,1,04,2.13,153.9,M,-34.4,M,,*52
$GPRMC,142958.800,A,4308.3044,N,07726.2633,W,0.09,231.20,220319,,,A*7B
$GPGGA,142959.000,4308.3043,N,07726.2634,W,1,04,2.13,153.6,M,-34.4,M,,*5B
$GPRMC,142959.200,A,4308.3043,N,07726.2634,W,0.06,224.26,220319,,,A*7D
$GPGGA,142959.400,4308.3043,N,07726.2634,W,1,04,2.13,153.5,M,-34.4,M,,*5C
$GPRMC,142959.600,A,4308.3043,N,07726.2634,W,0.06,232.51,220319,,,A*7E
$GPGGA,142959.800,4308.3043,N,07726.2635,W,1,04,2.13,153.3,M,-34.4,M,,*57
$GPRMC,143000.000,A,4308.3043,N,07726.2635,W,0.06,227.36,220319,,,A*78
$GPGGA,143000.200,4308.3041,N,07726.2631,W,1,08,1.11,153.3,M,-34.4,M,,*52
$GPRMC,143000.400,A,4308.3040,N,07726.2629,W,0.04,95.72,220319,,,A*4B
$GPGGA,143000.600,4308.3038,N,07726.2629,W,1,08,1.11,152.8,M,-34.4,M,,*5B
$GPRMC,143000.800,A,4308.3037,N,07726.2629,W,0.03,152.43,220319,,,A*78
$GPGGA,143001.000,4308.3037,N,07726.2628,W,1,08,1.11,152.3,M,-34.4,M,,*59
$GPRMC,143001.200,A,4308.3036,N,07726.2628,W,0.03,107.71,220319,,,A*72
$GPGGA,143001.400,4308.3036,N,07726.2629,W,1,08,1.11,152.0,M,-34.4,M,,*5E
$GPRMC,143001.600,A,4308.3035,N,07726.2629,W,0.01,36.64,220319,,,A*41
$GPGGA,143001.800,4308.3035,N,07726.2629,W,1,08,1.11,151.6,M,-34.4,M,,*54
$GPRMC,143002.000,A,4308.3035,N,07726.2629,W,0.01,68.01,220319,,,A*4C
$GPGGA,143002.200,4308.3034,N,07726.2628,W,1,08,1.11,151.3,M,-34.4,M,,*58
$GPRMC,143002.400,A,4308.3034,N,07726.2628,W,0.01,238.25,220319,,,A*79
$GPGGA,143002.600,4308.3033,N,07726.2628,W,1,08,1.11,151.1,M,-34.4,M,,*59
$GPRMC,143002.800,A,4308.3033,N,07726.2628,W,0.02,14.43,220319,,,A*4D
$GPGGA,143003.000,4308.3033,N,07726.2627,W,1,08,1.13,150.9,M,-34.4,M,,*5A
$GPRMC,143003.200,A,4308.3033,N,07726.2627,W,0.02,230.94,220319,,,A*77
$GPGGA,143003.400,4308.3032,N,07726.2626,W,1,08,1.11,150.9,M,-34.4,M,,*5C
$GPRMC,143003.600,A,4308.3032,N,07726.2626,W,0.03,136.46,220319,,,A*78
$GPGGA,143003.800,4308.3032,N,07726.2626,W,1,08,1.11,150.9,M,-34.4,M,,*50
$GPRMC,143004.000,A,4308.3032,N,07726.2625,W,0.02,108.03,220319,,,A*77
$GPGGA,143004.200,4308.3032,N,07726.2625,W,1,08,1.11,150.8,M,-34.4,M,,*5F
$GPRMC,143004.400,A,4308.3032,N,07726.2625,W,0.03,128.42,220319,,,A*75
$GPGGA,143004.600,4308.3031,N,07726.2625,W,1,08,1.11,150.8,M,-34.4,M,,*58
$GPRMC,143004.800,A,4308.3031,N,07726.2625,W,0.04,26.97,220319,,,A*4A
$GPGGA,143005.000,4308.3031,N,07726.2625,W,1,08,1.11,150.7,M,-34.4,M,,*50
$GPRMC,143005.200,A,4308.3031,N,07726.2625,W,0.02,321.72,220319,,,A*78
$GPGGA,143005.400,4308.3031,N,07726.2625,W,1,08,1.11,150.6,M,-34.4,M,,*55
$GPRMC,143005.600,A,4308.3030,N,07726.2625,W,0.01,359.70,220319,,,A*73
$GPGGA,143005.800,4308.3030,N,07726.2625,W,1,08,1.13,150.5,M,-34.4,M,,*59
$GPRMC,143006.000,A,4308.3030,N,07726.2625,W,0.03,306.23,220319,,,A*78
$GPGGA,143006.200,4308.3030,N,07726.2625,W,1,08,1.11,150.5,M,-34.4,M,,*52
$GPRMC,143006.400,A,4308.3030,N,07726.2625,W,0.01,349.37,220319,,,A*70
$GPGGA,143006.600,4308.3030,N,07726.2625,W,1,08,1.13,150.4,M,-34.4,M,,*55
$GPRMC,143006.800,A,4308.3030,N,07726.2625,W,0.01,18.90,220319,,,A*46
$GPGGA,143007.000,4308.3030,N,07726.2625,W,1,08,1.11,150.4,M,-34.4,M,,*50
$GPRMC,143007.200,A,4308.3029,N,07726.2625,W,0.04,128.50,220319,,,A*7E
$GPGGA,143007.400,4308.3029,N,07726.2626,W,1,08,1.11,150.2,M,-34.4,M,,*59
$GPRMC,143007.600,A,4308.3029,N,07726.2626,W,0.01,115.27,220319,,,A*72
$GPGGA,143007.800,4308.3029,N,07726.2626,W,1,08,1.11,150.2,M,-34.4,M,,*55
$GPRMC,143008.000,A,4308.3029,N,07726.2626,W,0.01,162.18,220319,,,A*77
$GPGGA,143008.200,4308.3029,N,07726.2626,W,1,08,1.11,150.0,M,-34.4,M,,*52
$GPRMC,143008.400,A,4308.3029,N,07726.2626,W,0.01,235.67,220319,,,A*7A
$GPGGA,143008.600,4308.3029,N,07726.2627,W,1,08,1.11,149.9,M,-34.4,M,,*56
$GPRMC,143008.800,A,4308.3029,N,07726.2627,W,0.02,330.50,220319,,,A*74
$GPGGA,143009.000,4308.3029,N,07726.2627,W,1,08,1.11,149.8,M,-34.4,M,,*50
$GPRMC,143009.200,A,4308.3029,N,07726.2628,W,0.01,309.36,220319,,,A*79
$GPGGA,143009.400,4308.3029,N,07726.2628,W,1,08,1.11,149.6,M,-34.4,M,,*55
$GPRMC,143009.600,A,4308.3029,N,07726.2629,W,0.02,238.29,220319,,,A*72
$GPGGA,143009.800,4308.3029,N,07726.2629,W,1,08,1.11,149.5,M,-34.4,M,,*5B
$GPRMC,143010.000,A,4308.3029,N,07726.2629,W,0.03,225.26,220319,,,A*7E
$GPGGA,143010.200,4308.3029,N,07726.2630,W,1,08,1.11,149.4,M,-34.4,M,,*50
$GPRMC,143010.400,A,4308.3028,N,07726.2630,W,0.05,57.94,220319,,,A*4B
$GPGGA,143010.600,4308.3028,N,07726.2631,W,1,08,1.11,149.2,M,-34.4,M,,*52
$GPRMC,143010.800,A,4308.3028,N,07726.2631,W,0.01,265.87,220319,,,A*73
$GPGGA,143011.000,4308.3028,N,07726.2631,W,1,08,1.11,149.1,M,-34.4,M,,*56
$GPRMC,143011.200,A,4308.3028,N,07726.2632,W,0.04,278.72,220319,,,A*78
$GPGGA,143011.400,4308.3028,N,07726.2632,W,1,08,1.11,148.9,M,-34.4,M,,*58
$GPRMC,143011.600,A,4308.3028,N,07726.2632,W,0.02,172.04,220319,,,A*72
$GPGGA,143011.800,4308.3028,N,07726.2633,W,1,08,1.11,148.9,M,-34.4,M,,*55
$GPRMC,143012.000,A,4308.3028,N,07726.2633,W,0.02,97.52,220319,,,A*4F
$GPGGA,143012.200,4308.3028,N,07726.2633,W,1,08,1.11,148.7,M,-34.4,M,,*52
$GPRMC,143012.400,A,4308.3028,N,07726.2633,W,0.03,19.95,220319,,,A*47
$GPGGA,143012.600,4308.3027,N,07726.2634,W,1,08,1.11,148.6,M,-34.4,M,,*5F
$GPRMC,143012.800,A,4308.3027,N,07726.2634,W,0.01,331.64,220319,,,A*76
$GPGGA,143013.000,4308.3027,N,07726.2634,W,1,08,1.11,148.4,M,-34.4,M,,*5A
$GPRMC,143013.200,A,4308.3027,N,07726.2634,W,0.07,298.77,220319,,,A*7B
$GPGGA,143013.400,4308.3027,N,07726.2635,W,1,08,1.11,148.3,M,-34.4,M,,*58
$GPRMC,143013.600,A,4308.3027,N,07726.2635,W,0.05,280.91,220319,,,A*7D
$GPGGA,143013.800,4308.3027,N,07726.2635,W,1,08,1.11,148.2,M,-34.4,M,,*55
$GPRMC,143014.000,A,4308.3027,N,07726.2635,W,0.02,356.45,220319,,,A*78
$GPGGA,143014.200,4308.3027,N,07726.2636,W,1,08,1.13,148.1,M,-34.4,M,,*5A
$GPRMC,143014.400,A,4308.3027,N,07726.2636,W,0.02,268.40,220319,,,A*76
$GPGGA,143014.600,4308.3026,N,07726.2636,W,1,08,1.11,147.9,M,-34.4,M,,*5A
$GPRMC,143014.800,A,4308.3026,N,07726.2636,W,0.03,259.11,220319,,,A*7C
$GPGGA,143015.000,4308.3026,N,07726.2636,W,1,08,1.11,147.9,M,-34.4,M,,*5D
$GPRMC,143015.200,A,4308.3026,N,07726.2637,W,0.02,337.13,220319,,,A*7C
$GPGGA,143015.400,4308.3026,N,07726.2637,W,1,08,1.11,147.8,M,-34.4,M,,*59
$GPRMC,143015.600,A,4308.3026,N,07726.2637,W,0.02,357.75,220319,,,A*7E
$GPGGA,143015.800,4308.3026,N,07726.2637,W,1,08,1.13,147.8,M,-34.4,M,,*57
$GPRMC,143016.000,A,4308.3026,N,07726.2637,W,0.02,119.63,220319,,,A*74
$GPGGA,143016.200,4308.3026,N,07726.2637,W,1,08,1.11,147.7,M,-34.4,M,,*53
$GPRMC,143016.400,A,4308.3026,N,07726.2637,W,0.03,18.36,220319,,,A*41
$GPGGA,143016.600,4308.3026,N,07726.2637,W,1,08,1.11,147.6,M,-34.4,M,,*56
$GPRMC,143016.800,A,4308.3026,N,07726.2637,W,0.01,347.94,220319,,,A*7E
$GPGGA,143017.000,4308.3026,N,07726.2637,W,1,08,1.13,147.6,M,-34.4,M,,*53
$GPRMC,143017.200,A,4308.3026,N,07726.2637,W,0.03,196.18,220319,,,A*7D
$GPGGA,143017.400,4308.3026,N,07726.2637,W,1,08,1.11,147.5,M,-34.4,M,,*56
$GPRMC,143017.600,A,4308.3026,N,07726.2637,W,0.01,33.74,220319,,,A*4F
$GPGGA,143017.800,4308.3026,N,07726.2636,W,1,08,1.11,147.6,M,-34.4,M,,*58
$GPRMC,143018.000,A,4308.3026,N,07726.2637,W,0.00,45.57,220319,,,A*47
$GPGGA,143018.200,4308.3026,N,07726.2636,W,1,08,1.11,147.6,M,-34.4,M,,*5D
$GPRMC,143018.400,A,4308.3026,N,07726.2636,W,0.01,356.61,220319,,,A*77
$GPGGA,143018.600,4308.3026,N,07726.2636,W,1,08,1.13,147.5,M,-34.4,M,,*58
$GPRMC,143018.800,A,4308.3026,N,07726.2636,W,0.08,296.76,220319,,,A*79
$GPGGA,143019.000,4308.3025,N,07726.2636,W,1,08,1.11,147.4,M,-34.4,M,,*5F
$GPRMC,143019.200,A,4308.3025,N,07726.2636,W,0.03,234.38,220319,,,A*78
$GPGGA,143019.400,4308.3025,N,07726.2636,W,1,08,1.11,147.4,M,-34.4,M,,*5B
$GPRMC,143019.600,A,4308.3025,N,07726.2636,W,0.02,121.14,220319,,,A*74
$GPGGA,143019.800,4308.3025,N,07726.2636,W,1,08,1.11,147.3,M,-34.4,M,,*50
$GPRMC,143020.000,A,4308.3025,N,07726.2635,W,0.01,232.55,220319,,,A*7C
$GPGGA,143020.200,4308.3025,N,07726.2635,W,1,08,1.11,147.2,M,-34.4,M,,*52
$GPRMC,143020.400,A,4308.3025,N,07726.2635,W,0.05,3.56,220319,,,A*7F
$GPGGA,143020.600,4308.3025,N,07726.2635,W,1,08,1.13,147.2,M,-34.4,M,,*54
$GPRMC,143020.800,A,4308.3025,N,07726.2635,W,0.01,294.35,220319,,,A*7E
$GPGGA,143021.000,4308.3025,N,07726.2635,W,1,08,1.11,147.2,M,-34.4,M,,*51
$GPRMC,143021.200,A,4308.3025,N,07726.2634,W,0.02,34.40,220319,,,A*4D
$GPGGA,143021.400,4308.3025,N,07726.2634,W,1,08,1.11,147.2,M,-34.4,M,,*54
$GPRMC,143021.600,A,4308.3024,N,07726.2634,W,0.03,294.76,220319,,,A*74
$GPGGA,143021.800,4308.3025,N,07726.2634,W,1,08,1.11,147.2,M,-34.4,M,,*58
$GPRMC,143022.000,A,4308.3025,N,07726.2634,W,0.05,57.27,220319,,,A*4F
$GPGGA,143022.200,4308.3025,N,07726.2634,W,1,08,1.11,147.2,M,-34.4,M,,*51
$GPRMC,143022.400,A,4308.3025,N,07726.2633,W,0.01,4.58,220319,,,A*76
$GPGGA,143022.600,4308.3024,N,07726.2633,W,1,08,1.13,147.2,M,-34.4,M,,*51
$GPRMC,143022.800,A,4308.3025,N,07726.2633,W,0.01,113.80,220319,,,A*78
$GPGGA,143023.000,4308.3025,N,07726.2633,W,1,08,1.11,147.3,M,-34.4,M,,*54
$GPRMC,143023.200,A,4308.3025,N,07726.2633,W,0.02,326.43,220319,,,A*7B
$GPGGA,143023.400,4308.3025,N,07726.2632,W,1,08,1.11,147.3,M,-34.4,M,,*51
$GPRMC,143023.600,A,4308.3025,N,07726.2632,W,0.01,146.20,220319,,,A*7C
$GPGGA,143023.800,4308.3025,N,07726.2632,W,1,08,1.11,147.4,M,-34.4,M,,*5A
$GPRMC,143024.000,A,4308.3025,N,07726.2632,W,0.05,313.97,220319,,,A*77
$GPGGA,143024.200,4308.3025,N,07726.2632,W,1,08,1.11,147.4,M,-34.4,M,,*57
$GPRMC,143024.400,A,4308.3025,N,07726.2632,W,0.01,295.60,220319,,,A*70
$GPGGA,143024.600,4308.3025,N,07726.2631,W,1,08,1.11,147.4,M,-34.4,M,,*50
$GPRMC,143024.800,A,4308.3025,N,07726.2631,W,0.01,99.28,220319,,,A*4D
$GPGGA,143025.000,4308.3025,N,07726.2631,W,1,08,1.11,147.5,M,-34.4,M,,*56
$GPRMC,143025.200,A,4308.3025,N,07726.2631,W,0.04,98.08,220319,,,A*40
$GPGGA,143025.400,4308.3025,N,07726.2631,W,1,08,1.11,147.5,M,-34.4,M,,*52
$GPRMC,143025.600,A,4308.3025,N,07726.2631,W,0.02,19.71,220319,,,A*45
$GPGGA,143025.800,4308.3025,N,07726.2630,W,1,08,1.11,147.5,M,-34.4,M,,*5F
$GPRMC,143026.000,A,4308.3025,N,07726.2630,W,0.01,258.44,220319,,,A*73
$GPGGA,143026.200,4308.3025,N,07726.2630,W,1,08,1.11,147.6,M,-34.4,M,,*55
$GPRMC,143026.400,A,4308.3025,N,07726.2630,W,0.01,316.10,220319,,,A*7D
$GPGGA,143026.600,4308.3025,N,07726.2630,W,1,08,1.11,147.6,M,-34.4,M,,*51
$GPRMC,143026.800,A,4308.3025,N,07726.2629,W,0.01,27.31,220319,,,A*4B
$GPGGA,143027.000,4308.3025,N,07726.2629,W,1,08,1.11,147.7,M,-34.4,M,,*5F
$GPRMC,143027.200,A,4308.3025,N,07726.2629,W,0.02,275.73,220319,,,A*70
$GPGGA,143027.400,4308.3025,N,07726.2628,W,1,08,1.11,147.7,M,-34.4,M,,*5A
$GPRMC,143027.600,A,4308.3025,N,07726.2628,W,0.01,324.81,220319,,,A*7E
$GPGGA,143027.800,4308.3025,N,07726.2628,W,1,08,1.11,147.7,M,-34.4,M,,*56
$GPRMC,143028.000,A,4308.3025,N,07726.2628,W,0.03,112.52,220319,,,A*7C
$GPGGA,143028.200,4308.3025,N,07726.2628,W,1,08,1.11,147.7,M,-34.4,M,,*53
$GPRMC,143028.400,A,4308.3025,N,07726.2628,W,0.03,52.66,220319,,,A*4A
$GPGGA,143028.600,4308.3025,N,07726.2628,W,1,08,1.11,147.7,M,-34.4,M,,*57
$GPRMC,143028.800,A,4308.3025,N,07726.2628,W,0.02,81.59,220319,,,A*45
$GPGGA,143029.000,4308.3025,N,07726.2628,W,1,08,1.11,147.7,M,-34.4,M,,*50
$GPRMC,143029.200,A,4308.3025,N,07726.2628,W,0.01,259.81,220319,,,A*7F
$GPGGA,143029.400,4308.3025,N,07726.2628,W,1,08,1.11,147.7,M,-34.4,M,,*54
$GPRMC,143029.600,A,4308.3025,N,07726.2628,W,0.02,290.69,220319,,,A*7B
$GPGGA,143029.800,4308.3025,N,07726.2628,W,1,08,1.11,147.7,M,-34.4,M,,*58
$GPRMC,143030.000,A,4308.3025,N,07726.2628,W,0.04,209.11,220319,,,A*7C
$GPGGA,143030.200,4308.3025,N,07726.2628,W,1,08,1.11,147.7,M,-34.4,M,,*5A
$GPRMC,143030.400,A,4308.3025,N,07726.2628,W,0.05,293.28,220319,,,A*70
$GPGGA,143030.600,4308.3025,N,07726.2628,W,1,08,1.11,147.7,M,-34.4,M,,*5E
$GPRMC,143030.800,A,4308.3025,N,07726.2628,W,0.04,328.38,220319,,,A*7D
$GPGGA,143031.000,4308.3025,N,07726.2628,W,1,08,1.11,147.7,M,-34.4,M,,*59
$GPRMC,143031.200,A,4308.3025,N,07726.2628,W,0.31,23.47,220319,,,A*40
$GPGGA,143031.400,4308.3025,N,07726.2628,W,1,08,1.11,147.7,M,-34.4,M,,*5D
$GPRMC,143031.600,A,4308.3026,N,07726.2628,W,1.84,12.64,220319,,,A*4B
$GPGGA,143031.800,4308.3027,N,07726.2627,W,1,08,1.13,147.7,M,-34.4,M,,*5E
$GPRMC,143032.000,A,4308.3029,N,07726.2626,W,3.12,12.96,220319,,,A*4F
$GPGGA,143032.200,4308.3031,N,07726.2625,W,1,08,1.13,147.7,M,-34.4,M,,*52
$GPRMC,143032.400,A,4308.3033,N,07726.2625,W,4.46,11.20,220319,,,A*4B
$GPGGA,143032.600,4308.3036,N,07726.2624,W,1,08,1.13,147.7,M,-34.4,M,,*50
$GPRMC,143032.800,A,4308.3039,N,07726.2623,W,5.47,12.43,220319,,,A*4D
$GPGGA,143033.000,4308.3042,N,07726.2622,W,1,08,1.13,147.7,M,-34.4,M,,*52
$GPRMC,143033.200,A,4308.3045,N,07726.2621,W,6.32,10.06,220319,,,A*4D
$GPGGA,143033.400,4308.3049,N,07726.2620,W,1,08,1.13,147.8,M,-34.4,M,,*50
$GPRMC,143033.600,A,4308.3053,N,07726.2619,W,6.90,10.28,220319,,,A*41
$GPGGA,143033.800,4308.3057,N,07726.2618,W,1,08,1.13,147.8,M,-34.4,M,,*58
$GPRMC,143034.000,A,4308.3061,N,07726.2617,W,6.96,9.38,220319,,,A*70
$GPGGA,143034.200,4308.3065,N,07726.2616,W,1,08,1.13,147.9,M,-34.4,M,,*5B
$GPRMC,143034.400,A,4308.3069,N,07726.2615,W,7.18,11.41,220319,,,A*4E
$GPGGA,143034.600,4308.3073,N,07726.2615,W,1,08,1.13,147.9,M,-34.4,M,,*5B
$GPRMC,143034.800,A,4308.3077,N,07726.2614,W,7.05,10.63,220319,,,A*41
$GPGGA,143035.000,4308.3081,N,07726.2613,W,1,08,1.13,148.0,M,-34.4,M,,*51
$GPRMC,143035.400,A,4308.3089,N,07726.2611,W,6.24,6.73,220319,,,A*7C
$GPGGA,143035.600,4308.3092,N,07726.2611,W,1,08,1.13,148.0,M,-34.4,M,,*57
$GPGGA,143036.200,4308.3102,N,07726.2610,W,1,08,1.13,148.1,M,-34.4,M,,*58
$GPRMC,143036.200,A,4308.3102,N,07726.2610,W,5.59,0.88,220319,,$GPGGA,143036.400,4308.3104,N,07726.2608,W,1,08,1.13,148.1,M,-34.4,M,,*51
$GPRMC,143036.600,A,4308.3106,N,07726.2607,W,3.80,8.21,220319,,,A*7E
$GPGGA,143036.800,4308.3109,N,07726.2607,W,1,08,1.13,148.2,M,-34.4,M,,*5C
$GPRMC,143037.000,A,4308.3111,N,07726.2606,W,3.45,9.24,220319,,,A*73
$GPGGA,143037.200,4308.3112,N,07726.2606,W,1,08,1.13,148.2,M,-34.4,M,,*5C
$GPRMC,143037.400,A,4308.3114,N,07726.2605,W,2.61,11.84,220319,,,A*45
$GPGGA,143037.600,4308.3115,N,07726.2605,W,1,08,1.13,148.2,M,-34.4,M,,*5C
$GPRMC,143037.800,A,4308.3117,N,07726.2604,W,2.89,15.65,220319,,,A*46
$GPGGA,143038.000,4308.3118,N,07726.2603,W,1,08,1.11,148.2,M,-34.4,M,,*5C
$GPRMC,143038.200,A,4308.3120,N,07726.2602,W,3.41,28.61,220319,,,A*4E
$GPGGA,143038.400,4308.3122,N,07726.2601,W,1,08,1.11,148.2,M,-34.4,M,,*53
$GPRMC,143038.600,A,4308.3123,N,07726.2600,W,3.66,38.31,220319,,,A*4A
$GPGGA,143038.800,4308.3125,N,07726.2598,W,1,08,1.11,148.2,M,-34.4,M,,*5B
$GPRMC,143039.000,A,4308.3127,N,07726.2597,W,3.56,38.62,220319,,,A*41
$GPGGA,143039.200,4308.3129,N,07726.2595,W,1,08,1.11,148.2,M,-34.4,M,,*51
$GPRMC,143039.400,A,4308.3131,N,07726.2593,W,3.69,41.38,220319,,,A*4B
$GPGGA,143039.600,4308.3132,N,07726.2591,W,1,08,1.11,148.2,M,-34.4,M,,*5B
$GPRMC,143039.800,A,4308.3134,N,07726.2589,W,3.57,49.53,220319,,,A*41
$GPGGA,143040.000,4308.3135,N,07726.2586,W,1,08,1.11,148.2,M,-34.4,M,,*52
$GPRMC,143040.200,A,4308.3136,N,07726.2584,W,3.70,57.45,220319,,,A*47
$GPGGA,143040.400,4308.3137,N,07726.2582,W,1,08,1.11,148.2,M,-34.4,M,,*50
$GPRMC,143040.600,A,4308.3139,N,07726.2579,W,3.57,66.81,220319,,,A*41
$GPGGA,143040.800,4308.3140,N,07726.2576,W,1,08,1.11,148.3,M,-34.4,M,,*56
$GPRMC,143041.000,A,4308.3140,N,07726.2574,W,2.81,77.69,220319,,,A*49
$GPGGA,143041.200,4308.3141,N,07726.2573,W,1,08,1.11,148.5,M,-34.4,M,,*5F
$GPRMC,143041.400,A,4308.3141,N,07726.2571,W,2.01,87.36,220319,,,A*44
$GPGGA,143041.600,4308.3142,N,07726.2570,W,1,08,1.11,148.5,M,-34.4,M,,*5B
$GPRMC,143041.800,A,4308.3142,N,07726.2570,W,0.97,96.88,220319,,,A*42
$GPGGA,143042.000,4308.3142,N,07726.2570,W,1,08,1.11,148.6,M,-34.4,M,,*5D
$GPRMC,143042.200,A,4308.3143,N,07726.2571,W,0.30,204.22,220319,,,A*7F
$GPGGA,143042.400,4308.3144,N,07726.2574,W,1,08,1.11,148.8,M,-34.4,M,,*55
$GPRMC,143042.600,A,4308.3144,N,07726.2577,W,1.39,271.18,220319,,,A*79
$GPGGA,143042.800,4308.3145,N,07726.2579,W,1,08,1.11,148.9,M,-34.4,M,,*54
$GPRMC,143043.000,A,4308.3145,N,07726.2582,W,1.54,274.30,220319,,,A*71
$GPGGA,143043.200,4308.3145,N,07726.2586,W,1,08,1.11,149.0,M,-34.4,M,,*57
$GPRMC,143043.400,A,4308.3146,N,07726.2589,W,3.63,270.05,220319,,,A*79
$GPGGA,143043.600,4308.3146,N,07726.2595,W,1,08,1.11,149.0,M,-34.4,M,,*52
$GPRMC,143043.800,A,4308.3145,N,07726.2601,W,6.24,265.94,220319,,,A*7F
$GPGGA,143044.000,4308.3145,N,07726.2609,W,1,08,1.13,149.1,M,-34.4,M,,*55
$GPGGA,143044.400,4308.3146,N,07726.2623,W,1,08,1.13,149.1,M,-34.4,M,,*5A
$GPRMC,143044.400,A,4308.3146,N,07726.2623,W,8.58,271.34,220319,,,A*7D
$GPGGA,143044.600,4308.3147,N,07726.2632,W,1,08,1.13,149.1,M,-34.4,M,,*59
$GPRMC,143044.600,A,4308.3147,N,07726.2632,W,9.23,273.71,220319,,,A*70
$GPGGA,143044.800,4308.3148,N,07726.2641,W,1,08,1.13,149.2,M,-34.4,M,,*5F
$GPRMC,143044.800,A,4308.3148,N,07726.2641,W,10.18,275.34,220319,,,A*42
$GPGGA,143045.000,4308.3150,N,07726.2650,W,1,08,1.11,149.2,M,-34.4,M,,*5D
$GPRMC,143045.000,A,4308.3150,N,07726.2650,W,10.61,276.69,220319,,,A*47
$GPGGA,143045.200,4308.3154,N,07726.2661,W,1,08,1.11,149.3,M,-34.4,M,,*58
$GPRMC,143045.200,A,4308.3154,N,07726.2661,W,11.04,278.92,220319,,,A*4B
$GPGGA,143045.400,4308.3158,N,07726.2673,W,1,08,1.11,149.3,M,-34.4,M,,*51
$GPRMC,143045.400,A,4308.3158,N,07726.2673,W,11.50,280.30,220319,,,A*4C
$GPGGA,143045.600,4308.3161,N,07726.2684,W,1,08,1.11,149.4,M,-34.4,M,,*56
$GPRMC,143045.600,A,4308.3161,N,07726.2684,W,11.92,281.00,220319,,,A*40
$GPGGA,143045.800,4308.3164,N,07726.2695,W,1,08,1.11,149.4,M,-34.4,M,,*5D
$GPRMC,143045.800,A,4308.3164,N,07726.2695,W,12.33,281.56,220319,,,A*40
$GPGGA,143046.000,4308.3168,N,07726.2706,W,1,08,1.11,149.5,M,-34.4,M,,*50
$GPRMC,143046.000,A,4308.3168,N,07726.2706,W,12.82,282.21,220319,,,A*45
$GPGGA,143046.200,4308.3171,N,07726.2718,W,1,08,1.11,149.5,M,-34.4,M,,*55
$GPRMC,143046.200,A,4308.3171,N,07726.2718,W,13.37,282.97,220319,,,A*42
$GPGGA,143046.400,4308.3175,N,07726.2733,W,1,08,1.13,149.5,M,-34.4,M,,*5C
$GPRMC,143046.400,A,4308.3175,N,07726.2733,W,14.39,283.00,220319,,,A*4F
$GPGGA,143046.600,4308.3179,N,07726.2747,W,1,08,1.11,149.5,M,-34.4,M,,*53
$GPRMC,143046.600,A,4308.3179,N,07726.2747,W,15.23,284.13,220319,,,A*4D
$GPGGA,143046.800,4308.3182,N,07726.2760,W,1,08,1.11,149.5,M,-34.4,M,,*5C
$GPRMC,143046.800,A,4308.3182,N,07726.2760,W,15.57,284.92,220319,,,A*48
$GPGGA,143047.000,4308.3186,N,07726.2773,W,1,08,1.11,149.5,M,-34.4,M,,*53
$GPRMC,143047.000,A,4308.3186,N,07726.2773,W,16.06,286.38,220319,,,A*42
$GPGGA,143047.200,4308.3191,N,07726.2788,W,1,08,1.11,149.5,M,-34.4,M,,*53
$GPRMC,143047.200,A,4308.3191,N,07726.2788,W,16.71,287.42,220319,,,A*4E
$GPGGA,143047.400,4308.3196,N,07726.2804,W,1,08,1.11,149.5,M,-34.4,M,,*59
$GPRMC,143047.400,A,4308.3196,N,07726.2804,W,17.39,288.38,2203
$GPGGA,143047.600,4308.3201,N,07726.2820,W,1,08,1.11,149.5,M,-34.4,M,,*50
$GPRMC,143047.600,A,4308.3201,N,07726.2820,W,18.06,289.27,220319,,,A*4E
$GPGGA,143047.800,4308.3206,N,07726.2835,W,1,08,1.11,149.6,M,-34.4,M,,*5E
$GPRMC,143047.800,A,4308.3206,N,07726.2835,W,18.64,289.89,22031$GPGGA,143048.000,4308.3212,N,07726.2852,W,1,08,1.11,149.6,M,-34.4,M,,*5D
$GPRMC,143048.200,A,4308.3219,N,07726.2869,W,20.13,291.98,220319,,,A*43
$GPGGA,143048.400,4308.3225,N,07726.2886,W,1,08,1.13,149.7,M,-34.4,M,,*57
$GPRMC,143048.600,A,4308.3232,N,07726.2903,W,21.30,293.66,220319,,,A*40
$GPGGA,143048.800,4308.3239,N,07726.2920,W,1,08,1.11,149.7,M,-34.4,M,,*59
$GPRMC,143049.000,A,4308.3245,N,07726.2936,W,22.24,295.23,220319,,,A*40
$GPGGA,143049.200,4308.3253,N,07726.2953,W,1,08,1.11,149.7,M,-34.4,M,,*5A
$GPRMC,143049.400,A,4308.3260,N,07726.2970,W,23.12,297.21,220319,,,A*45
$GPGGA,143049.600,4308.3269,N,07726.2987,W,1,08,1.11,149.7,M,-34.4,M,,*5E
$GPRMC,143049.800,A,4308.3276,N,07726.3004,W,23.96,299.07,220319,,,A*43
$GPGGA,143050.000,4308.3285,N,07726.3022,W,1,08,1.11,149.7,M,-34.4,M,,*55
$GPRMC,143050.200,A,4308.3293,N,07726.3039,W,24.80,300.30,220319,,,A*41
$GPGGA,143050.400,4308.3301,N,07726.3057,W,1,08,1.11,149.8,M,-34.4,M,,*51
$GPRMC,143050.600,A,4308.3309,N,07726.3076,W,25.54,301.43,220319,,,A*41
$GPGGA,143050.800,4308.3317,N,07726.3094,W,1,08,1.11,149.8,M,-34.4,M,,*55
$GPRMC,143051.000,A,4308.3325,N,07726.3112,W,26.20,302.12,220319,,,A*4C
$GPGGA,143051.200,4308.3334,N,07726.3131,W,1,08,1.11,149.9,M,-34.4,M,,*50
$GPRMC,143051.400,A,4308.3343,N,07726.3150,W,26.64,302.74,220319,,,A*4E
$GPGGA,143051.600,4308.3352,N,07726.3168,W,1,08,1.11,149.9,M,-34.4,M,,*58
$GPRMC,143051.800,A,4308.3360,N,07726.3187,W,27.50,303.30,220319,,,A*4E
$GPGGA,143052.000,4308.3369,N,07726.3207,W,1,08,1.11,150.0,M,-34.4,M,,*5E
$GPRMC,143052.200,A,4308.3377,N,07726.3226,W,27.70,303.36,220319,,,A*4D
$GPGGA,143052.400,4308.3386,N,07726.3246,W,1,08,1.11,150.1,M,-34.4,M,,*5F
$GPRMC,143052.600,A,4308.3395,N,07726.3265,W,28.28,302.86,220319,,,A*4A
$GPGGA,143052.800,4308.3404,N,07726.3285,W,1,08,1.11,150.2,M,-34.4,M,,*52
$GPRMC,143053.000,A,4308.3412,N,07726.3306,W,29.38,302.39,220319,,,A*45
$GPGGA,143053.200,4308.3421,N,07726.3326,W,1,08,1.11,150.3,M,-34.4,M,,*57
$GPRMC,143053.400,A,4308.3430,N,07726.3346,W,29.73,302.29,220319,,,A*4B
$GPGGA,143053.600,4308.3439,N,07726.3366,W,1,08,1.11,150.4,M,-34.4,M,,*59
$GPRMC,143053.800,A,4308.3448,N,07726.3387,W,30.14,302.45,220319,,,A*46
$GPGGA,143054.000,4308.3457,N,07726.3406,W,1,08,1.11,150.6,M,-34.4,M,,*53
$GPRMC,143054.200,A,4308.3466,N,07726.3426,W,30.22,303.32,220319,,,A*4F
$GPGGA,143054.400,4308.3476,N,07726.3445,W,1,08,1.13,150.7,M,-34.4,M,,*50
$GPRMC,143054.600,A,4308.3486,N,07726.3464,W,30.25,305.17,220319,,,A*45
$GPGGA,143054.800,4308.3496,N,07726.3482,W,1,08,1.11,150.8,M,-34.4,M,,*54
$GPRMC,143055.000,A,4308.3506,N,07726.3500,W,30.16,306.14,220319,,,A*48
$GPGGA,143055.200,4308.3517,N,07726.3518,W,1,08,1.11,150.9,M,-34.4,M,,*54
$GPRMC,143055.400,A,4308.3528,N,07726.3535,W,29.63,308.10,220319,,,A*46
$GPGGA,143055.600,4308.3539,N,07726.3553,W,1,08,1.11,151.0,M,-34.4,M,,*5B
$GPRMC,143055.800,A,4308.3550,N,07726.3571,W,29.20,309.37,220319,,,A*46
$GPGGA,143056.000,4308.3560,N,07726.3588,W,1,08,1.11,151.1,M,-34.4,M,,*55
$GPRMC,143056.200,A,4308.3571,N,07726.3604,W,29.01,311.15,220319,,,A*47
$GPGGA,143056.400,4308.3583,N,07726.3619,W,1,08,1.11,151.1,M,-34.4,M,,*57
$GPRMC,143056.600,A,4308.3594,N,07726.3635,W,28.84,314.90,220319,,,A*4E
$GPGGA,143056.800,4308.3606,N,07726.3650,W,1,08,1.11,151.2,M,-34.4,M,,*5B
$GPRMC,143057.000,A,4308.3617,N,07726.3664,W,28.38,317.55,220319,,,A*48
$GPGGA,143057.200,4308.3630,N,07726.3678,W,1,08,1.11,151.3,M,-34.4,M,,*5E
$GPRMC,143057.400,A,4308.3643,N,07726.3690,W,28.43,321.89,220319,,,A*4E
$GPGGA,143057.600,4308.3656,N,07726.3702,W,1,08,1.11,151.4,M,-34.4,M,,*51
$GPRMC,143057.800,A,4308.3669,N,07726.3713,W,28.53,325.88,220319,,,A*44
$GPGGA,143058.000,4308.3684,N,07726.3724,W,1,08,1.11,151.5,M,-34.4,M,,*52
$GPRMC,143058.200,A,4308.3698,N,07726.3734,W,28.60,329.52,220319,,,A*41
$GPGGA,143058.400,4308.3713,N,07726.3744,W,1,08,1.11,151.6,M,-34.4,M,,*5C
$GPRMC,143058.600,A,4308.3728,N,07726.3753,W,29.54,333.20,220319,,,A*46
$GPGGA,143058.800,4308.3743,N,07726.3761,W,1,08,1.11,151.7,M,-34.4,M,,*53
$GPRMC,143059.000,A,4308.3759,N,07726.3769,W,29.69,336.22,220319,,,A*47
$GPGGA,143059.200,4308.3774,N,07726.3776,W,1,08,1.11,151.9,M,-34.4,M,,*54
$GPRMC,143059.400,A,4308.3790,N,07726.3783,W,29.89,339.83,220319,,,A*48
$GPGGA,143059.600,4308.3806,N,07726.3787,W,1,08,1.11,152.0,M,-34.4,M,,*5E
$GPRMC,143059.800,A,4308.3822,N,07726.3792,W,29.84,343.93,220319,,,A*43
$GPGGA,143100.000,4308.3838,N,07726.3795,W,1,08,1.11,152.1,M,-34.4,M,,*5A
$GPRMC,143100.200,A,4308.3855,N,07726.3799,W,29.82,347.97,220319,,,A*49
$GPGGA,143100.400,4308.3871,N,07726.3803,W,1,08,1.11,152.3,M,-34.4,M,,*51
$GPRMC,143100.600,A,4308.3888,N,07726.3807,W,29.79,349.95,220319,,,A*4D
$GPGGA,143100.800,4308.3905,N,07726.3810,W,1,08,1.11,152.4,M,-34.4,M,,*5A
$GPRMC,143101.000,A,4308.3922,N,07726.3813,W,29.91,351.54,220319,,,A*4C
$GPGGA,143101.200,4308.3939,N,07726.3812,W,1,08,1.11,152.5,M,-34.4,M,,*5D
$GPRMC,143101.400,A,4308.3957,N,07726.3813,W,30.26,356.10,220319,,,A*49
$GPGGA,143101.600,4308.3974,N,07726.3812,W,1,08,1.11,152.7,M,-34.4,M,,*52
$GPRMC,143101.800,A,4308.3991,N,07726.3810,W,30.49,359.87,220319,,,A*44
$GPGGA,143102.000,4308.4007,N,07726.3807,W,1,08,1.11,152.8,M,-34.4,M,,*56
$GPRMC,143102.200,A,4308.4024,N,07726.3804,W,30.99,3.87,220319,,,A*49
$GPGGA,143102.400,4308.4041,N,07726.3800,W,1,08,1.11,153.1,M,-34.4,M,,*5F
$GPRMC,143102.600,A,4308.4058,N,07726.3797,W,31.50,6.31,220319,,,A*4F
$GPGGA,143102.800,4308.4075,N,07726.3794,W,1,08,1.11,153.3,M,-34.4,M,,*54
$GPRMC,143103.000,A,4308.4092,N,07726.3790,W,31.59,7.43,220319,,,A*44
$GPGGA,143103.200,4308.4109,N,07726.3786,W,1,08,1.11,153.6,M,-34.4,M,,*53
$GPRMC,143103.400,A,4308.4126,N,07726.3781,W,31.73,8.38,220319,,,A*45
$GPGGA,143103.600,4308.4144,N,07726.3776,W,1,08,1.11,153.8,M,-34.4,M,,*5F
$GPRMC,143103.800,A,4308.4161,N,07726.3772,W,31.81,8.83,220319,,,A*4B
$GPGGA,143104.000,4308.4178,N,07726.3768,W,1,08,1.11,154.0,M,-34.4,M,,*51
$GPRMC,143104.200,A,4308.4195,N,07726.3763,W,31.53,8.91,220319,,,A*41
$GPGGA,143104.400,4308.4212,N,07726.3759,W,1,08,1.11,154.2,M,-34.4,M,,*5A
$GPRMC,143104.600,A,4308.4228,N,07726.3754,W,30.96,8.95,220319,,,A*48
$GPGGA,143104.800,4308.4245,N,07726.3749,W,1,08,1.11,154.4,M,-34.4,M,,*53
$GPRMC,143105.000,A,4308.4261,N,07726.3745,W,30.64,9.11,220319,,,A*42
$GPGGA,143105.200,4308.4278,N,07726.3740,W,1,08,1.11,154.6,M,-34.4,M,,*5D
$GPRMC,143105.400,A,4308.4294,N,07726.3736,W,30.18,9.03,220319,,,A*40
$GPGGA,143105.600,4308.4311,N,07726.3731,W,1,08,1.11,154.8,M,-34.4,M,,*5F
$GPRMC,143105.800,A,4308.4327,N,07726.3727,W,30.06,9.43,220319,,,A*4E
$GPGGA,143106.000,4308.4344,N,07726.3722,W,1,08,1.11,155.1,M,-34.4,M,,*50
$GPRMC,143106.200,A,4308.4359,N,07726.3717,W,29.64,10.01,220319,,,A*7F
$GPGGA,143106.400,4308.4375,N,07726.3713,W,1,08,1.11,155.3,M,-34.4,M,,*56
$GPRMC,143106.600,A,4308.4390,N,07726.3708,W,29.56,10.16,220319,,,A*77
$GPGGA,143106.800,4308.4405,N,07726.3704,W,1,08,1.11,155.4,M,-34.4,M,,*5B
$GPRMC,143107.000,A,4308.4419,N,07726.3699,W,27.74,10.71,220319,,,A*70
$GPGGA,143107.200,4308.4433,N,07726.3694,W,1,08,1.11,155.6,M,-34.4,M,,*5F
$GPRMC,143107.400,A,4308.4447,N,07726.3690,W,26.56,10.77,220319,,,A*71
$GPGGA,143107.600,4308.4460,N,07726.3685,W,1,08,1.11,155.8,M,-34.4,M,,*53
$GPRMC,143107.800,A,4308.4472,N,07726.3681,W,25.05,11.45,220319,,,A*7E
$GPGGA,143108.000,4308.4485,N,07726.3677,W,1,08,1.13,156.0,M,-34.4,M,,*55
$GPRMC,143108.200,A,4308.4497,N,07726.3672,W,23.90,11.90,220319,,,A*7E
$GPGGA,143108.400,4308.4507,N,07726.3669,W,1,08,1.13,156.2,M,-34.4,M,,*57
$GPRMC,143108.600,A,4308.4517,N,07726.3665,W,21.43,12.29,220319,,,A*78
$GPGGA,143108.800,4308.4527,N,07726.3662,W,1,08,1.13,156.4,M,-34.4,M,,*54
$GPRMC,143109.000,A,4308.4537,N,07726.3658,W,20.45,12.80,220319,,,A*77
$GPGGA,143109.200,4308.4547,N,07726.3654,W,1,08,1.13,156.5,M,-34.4,M,,*5D
$GPRMC,143109.400,A,4308.4557,N,07726.3651,W,19.66,13.50,220319,,,A*7B
$GPGGA,143109.600,4308.4567,N,07726.3647,W,1,08,1.13,156.7,M,-34.4,M,,*5B
$GPRMC,143109.800,A,4308.4575,N,07726.3643,W,18.68,14.63,220319,,,A*7C
$GPGGA,143110.000,4308.4584,N,07726.3640,W,1,08,1.13,156.9,M,-34.4,M,,*51
$GPRMC,143110.200,A,4308.4593,N,07726.3636,W,17.83,15.46,220319,,,A*78
$GPGGA,143110.400,4308.4600,N,07726.3633,W,1,08,1.11,157.1,M,-34.4,M,,*55
$GPRMC,143110.600,A,4308.4607,N,07726.3629,W,16.51,17.47,220319,,,A*71
$GPGGA,143110.800,4308.4611,N,07726.3624,W,1,08,1.11,157.3,M,-34.4,M,,*5D
$GPRMC,143111.000,A,4308.4614,N,07726.3620,W,15.37,17.93,220319,,,A*77
$GPGGA,143111.200,4308.4616,N,07726.3616,W,1,08,1.11,157.5,M,-34.4,M,,*56
$GPRMC,143111.400,A,4308.4616,N,07726.3617,W,13.62,18.10,220319,,,A*77
$GPGGA,143111.600,4308.4616,N,07726.3617,W,1,08,1.11,157.7,M,-34.4,M,,*51
$GPRMC,143111.800,A,4308.4617,N,07726.3615,W,11.93,16.68,220319,,,A*75
$GPGGA,143112.000,4308.4618,N,07726.3614,W,1,08,1.11,157.9,M,-34.4,M,,*57
$GPRMC,143112.200,A,4308.4618,N,07726.3615,W,9.98,13.77,220319,,,A*4A
$GPGGA,143112.400,4308.4609,N,07726.3620,W,1,08,1.13,158.1,M,-34.4,M,,*51
$GPRMC,143112.600,A,4308.4607,N,07726.3620,W,5.93,12.88,220319,,,A*40
$GPGGA,143112.800,4308.4606,N,07726.3621,W,1,08,1.13,158.2,M,-34.4,M,,*50
$GPRMC,143113.000,A,4308.4608,N,07726.3620,W,4.66,12.47,220319,,,A*40
$GPGGA,143113.200,4308.4611,N,07726.3620,W,1,08,1.13,158.4,M,-34.4,M,,*5A
$GPRMC,143113.400,A,4308.4614,N,07726.3620,W,5.52,8.96,220319,,,A*78
$GPGGA,143113.600,4308.4617,N,07726.3620,W,1,08,1.13,158.6,M,-34.4,M,,*5A
$GPRMC,143113.800,A,4308.4619,N,07726.3620,W,6.61,4.83,220319,,,A*72
$GPGGA,143114.000,4308.4622,N,07726.3621,W,1,08,1.13,158.8,M,-34.4,M,,*52
$GPRMC,143114.200,A,4308.4627,N,07726.3624,W,7.84,355.64,220319,,,A*72
$GPGGA,143114.400,4308.4632,N,07726.3626,W,1,08,1.13,159.0,M,-34.4,M,,*59
$GPRMC,143114.600,A,4308.4636,N,07726.3629,W,8.49,347.57,220319,,,A*76
$GPGGA,143114.800,4308.4641,N,07726.3631,W,1,08,1.13,159.1,M,-34.4,M,,*56
$GPRMC,143115.000,A,4308.4646,N,07726.3635,W,9.45,340.88,220319,,,A*73
$GPGGA,143115.200,4308.4651,N,07726.3639,W,1,08,1.11,159.2,M,-34.4,M,,*55
$GPRMC,143115.400,A,4308.4656,N,07726.3644,W,9.73,334.51,220319,,,A*72
$GPGGA,143115.600,4308.4660,N,07726.3650,W,1,08,1.11,159.4,M,-34.4,M,,*5A
$GPRMC,143115.800,A,4308.4665,N,07726.3657,W,10.30,326.94,220319,,,A*49
$GPGGA,143116.000,4308.4670,N,07726.3669,W,1,08,1.11,159.5,M,-34.4,M,,*55
$GPRMC,143116.200,A,4308.4676,N,07726.3681,W,13.01,314.20,220319,,,A*46
$GPGGA,143116.400,4308.4681,N,07726.3695,W,1,08,1.11,159.6,M,-34.4,M,,*5F
$GPRMC,143116.600,A,4308.4685,N,07726.3709,W,15.48,305.87,220319,,,A*49
$GPGGA,143116.800,4308.4689,N,07726.3724,W,1,08,1.11,159.8,M,-34.4,M,,*5E
$GPRMC,143117.000,A,4308.4688,N,07726.3745,W,17.67,296.84,220319,,,A*4C
$GPGGA,143117.200,4308.4686,N,07726.3773,W,1,08,1.13,160.0,M,-34.4,M,,*58
$GPRMC,143117.400,A,4308.4686,N,07726.3797,W,21.54,288.41,220319,,,A*4A
$GPGGA,143117.600,4308.4688,N,07726.3819,W,1,08,1.13,160.2,M,-34.4,M,,*53
$GPRMC,143117.800,A,4308.4690,N,07726.3842,W,24.76,285.69,220319,,,A*44
$GPGGA,143118.000,4308.4692,N,07726.3869,W,1,08,1.13,160.4,M,-34.4,M,,*50
$GPRMC,143118.200,A,4308.4692,N,07726.3893,W,28.51,282.14,220319,,,A*4B
$GPGGA,143118.400,4308.4693,N,07726.3919,W,1,08,1.13,160.5,M,-34.4,M,,*52
$GPRMC,143118.600,A,4308.4694,N,07726.3947,W,32.69,279.17,220319,,,A*46
$GPGGA,143118.800,4308.4696,N,07726.3975,W,1,08,1.13,160.7,M,-34.4,M,,*53
$GPRMC,143119.000,A,4308.4698,N,07726.4004,W,34.51,278.40,220319,,,A*4A
$GPGGA,143119.200,4308.4700,N,07726.4033,W,1,08,1.13,160.8,M,-34.4,M,,*55
$GPRMC,143119.400,A,4308.4702,N,07726.4064,W,37.94,279.45,220319,,,A*44
$GPGGA,143119.600,4308.4706,N,07726.4095,W,1,08,1.13,160.9,M,-34.4,M,,*5A
$GPRMC,143119.800,A,4308.4709,N,07726.4126,W,39.27,279.90,220319,,,A*4A
$GPGGA,143120.000,4308.4712,N,07726.4158,W,1,08,1.13,160.9,M,-34.4,M,,*53
$GPRMC,143120.200,A,4308.4715,N,07726.4190,W,40.87,279.61,220319,,,A*40
$GPGGA,143120.400,4308.4718,N,07726.4224,W,1,08,1.13,161.0,M,-34.4,M,,*5D
$GPRMC,143120.600,A,4308.4720,N,07726.4257,W,42.37,278.76,220319,,,A*44
$GPGGA,143120.800,4308.4722,N,07726.4292,W,1,08,1.11,161.1,M,-34.4,M,,*56
$GPRMC,143121.000,A,4308.4724,N,07726.4326,W,43.64,278.03,220319,,,A*45
$GPGGA,143121.200,4308.4727,N,07726.4362,W,1,08,1.11,161.1,M,-34.4,M,,*56
$GPRMC,143121.400,A,4308.4730,N,07726.4397,W,44.78,277.47,220319,,,A*4B
$GPGGA,143121.600,4308.4733,N,07726.4431,W,1,08,1.11,161.2,M,-34.4,M,,*55
$GPRMC,143121.800,A,4308.4737,N,07726.4466,W,44.77,277.26,220319,,,A*41
$GPGGA,143122.000,4308.4740,N,07726.4500,W,1,08,1.11,161.3,M,-34.4,M,,*56
$GPRMC,143122.200,A,4308.4743,N,07726.4535,W,44.39,277.58,220319,,,A*4F
$GPGGA,143122.400,4308.4747,N,07726.4568,W,1,08,1.11,161.4,M,-34.4,M,,*5C
$GPRMC,143122.600,A,4308.4750,N,07726.4602,W,43.58,278.94,220319,,,A*41
$GPGGA,143122.800,4308.4754,N,07726.4637,W,1,08,1.11,161.6,M,-34.4,M,,*59
$GPRMC,143123.000,A,4308.4757,N,07726.4671,W,43.76,278.68,220319,,,A*4A
$GPGGA,143123.200,4308.4761,N,07726.4705,W,1,08,1.13,161.8,M,-34.4,M,,*58
$GPRMC,143123.400,A,4308.4763,N,07726.4738,W,42.86,278.25,220319,,,A*42
$GPGGA,143123.600,4308.4766,N,07726.4771,W,1,08,1.11,162.0,M,-34.4,M,,*51
$GPGGA,143124.000,4308.4772,N,07726.4835,W,1,08,1.11,162.1,M,-34.4,M,,*5B
$GPRMC,143124.000,A,4308.4772,N,07726.4835,W,42.26,278.07,220319,,,A*49
$GPGGA,143124.200,4308.4775,N,07726.4867,W,1,08,1.11,162.2,M,-34.4,M,,*5A
$GPRMC,143124.200,A,4308.4775,N,07726.4867,W,42.10,278.20,220319,,,A*4B
$GPGGA,143124.400,4308.4778,N,07726.4900,W,1,08,1.13,162.3,M,-34.4,M,,*52
$GPRMC,143124.400,A,4308.4778,N,07726.4900,W,41.90,278.10,220319,,,A*48
$GPRMC,143124.800,A,4308.4784,N,07726.4963,W,41.63,277.72,220319,,,A*45
$GPGGA,143125.000,4308.4786,N,07726.4994,W,1,08,1.11,162.5,M,-34.4,M,,*5F
$GPGGA,143125.600,4308.4794,N,07726.5088,W,1,08,1.11,162.7,M,-34.4,M,,*5D
$GPRMC,143125.600,A,4308.4794,N,07726.5088,W,40.97,277.08,220319,,,A*41
$GPGGA,143125.800,4308.4797,N,07726.5118,W,1,08,1.11,162.7,M,-34.4,M,,*58
$GPRMC,143125.800,A,4308.4797,N,07726.5118,W,40.94,276.93,220319,,,A*44
$GPGGA,143126.000,4308.4799,N,07726.5149,W,1,08,1.11,162.7,M,-34.4,M,,*59
$GPRMC,143126.000,A,4308.4799,N,07726.5149,W,40.37,276.65,220319,,,A*45
$GPGGA,143126.200,4308.4801,N,07726.5179,W,1,08,1.13,162.8,M,-34.4,M,,*5B
$GPRMC,143126.200,A,4308.4801,N,07726.5179,W,40.08,276.20,220319,,,A*47
$GPGGA,143126.400,4308.4803,N,07726.5209,W,1,08,1.13,162.8,M,-34.4,M,,*5B
$GPRMC,143126.400,A,4308.4803,N,07726.5209,W,39.83,275.86,220319,,,A*45
$GPGGA,143126.600,4308.4805,N,07726.5239,W,1,08,1.13,162.8,M,-34.4,M,,*5C
$GPRMC,143126.600,A,4308.4805,N,07726.5239,W,39.77,275.40,220319,,,A*43
$GPGGA,143126.800,4308.4807,N,07726.5269,W,1,08,1.11,162.9,M,-34.4,M,,*56
$GPRMC,143126.800,A,4308.4807,N,07726.5269,W,39.51,275.13,220319,,,A*48
$GPGGA,143127.000,4308.4808,N,07726.5299,W,1,08,1.13,162.9,M,-34.4,M,,*5D
$GPRMC,143127.000,A,4308.4808,N,07726.5299,W,39.27,274.92,220319,,,A*48
$GPGGA,143127.200,4308.4810,N,07726.5328,W,1,08,1.13,162.9,M,-34.4,M,,*5D
$GPRMC,143127.200,A,4308.4810,N,07726.5328,W,39.03,274.80,220319,,,A*4D
$GPGGA,143127.400,4308.4812,N,07726.5358,W,1,08,1.13,163.0,M,-34.4,M,,*56
$GPRMC,143127.400,A,4308.4812,N,07726.5358,W,38.72,274.58,220319,,,A*4C
$GPGGA,143127.800,4308.4815,N,07726.5415,W,1,08,1.11,163.0,M,-34.4,M,,*51
$GPRMC,143127.800,A,4308.4815,N,07726.5415,W,38.46,274.55,220319,,,A*43
$GPGGA,143128.000,4308.4817,N,07726.5444,W,1,08,1.11,163.0,M,-34.4,M,,*50
$GPRMC,143128.000,A,4308.4817,N,07726.5444,W,38.39,274.53,220319,,,A*4C
$GPGGA,143128.200,4308.4818,N,07726.5473,W,1,08,1.11,163.0,M,-34.4,M,,*59
$GPRMC,143128.200,A,4308.4818,N,07726.5473,W,38.22,274.26,220319,,,A*4D
$GPGGA,143128.400,4308.4819,N,07726.5502,W,1,08,1.13,163.0,M,-34.4,M,,*5B
$GPRMC,143128.400,A,4308.4819,N,07726.5502,W,38.18,274.04,220319,,,A*44
$GPGGA,143128.600,4308.4821,N,07726.5531,W,1,08,1.11,163.0,M,-34.4,M,,*50
$GPRMC,143128.600,A,4308.4821,N,07726.5531,W,37.95,274.04,220319,,,A*47
$GPGGA,143128.800,4308.4822,N,07726.5559,W,1,08,1.11,163.0,M,-34.4,M,,*53
$GPRMC,143128.800,A,4308.4822,N,07726.5559,W,37.63,273.86,220319,,,A*40
$GPGGA,143129.000,4308.4823,N,07726.5588,W,1,08,1.11,163.1,M,-34.4,M,,*56
$GPRMC,143129.000,A,4308.4823,N,07726.5588,W,37.40,273.56,220319,,,A*48
$GPGGA,143129.200,4308.4824,N,07726.5616,W,1,08,1.13,163.1,M,-34.4,M,,*55
$GPRMC,143129.200,A,4308.4824,N,07726.5616,W,37.16,273.46,220319,,,A*4B
$GPGGA,143129.400,4308.4825,N,07726.5644,W,1,08,1.13,163.0,M,-34.4,M,,*54
$GPRMC,143129.400,A,4308.4825,N,07726.5644,W,36.92,273.41,220319,,,A*41
$GPGGA,143129.600,4308.4827,N,07726.5671,W,1,08,1.13,163.0,M,-34.4,M,,*52
$GPRMC,143129.600,A,4308.4827,N,07726.5671,W,36.75,273.42,220319,,,A*4D
$GPGGA,143129.800,4308.4828,N,07726.5699,W,1,08,1.11,163.0,M,-34.4,M,,*57
$GPRMC,143129.800,A,4308.4828,N,07726.5699,W,36.57,273.25,220319,,,A*4B
$GPGGA,143130.000,4308.4829,N,07726.5727,W,1,08,1.11,163.0,M,-34.4,M,,*52
$GPRMC,143130.000,A,4308.4829,N,07726.5727,W,36.38,273.01,220319,,,A*41
$GPGGA,143130.200,4308.4830,N,07726.5754,W,1,08,1.13,163.0,M,-34.4,M,,*5E
$GPRMC,143130.200,A,4308.4830,N,07726.5754,W,36.34,272.78,220319,,,A*4C
$GPGGA,143130.400,4308.4830,N,07726.5781,W,1,08,1.13,163.0,M,-34.4,M,,*50
$GPRMC,143130.400,A,4308.4830,N,07726.5781,W,35.67,272.58,220319,,,A*45
$GPGGA,143130.600,4308.4831,N,07726.5808,W,1,08,1.13,163.0,M,-34.4,M,,*5D
$GPRMC,143130.600,A,4308.4831,N,07726.5808,W,35.40,272.40,220319,,,A*44
$GPGGA,143130.800,4308.4832,N,07726.5835,W,1,08,1.11,163.1,M,-34.4,M,,*5D
$GPRMC,143130.800,A,4308.4832,N,07726.5835,W,35.15,272.22,2203
$GPGGA,143131.000,4308.4832,N,07726.5861,W,1,08,1.13,163.1,M,-34.4,M,,*57
$GPRMC,143131.000,A,4308.4832,N,07726.5861,W,34.43,272.10,220319,,,A*48
$GPGGA,143131.200,4308.4833,N,07726.5888,W,1,08,1.13,163.1,M,-34.4,M,,*53
$GPRMC,143131.200,A,4308.4833,N,07726.5888,W,34.40,272.10,22031$GPGGA,143131.400,4308.4833,N,07726.5914,W,1,08,1.13,163.1,M,-34.4,M,,*51
$GPRMC,143131.600,A,4308.4834,N,07726.5940,W,34.14,272.33,220319,,,A*49
$GPGGA,143131.800,4308.4834,N,07726.5966,W,1,08,1.11,163.1,M,-34.4,M,,*5D
$GPRMC,143132.000,A,4308.4835,N,07726.5991,W,34.08,272.25,220319,,,A*4B
$GPGGA,143132.200,4308.4835,N,07726.6017,W,1,08,1.13,163.1,M,-34.4,M,,*5B
$GPRMC,143132.400,A,4308.4836,N,07726.6042,W,33.80,272.06,220319,,,A*4E
$GPGGA,143132.600,4308.4836,N,07726.6067,W,1,08,1.13,163.1,M,-34.4,M,,*5B
$GPRMC,143132.800,A,4308.4837,N,07726.6092,W,33.40,272.02,220319,,,A*46
$GPGGA,143133.000,4308.4838,N,07726.6117,W,1,08,1.13,163.1,M,-34.4,M,,*54
$GPRMC,143133.200,A,4308.4838,N,07726.6141,W,33.10,271.98,220319,,,A*48
$GPGGA,143133.400,4308.4839,N,07726.6166,W,1,08,1.13,163.1,M,-34.4,M,,*57
$GPRMC,143133.600,A,4308.4839,N,07726.6190,W,32.40,272.22,220319,,,A*47
$GPGGA,143133.800,4308.4840,N,07726.6214,W,1,08,1.11,163.1,M,-34.4,M,,*51
$GPRMC,143134.000,A,4308.4841,N,07726.6239,W,32.29,272.09,220319,,,A*4F
$GPGGA,143134.200,4308.4841,N,07726.6263,W,1,08,1.11,163.2,M,-34.4,M,,*5E
$GPRMC,143134.400,A,4308.4842,N,07726.6286,W,32.06,271.79,220319,,,A*45
$GPGGA,143134.600,4308.4842,N,07726.6310,W,1,08,1.13,163.0,M,-34.4,M,,*5C
$GPRMC,143134.800,A,4308.4843,N,07726.6333,W,31.79,271.54,220319,,,A*43
$GPGGA,143135.000,4308.4843,N,07726.6356,W,1,08,1.13,162.8,M,-34.4,M,,*51
$GPRMC,143135.200,A,4308.4844,N,07726.6379,W,31.26,271.28,220319,,,A*40
$GPGGA,143135.400,4308.4844,N,07726.6402,W,1,08,1.13,162.6,M,-34.4,M,,*5A
$GPRMC,143135.600,A,4308.4844,N,07726.6424,W,30.69,270.41,220319,,,A*4F
$GPGGA,143135.800,4308.4844,N,07726.6447,W,1,08,1.11,162.4,M,-34.4,M,,*57
$GPRMC,143136.000,A,4308.4843,N,07726.6470,W,30.64,269.86,220319,,,A*42
$GPGGA,143136.200,4308.4843,N,07726.6492,W,1,08,1.13,162.3,M,-34.4,M,,*54
$GPRMC,143136.400,A,4308.4842,N,07726.6515,W,30.48,268.95,220319,,,A*48
$GPGGA,143136.600,4308.4840,N,07726.6537,W,1,08,1.13,162.1,M,-34.4,M,,*5F
$GPRMC,143136.800,A,4308.4839,N,07726.6560,W,30.59,268.06,220319,,,A*40
$GPGGA,143137.000,4308.4838,N,07726.6583,W,1,08,1.13,162.0,M,-34.4,M,,*59
$GPRMC,143137.200,A,4308.4836,N,07726.6606,W,30.62,267.07,220319,,,A*41
$GPGGA,143137.400,4308.4835,N,07726.6628,W,1,08,1.13,161.9,M,-34.4,M,,*58
$GPRMC,143137.600,A,4308.4833,N,07726.6651,W,30.69,266.67,220319,,,A*4E
$GPGGA,143137.800,4308.4831,N,07726.6674,W,1,08,1.11,161.9,M,-34.4,M,,*5B
$GPRMC,143138.000,A,4308.4829,N,07726.6697,W,30.74,266.09,220319,,,A*42
$GPGGA,143138.200,4308.4827,N,07726.6719,W,1,08,1.13,161.9,M,-34.4,M,,*51
$GPRMC,143138.400,A,4308.4825,N,07726.6742,W,30.72,265.86,220319,,,A*41
$GPGGA,143138.600,4308.4824,N,07726.6765,W,1,08,1.13,161.9,M,-34.4,M,,*5D
$GPRMC,143138.800,A,4308.4822,N,07726.6789,W,30.97,265.64,220319,,,A*4A
$GPGGA,143139.000,4308.4820,N,07726.6812,W,1,08,1.13,161.9,M,-34.4,M,,*51
$GPRMC,143139.200,A,4308.4818,N,07726.6836,W,31.35,265.49,220319,,,A*45
$GPGGA,143139.400,4308.4816,N,07726.6859,W,1,08,1.13,162.0,M,-34.4,M,,*55
$GPRMC,143139.600,A,4308.4814,N,07726.6883,W,31.61,265.36,220319,,,A*4A
$GPGGA,143139.800,4308.4812,N,07726.6906,W,1,08,1.11,162.0,M,-34.4,M,,*54
$GPRMC,143140.000,A,4308.4810,N,07726.6930,W,31.72,265.28,220319,,,A*42
$GPGGA,143140.200,4308.4809,N,07726.6954,W,1,08,1.13,162.0,M,-34.4,M,,*5F
$GPRMC,143140.400,A,4308.4807,N,07726.6978,W,31.95,265.27,220319,,,A*4A
$GPGGA,143140.600,4308.4805,N,07726.7002,W,1,08,1.13,162.0,M,-34.4,M,,*5C
$GPRMC,143140.800,A,4308.4803,N,07726.7026,W,32.16,265.46,220319,,,A*4E
$GPGGA,143141.000,4308.4802,N,07726.7052,W,1,08,1.13,162.0,M,-34.4,M,,*59
$GPRMC,143141.200,A,4308.4800,N,07726.7076,W,32.52,265.50,220319,,,A*44
$GPGGA,143141.400,4308.4798,N,07726.7101,W,1,08,1.13,162.1,M,-34.4,M,,*57
$GPRMC,143141.600,A,4308.4797,N,07726.7126,W,32.54,265.62,220319,,,A*42
$GPGGA,143141.800,4308.4795,N,07726.7150,W,1,08,1.11,162.2,M,-34.4,M,,*53
$GPRMC,143142.000,A,4308.4794,N,07726.7175,W,32.74,265.98,220319,,,A*45
$GPGGA,143142.200,4308.4792,N,07726.7200,W,1,08,1.13,162.3,M,-34.4,M,,*58
$GPRMC,143142.400,A,4308.4791,N,07726.7225,W,33.06,266.12,220319,,,A*47
$GPGGA,143142.600,4308.4789,N,07726.7250,W,1,08,1.13,162.4,M,-34.4,M,,*54
$GPRMC,143142.800,A,4308.4788,N,07726.7275,W,33.15,266.15,220319,,,A*43
$GPGGA,143143.000,4308.4787,N,07726.7300,W,1,08,1.11,162.5,M,-34.4,M,,*5A
$GPRMC,143143.200,A,4308.4785,N,07726.7325,W,33.16,266.15,220319,,,A*42
$GPGGA,143143.400,4308.4784,N,07726.7351,W,1,08,1.13,162.7,M,-34.4,M,,*59
$GPRMC,143143.600,A,4308.4782,N,07726.7376,W,33.36,265.58,220319,,,A*4F
$GPGGA,143143.800,4308.4780,N,07726.7401,W,1,08,1.11,162.8,M,-34.4,M,,*5E
$GPRMC,143144.000,A,4308.4779,N,07726.7426,W,33.33,265.41,220319,,,A*45
$GPGGA,143144.200,4308.4777,N,07726.7451,W,1,08,1.13,163.0,M,-34.4,M,,*55
$GPRMC,143144.400,A,4308.4775,N,07726.7475,W,32.84,265.30,220319,,,A*40
$GPGGA,143144.600,4308.4773,N,07726.7500,W,1,08,1.13,163.2,M,-34.4,M,,*52
$GPRMC,143144.800,A,4308.4772,N,07726.7524,W,32.81,265.30,220319,,,A*4B
$GPGGA,143145.000,4308.4770,N,07726.7549,W,1,08,1.11,163.4,M,-34.4,M,,*5F
$GPRMC,143145.200,A,4308.4769,N,07726.7573,W,31.89,265.63,220319,,,A*45
$GPGGA,143145.400,4308.4768,N,07726.7597,W,1,08,1.13,163.6,M,-34.4,M,,*51
$GPRMC,143145.600,A,4308.4766,N,07726.7621,W,31.67,265.94,220319,,,A*42
$GPGGA,143145.800,4308.4765,N,07726.7645,W,1,08,1.11,163.7,M,-34.4,M,,*5F
$GPRMC,143146.000,A,4308.4764,N,07726.7669,W,31.64,265.85,220319,,,A*4A
$GPGGA,143146.200,4308.4762,N,07726.7692,W,1,08,1.13,163.9,M,-34.4,M,,*57
$GPRMC,143146.400,A,4308.4761,N,07726.7715,W,31.51,265.83,220319,,,A*41
$GPGGA,143146.600,4308.4759,N,07726.7738,W,1,08,1.13,163.9,M,-34.4,M,,*5A
$GPRMC,143146.800,A,4308.4758,N,07726.7761,W,31.45,265.85,220319,,,A*47
$GPGGA,143147.000,4308.4757,N,07726.7784,W,1,08,1.11,163.9,M,-34.4,M,,*56
$GPRMC,143147.200,A,4308.4756,N,07726.7807,W,31.70,266.31,220319,,,A*47
$GPGGA,143147.400,4308.4754,N,07726.7829,W,1,08,1.13,164.0,M,-34.4,M,,*55
$GPRMC,143147.600,A,4308.4753,N,07726.7853,W,31.81,266.26,220319,,,A*4F
$GPGGA,143147.800,4308.4752,N,07726.7876,W,1,07,1.29,164.1,M,-34.4,M,,*52
$GPRMC,143148.000,A,4308.4751,N,07726.7899,W,31.83,266.38,220319,,,A*4F
$GPGGA,143148.200,4308.4749,N,07726.7921,W,1,08,1.13,164.1,M,-34.4,M,,*58
$GPRMC,143148.400,A,4308.4748,N,07726.7945,W,32.13,266.42,220319,,,A*44
$GPGGA,143148.600,4308.4746,N,07726.7968,W,1,08,1.13,164.1,M,-34.4,M,,*5E
$GPRMC,143148.800,A,4308.4745,N,07726.7992,W,32.36,266.37,220319,,,A*4A
$GPGGA,143149.000,4308.4743,N,07726.8016,W,1,08,1.13,164.1,M,-34.4,M,,*53
$GPRMC,143149.200,A,4308.4741,N,07726.8040,W,32.65,265.80,220319,,,A*45
$GPGGA,143149.400,4308.4739,N,07726.8065,W,1,08,1.13,164.0,M,-34.4,M,,*5F
$GPRMC,143149.600,A,4308.4738,N,07726.8089,W,32.66,265.84,220319,,,A*4D
$GPGGA,143149.800,4308.4736,N,07726.8114,W,1,08,1.11,163.9,M,-34.4,M,,*57
$GPRMC,143150.000,A,4308.4735,N,07726.8138,W,32.69,265.68,220319,,,A*48
$GPGGA,143150.200,4308.4733,N,07726.8163,W,1,08,1.13,163.7,M,-34.4,M,,*5C
$GPRMC,143150.400,A,4308.4731,N,07726.8188,W,32.92,265.36,220319,,,A*4C
$GPGGA,143150.600,4308.4730,N,07726.8212,W,1,08,1.13,163.6,M,-34.4,M,,*5F
$GPRMC,143150.800,A,4308.4728,N,07726.8237,W,33.01,265.19,220319,,,A*49
$GPGGA,143151.000,4308.4726,N,07726.8263,W,1,08,1.13,163.5,M,-34.4,M,,*5A
$GPRMC,143151.200,A,4308.4725,N,07726.8288,W,33.30,264.98,220319,,,A*41
$GPGGA,143151.400,4308.4723,N,07726.8313,W,1,08,1.13,163.4,M,-34.4,M,,*5C
$GPRMC,143151.600,A,4308.4721,N,07726.8339,W,33.56,264.83,220319,,,A*40
$GPGGA,143151.800,4308.4720,N,07726.8365,W,1,08,1.11,163.3,M,-34.4,M,,*57
$GPRMC,143152.000,A,4308.4718,N,07726.8391,W,33.81,264.85,220319,,,A*41
$GPGGA,143152.200,4308.4716,N,07726.8417,W,1,08,1.13,163.1,M,-34.4,M,,*59
$GPRMC,143152.400,A,4308.4715,N,07726.8442,W,33.84,265.06,220319,,,A*4E
$GPGGA,143152.600,4308.4714,N,07726.8468,W,1,08,1.13,163.0,M,-34.4,M,,*56
$GPRMC,143152.800,A,4308.4712,N,07726.8494,W,33.95,265.05,220319,,,A*4D
$GPGGA,143153.000,4308.4711,N,07726.8521,W,1,08,1.13,162.9,M,-34.4,M,,*50
$GPRMC,143153.200,A,4308.4709,N,07726.8547,W,33.95,265.11,220319,,,A*46
$GPGGA,143153.400,4308.4708,N,07726.8573,W,1,08,1.13,162.7,M,-34.4,M,,*55
$GPRMC,143153.600,A,4308.4706,N,07726.8600,W,33.88,265.07,220319,,,A*46
$GPGGA,143153.800,4308.4705,N,07726.8626,W,1,08,1.11,162.4,M,-34.4,M,,*56
$GPRMC,143154.000,A,4308.4704,N,07726.8651,W,33.56,264.94,220319,,,A*49
$GPGGA,143154.200,4308.4702,N,07726.8677,W,1,08,1.13,162.3,M,-34.4,M,,*5D
$GPRMC,143154.400,A,4308.4701,N,07726.8703,W,33.45,264.69,220319,,,A*4E
$GPGGA,143154.600,4308.4699,N,07726.8728,W,1,08,1.13,162.1,M,-34.4,M,,*53
$GPRMC,143154.800,A,4308.4698,N,07726.8754,W,33.23,265.02,220319,,,A*4D
$GPGGA,143155.000,4308.4696,N,07726.8779,W,1,08,1.13,161.9,M,-34.4,M,,*54
$GPRMC,143155.200,A,4308.4695,N,07726.8805,W,33.25,264.73,220319,,,A*41
$GPGGA,143155.400,4308.4693,N,07726.8831,W,1,08,1.13,161.7,M,-34.4,M,,*58
$GPRMC,143155.600,A,4308.4692,N,07726.8857,W,33.53,264.78,220319,,,A*4F
$GPGGA,143155.800,4308.4690,N,07726.8882,W,1,08,1.13,161.5,M,-34.4,M,,*5D
$GPRMC,143156.000,A,4308.4689,N,07726.8908,W,33.55,265.12,220319,,,A*40
$GPGGA,143156.200,4308.4687,N,07726.8934,W,1,08,1.13,161.3,M,-34.4,M,,*58
$GPRMC,143156.400,A,4308.4686,N,07726.8960,W,33.82,265.23,220319,,,A*4D
$GPGGA,143156.600,4308.4684,N,07726.8986,W,1,08,1.13,161.1,M,-34.4,M,,*54
$GPRMC,143156.800,A,4308.4683,N,07726.9012,W,33.50,265.26,220319,,,A*43
$GPGGA,143157.000,4308.4682,N,07726.9038,W,1,08,1.13,160.8,M,-34.4,M,,*50
$GPRMC,143157.200,A,4308.4680,N,07726.9064,W,33.46,265.23,220319,,,A*48
$GPGGA,143157.400,4308.4679,N,07726.9090,W,1,08,1.13,160.5,M,-34.4,M,,*5F
$GPRMC,143157.600,A,4308.4677,N,07726.9116,W,33.33,265.74,220319,,,A*40
$GPGGA,143157.800,4308.4676,N,07726.9141,W,1,08,1.13,160.3,M,-34.4,M,,*57
$GPRMC,143158.000,A,4308.4674,N,07726.9167,W,33.11,264.86,220319,,,A*40
$GPGGA,143158.200,4308.4673,N,07726.9192,W,1,08,1.13,160.1,M,-34.4,M,,*5B
$GPRMC,143158.400,A,4308.4671,N,07726.9218,W,33.01,264.76,220319,,,A*44
$GPGGA,143158.600,4308.4670,N,07726.9243,W,1,08,1.13,159.8,M,-34.4,M,,*50
$GPRMC,143158.800,A,4308.4668,N,07726.9268,W,32.93,265.37,220319,,,A*49
$GPGGA,143159.000,4308.4666,N,07726.9293,W,1,08,1.13,159.6,M,-34.4,M,,*53
$GPRMC,143159.200,A,4308.4665,N,07726.9319,W,33.51,265.19,220319,,,A*4B
$GPGGA,143159.400,4308.4663,N,07726.9346,W,1,08,1.13,159.3,M,-34.4,M,,*5E
$GPRMC,143159.600,A,4308.4661,N,07726.9372,W,34.06,264.73,220319,,,A*4E
$GPGGA,143159.800,4308.4660,N,07726.9398,W,1,08,1.13,159.0,M,-34.4,M,,*51
$GPRMC,143200.000,A,4308.4658,N,07726.9424,W,34.48,264.53,220319,,,A*41
$GPGGA,143200.200,4308.4656,N,07726.9451,W,1,08,1.13,158.8,M,-34.4,M,,*5A
$GPRMC,143200.400,A,4308.4654,N,07726.9477,W,34.62,264.78,220319,,,A*4E
$GPGGA,143200.600,4308.4652,N,07726.9504,W,1,08,1.13,158.5,M,-34.4,M,,*56
$GPRMC,143200.800,A,4308.4650,N,07726.9531,W,34.87,264.65,220319,,,A*42
$GPGGA,143201.000,4308.4649,N,07726.9558,W,1,08,1.13,158.2,M,-34.4,M,,*55
$GPRMC,143201.200,A,4308.4647,N,07726.9585,W,35.26,264.78,220319,,,A*46
$GPGGA,143201.400,4308.4645,N,07726.9613,W,1,08,1.13,157.9,M,-34.4,M,,*55
$GPRMC,143201.600,A,4308.4643,N,07726.9640,W,35.33,265.12,220319,,,A*45
$GPGGA,143201.800,4308.4642,N,07726.9668,W,1,08,1.11,157.5,M,-34.4,M,,*5C
$GPRMC,143202.000,A,4308.4640,N,07726.9695,W,35.63,265.06,220319,,,A*4B
$GPGGA,143202.200,4308.4638,N,07726.9723,W,1,08,1.13,157.2,M,-34.4,M,,*53
$GPRMC,143202.400,A,4308.4636,N,07726.9750,W,36.13,264.72,220319,,,A*40
$GPGGA,143202.600,4308.4634,N,07726.9778,W,1,08,1.13,156.9,M,-34.4,M,,*5F
$GPRMC,143202.800,A,4308.4632,N,07726.9806,W,36.50,264.48,220319,,,A*4A
$GPGGA,143203.000,4308.4630,N,07726.9834,W,1,08,1.13,156.7,M,-34.4,M,,*55
$GPRMC,143203.200,A,4308.4628,N,07726.9862,W,36.98,265.04,220319,,,A*45
$GPGGA,143203.400,4308.4627,N,07726.9891,W,1,08,1.13,156.3,M,-34.4,M,,*5C
$GPRMC,143203.600,A,4308.4625,N,07726.9920,W,37.12,265.34,220319,,,A*4B
$GPGGA,143203.800,4308.4623,N,07726.9948,W,1,08,1.11,156.0,M,-34.4,M,,*50
$GPRMC,143204.000,A,4308.4622,N,07726.9977,W,37.54,265.57,220319,,,A*48
$GPGGA,143204.200,4308.4620,N,07727.0006,W,1,08,1.13,155.7,M,-34.4,M,,*53
$GPRMC,143204.400,A,4308.4619,N,07727.0036,W,38.53,265.73,220319,,,A*4E
$GPGGA,143204.600,4308.4617,N,07727.0066,W,1,08,1.13,155.4,M,-34.4,M,,*56
$GPRMC,143204.800,A,4308.4615,N,07727.0095,W,38.85,265.57,220319,,,A*4A
$GPGGA,143205.000,4308.4614,N,07727.0125,W,1,08,1.13,155.2,M,-34.4,M,,*52
$GPRMC,143205.200,A,4308.4612,N,07727.0155,W,39.27,266.04,220319,,,A*47
$GPGGA,143205.400,4308.4611,N,07727.0185,W,1,08,1.13,155.0,M,-34.4,M,,*5B
$GPRMC,143205.600,A,4308.4609,N,07727.0215,W,39.34,266.26,220319,,,A*4C
$GPGGA,143205.800,4308.4608,N,07727.0245,W,1,08,1.11,154.7,M,-34.4,M,,*54
$GPRMC,143206.000,A,4308.4607,N,07727.0275,W,39.28,266.45,220319,,,A*49
$GPGGA,143206.200,4308.4606,N,07727.0305,W,1,08,1.13,154.5,M,-34.4,M,,*56
$GPRMC,143206.400,A,4308.4605,N,07727.0335,W,38.88,267.56,220319,,,A*42
$GPGGA,143206.600,4308.4604,N,07727.0365,W,1,08,1.13,154.4,M,-34.4,M,,*57
$GPRMC,143206.800,A,4308.4604,N,07727.0394,W,38.74,268.64,220319,,,A*49
$GPGGA,143207.000,4308.4603,N,07727.0424,W,1,08,1.13,154.3,M,-34.4,M,,*52
$GPRMC,143207.200,A,4308.4603,N,07727.0454,W,38.75,269.82,220319,,,A*46
$GPGGA,143207.400,4308.4603,N,07727.0483,W,1,08,1.13,154.0,M,-34.4,M,,*58
$GPRMC,143207.600,A,4308.4603,N,07727.0513,W,38.45,271.03,220319,,,A*43
$GPGGA,143207.800,4308.4604,N,07727.0542,W,1,08,1.13,153.8,M,-34.4,M,,*50
$GPRMC,143208.000,A,4308.4605,N,07727.0572,W,38.25,272.14,220319,,,A*48
$GPGGA,143208.200,4308.4605,N,07727.0601,W,1,08,1.13,153.6,M,-34.4,M,,*5E
$GPRMC,143208.400,A,4308.4606,N,07727.0630,W,38.05,272.11,220319,,,A*4D
$GPGGA,143208.600,4308.4607,N,07727.0659,W,1,08,1.13,153.5,M,-34.4,M,,*56
$GPRMC,143208.800,A,4308.4608,N,07727.0688,W,37.99,272.29,220319,,,A*4D
$GPGGA,143209.000,4308.4609,N,07727.0718,W,1,08,1.13,153.3,M,-34.4,M,,*5D
$GPRMC,143209.200,A,4308.4611,N,07727.0747,W,37.76,273.29,220319,,,A*4C
$GPGGA,143209.400,4308.4613,N,07727.0775,W,1,08,1.13,153.2,M,-34.4,M,,*58
$GPRMC,143209.600,A,4308.4614,N,07727.0804,W,37.50,273.80,220319,,,A*42
$GPGGA,143209.800,4308.4615,N,07727.0833,W,1,08,1.11,153.1,M,-34.4,M,,*5E
$GPRMC,143210.000,A,4308.4617,N,07727.0861,W,37.06,274.06,220319,,,A*46
$GPGGA,143210.200,4308.4618,N,07727.0889,W,1,08,1.13,153.1,M,-34.4,M,,*52
$GPRMC,143210.400,A,4308.4620,N,07727.0918,W,36.76,274.41,220319,,,A*4C
$GPGGA,143210.600,4308.4621,N,07727.0946,W,1,08,1.13,153.1,M,-34.4,M,,*5E
$GPRMC,143210.800,A,4308.4623,N,07727.0974,W,36.59,274.67,220319,,,A*40
$GPGGA,143211.000,4308.4625,N,07727.1002,W,1,08,1.11,153.0,M,-34.4,M,,*56
$GPRMC,143211.200,A,4308.4628,N,07727.1029,W,36.39,276.23,220319,,,A*44
$GPGGA,143211.400,4308.4630,N,07727.1056,W,1,08,1.13,153.0,M,-34.4,M,,*55
$GPRMC,143211.600,A,4308.4633,N,07727.1083,W,35.71,277.15,220319,,,A*41
$GPGGA,143211.800,4308.4635,N,07727.1111,W,1,08,1.11,153.0,M,-34.4,M,,*5C
$GPRMC,143212.000,A,4308.4638,N,07727.1138,W,35.48,277.60,220319,,,A*46
$GPGGA,143212.200,4308.4640,N,07727.1165,W,1,08,1.13,153.0,M,-34.4,M,,*56
$GPRMC,143212.600,A,4308.4646,N,07727.1218,W,35.28,277.65,220319,,,A*4B
$GPGGA,143212.800,4308.4648,N,07727.1245,W,1,08,1.11,153.1,M,-34.4,M,,*56
$GPGGA,143213.400,4308.4657,N,07727.1325,W,1,08,1.13,153.0,M,-34.4,M,,*51
$GPRMC,143213.400,A,4308.4657,N,07727.1325,W,35.24,278.38,220319,,,A*4C
$GPRMC,143213.800,A,4308.4664,N,07727.1378,W,35.30,278.95,220319,,,A*4A
$GPGGA,143214.000,4308.4667,N,07727.1405,W,1,08,1.11,153.0,M,-34.4,M,,*56
$GPRMC,143214.200,A,4308.4670,N,07727.1432,W,35.57,278.92,220319,,,A*4D
$GPGGA,143214.400,4308.4674,N,07727.1459,W,1,08,1.13,152.9,M,-34.4,M,,*53
$GPRMC,143214.600,A,4308.4677,N,07727.1486,W,35.80,278.97,220319,,,A*4E
$GPGGA,143214.800,4308.4680,N,07727.1514,W,1,08,1.11,152.8,M,-34.4,M,,*5F
$GPRMC,143215.000,A,4308.4684,N,07727.1541,W,36.03,278.59,220319,,,A*45
$GPGGA,143215.200,4308.4687,N,07727.1568,W,1,08,1.13,152.7,M,-34.4,M,,*55
$GPRMC,143215.400,A,4308.4691,N,07727.1596,W,36.22,279.45,220319,,,A*40
$GPGGA,143215.600,4308.4695,N,07727.1623,W,1,08,1.13,152.6,M,-34.4,M,,*5F
$GPRMC,143215.800,A,4308.4698,N,07727.1651,W,36.57,279.48,220319,,,A*42
$GPGGA,143216.000,4308.4702,N,07727.1678,W,1,08,1.13,152.6,M,-34.4,M,,*5B
$GPRMC,143216.200,A,4308.4706,N,07727.1706,W,36.58,280.03,220319,,,A*48
$GPGGA,143216.400,4308.4710,N,07727.1733,W,1,08,1.13,152.5,M,-34.4,M,,*51
$GPRMC,143216.600,A,4308.4714,N,07727.1761,W,36.58,280.31,220319,,,A*4F
$GPGGA,143216.800,4308.4718,N,07727.1788,W,1,08,1.11,152.5,M,-34.4,M,,*57
$GPRMC,143217.000,A,4308.4722,N,07727.1816,W,36.54,280.42,220319,,,A*4A
$GPGGA,143217.200,4308.4725,N,07727.1843,W,1,08,1.13,152.5,M,-34.4,M,,*58
$GPRMC,143217.400,A,4308.4729,N,07727.1871,W,36.48,280.24,220319,,,A*49
$GPGGA,143217.600,4308.4732,N,07727.1899,W,1,08,1.13,152.5,M,-34.4,M,,*5D
$GPRMC,143217.800,A,4308.4735,N,07727.1926,W,36.44,279.71,220319,,,A*41
$GPGGA,143218.000,4308.4738,N,07727.1954,W,1,08,1.13,152.4,M,-34.4,M,,*5F
$GPRMC,143218.200,A,4308.4741,N,07727.1981,W,36.35,279.42,220319,,,A*4C
$GPGGA,143218.400,4308.4745,N,07727.2008,W,1,08,1.13,152.3,M,-34.4,M,,*55
$GPRMC,143218.600,A,4308.4748,N,07727.2036,W,36.15,279.36,220319,,,A*46
$GPGGA,143218.800,4308.4751,N,07727.2063,W,1,08,1.11,152.3,M,-34.4,M,,*53
$GPRMC,143219.000,A,4308.4754,N,07727.2090,W,36.17,279.06,220319,,,A*41
$GPGGA,143219.200,4308.4757,N,07727.2118,W,1,08,1.13,152.2,M,-34.4,M,,*50
$GPRMC,143219.400,A,4308.4760,N,07727.2145,W,36.13,278.83,220319,,,A*43
$GPGGA,143219.600,4308.4764,N,07727.2172,W,1,08,1.13,152.2,M,-34.4,M,,*58
$GPRMC,143219.800,A,4308.4767,N,07727.2200,W,36.07,279.06,220319,,,A*43
$GPGGA,143220.000,4308.4770,N,07727.2227,W,1,08,1.11,152.2,M,-34.4,M,,*50
$GPRMC,143220.200,A,4308.4773,N,07727.2254,W,35.56,279.22,220319,,,A*46
$GPGGA,143220.400,4308.4777,N,07727.2280,W,1,08,1.13,152.1,M,-34.4,M,,*5F
$GPRMC,143220.600,A,4308.4780,N,07727.2307,W,35.21,279.25,220319,,,A*4E
$GPGGA,143220.800,4308.4784,N,07727.2334,W,1,08,1.11,152.1,M,-34.4,M,,*53
$GPRMC,143221.000,A,4308.4787,N,07727.2360,W,34.92,279.33,220319,,,A*41
$GPGGA,143221.200,4308.4790,N,07727.2387,W,1,08,1.13,152.0,M,-34.4,M,,*56
$GPRMC,143221.400,A,4308.4794,N,07727.2413,W,34.81,279.35,220319,,,A*40
$GPGGA,143221.600,4308.4797,N,07727.2439,W,1,08,1.13,152.0,M,-34.4,M,,*57
$GPRMC,143221.800,A,4308.4800,N,07727.2465,W,34.48,279.75,220319,,,A*4E
$GPGGA,143222.000,4308.4803,N,07727.2491,W,1,08,1.13,152.1,M,-34.4,M,,*53
$GPRMC,143222.200,A,4308.4806,N,07727.2516,W,34.18,279.52,220319,,,A*44
$GPGGA,143222.400,4308.4809,N,07727.2542,W,1,08,1.13,152.1,M,-34.4,M,,*52
$GPRMC,143222.600,A,4308.4812,N,07727.2567,W,33.74,279.04,220319,,,A*4D
$GPGGA,143222.800,4308.4815,N,07727.2593,W,1,08,1.11,152.1,M,-34.4,M,,*5D
$GPRMC,143223.000,A,4308.4818,N,07727.2618,W,33.52,278.93,220319,,,A*40
$GPGGA,143223.200,4308.4822,N,07727.2643,W,1,08,1.13,152.1,M,-34.4,M,,*5E
$GPRMC,143223.400,A,4308.4825,N,07727.2667,W,33.06,278.97,220319,,,A*47
$GPGGA,143223.600,4308.4828,N,07727.2692,W,1,08,1.13,152.1,M,-34.4,M,,*5C
$GPRMC,143223.800,A,4308.4831,N,07727.2717,W,32.73,279.07,220319,,,A*43
$GPGGA,143224.000,4308.4834,N,07727.2741,W,1,08,1.13,152.1,M,-34.4,M,,*5F
$GPRMC,143224.200,A,4308.4838,N,07727.2766,W,32.42,279.77,220319,,,A*44
$GPGGA,143224.400,4308.4841,N,07727.2790,W,1,08,1.13,152.2,M,-34.4,M,,*56
$GPRMC,143224.600,A,4308.4844,N,07727.2815,W,32.12,279.61,220319,,,A*42
$GPGGA,143224.800,4308.4847,N,07727.2839,W,1,08,1.11,152.3,M,-34.4,M,,*53
$GPRMC,143225.000,A,4308.4850,N,07727.2863,W,32.06,279.34,220319,,,A*44
$GPGGA,143225.200,4308.4853,N,07727.2887,W,1,08,1.13,152.3,M,-34.4,M,,*5A
$GPRMC,143225.400,A,4308.4856,N,07727.2911,W,31.97,279.32,220319,,,A*4F
$GPGGA,143225.600,4308.4859,N,07727.2935,W,1,08,1.13,152.2,M,-34.4,M,,*5D
$GPRMC,143225.800,A,4308.4862,N,07727.2959,W,31.93,279.08,220319,,,A*45
$GPGGA,143226.000,4308.4865,N,07727.2983,W,1,08,1.13,152.1,M,-34.4,M,,*59
$GPRMC,143226.200,A,4308.4868,N,07727.3007,W,31.91,279.22,220319,,,A*4F
$GPGGA,143226.400,4308.4871,N,07727.3031,W,1,08,1.13,152.2,M,-34.4,M,,*5A
$GPRMC,143226.600,A,4308.4875,N,07727.3054,W,31.94,279.08,220319,,,A*4C
$GPGGA,143226.800,4308.4878,N,07727.3078,W,1,08,1.11,152.1,M,-34.4,M,,*53
$GPRMC,143227.000,A,4308.4881,N,07727.3102,W,31.88,279.15,220319,,,A*43
$GPGGA,143227.200,4308.4885,N,07727.3126,W,1,08,1.13,152.1,M,-34.4,M,,*52
$GPRMC,143227.400,A,4308.4888,N,07727.3149,W,31.64,279.74,220319,,,A*44
$GPGGA,143227.600,4308.4891,N,07727.3173,W,1,08,1.13,152.1,M,-34.4,M,,*53
$GPRMC,143227.800,A,4308.4893,N,07727.3196,W,31.51,279.33,220319,,,A*45
$GPGGA,143228.000,4308.4896,N,07727.3220,W,1,08,1.13,152.0,M,-34.4,M,,*59
$GPRMC,143228.200,A,4308.4899,N,07727.3243,W,31.44,279.37,220319,,,A*41
$GPGGA,143228.400,4308.4902,N,07727.3267,W,1,08,1.13,152.1,M,-34.4,M,,*53
$GPRMC,143228.600,A,4308.4905,N,07727.3290,W,30.99,279.38,220319,,,A*41
$GPGGA,143228.800,4308.4908,N,07727.3313,W,1,08,1.11,152.0,M,-34.4,M,,*54
$GPRMC,143229.000,A,4308.4911,N,07727.3336,W,31.01,279.59,220319,,,A*49
$GPGGA,143229.200,4308.4913,N,07727.3358,W,1,08,1.13,151.9,M,-34.4,M,,*52
$GPRMC,143229.400,A,4308.4916,N,07727.3381,W,30.96,278.95,220319,,,A*48
$GPGGA,143229.600,4308.4919,N,07727.3404,W,1,08,1.13,151.7,M,-34.4,M,,*5C
$GPRMC,143229.800,A,4308.4922,N,07727.3428,W,30.92,279.55,220319,,,A*4E
$GPGGA,143230.000,4308.4925,N,07727.3451,W,1,08,1.13,151.7,M,-34.4,M,,*5D
$GPRMC,143230.200,A,4308.4928,N,07727.3474,W,30.95,279.04,220319,,,A*4C
$GPGGA,143230.400,4308.4931,N,07727.3498,W,1,08,1.13,151.4,M,-34.4,M,,*5A
$GPRMC,143230.600,A,4308.4934,N,07727.3521,W,31.00,279.17,220319,,,A*4B
$GPGGA,143230.800,4308.4937,N,07727.3545,W,1,08,1.13,151.3,M,-34.4,M,,*56
$GPRMC,143231.000,A,4308.4940,N,07727.3568,W,31.10,279.11,220319,,,A*45
$GPGGA,143231.200,4308.4943,N,07727.3591,W,1,08,1.13,151.2,M,-34.4,M,,*56
$GPRMC,143231.400,A,4308.4946,N,07727.3614,W,30.87,278.72,220319,,,A*44
$GPGGA,143231.600,4308.4949,N,07727.3638,W,1,08,1.13,151.1,M,-34.4,M,,*5B
$GPRMC,143231.800,A,4308.4951,N,07727.3661,W,30.81,278.96,220319,,,A*40
$GPGGA,143232.000,4308.4954,N,07727.3684,W,1,08,1.13,151.0,M,-34.4,M,,*54
$GPRMC,143232.200,A,4308.4957,N,07727.3707,W,30.62,279.05,220319,,,A*48
