Vers 57
USE_SERIAL_FEEDBACK=false
DEVELOPMENT_MODE=false
USE_RMC_ONLY=false

$GPRMC,151601.800,A,4308.4653,N,07726.4389,W,0.12,224.52,250319,,,A*73
$GPGGA,151602.000,4308.4651,N,07726.4389,W,1,05,3.62,154.9,M,-34.4,M,,*51
lng=-77.440650, lat=43.141090, altitude=155.80, speed=0.12, satellites=5, angle=224.5200, fixquality=1
$GPGGA,151602.400,4308.4652,N,07726.4390,W,1,05,3.62,154.8,M,-34.4,M,,*5F
$GPRMC,151602.400,A,4308.4652,N,07726.4390,W,0.11,221.68,250319,,,A*7A
lng=-77.440650, lat=43.141090, altitude=154.80, speed=0.12, satellites=5, angle=224.5200, fixquality=1
$GPGGA,151603.000,4308.4655,N,07726.4389,W,1,05,3.62,154.6,M,-34.4,M,,*5B
$GPRMC,151603.000,A,4308.4655,N,07726.4389,W,0.10,228.16,250319,,,A*71
lng=-77.440650, lat=43.141090, altitude=154.60, speed=0.11, satellites=5, angle=221.6800, fixquality=1
$GPGGA,151603.400,4308.4656,N,07726.4389,W,1,05,3.62,154.6,M,-34.4,M,,*5C
$GPRMC,151603.400,A,4308.4656,N,07726.4389,W,0.13,226.56,250319,,,A*7F
lng=-77.440650, lat=43.141098, altitude=154.60, speed=0.10, satellites=5, angle=228.1600, fixquality=1
$GPGGA,151603.800,4308.4656,N,07726.4390,W,1,05,3.62,154.0,M,-34.4,M,,*5E
$GPRMC,151603.800,A,4308.4656,N,07726.4390,W,0.15,241.39,250319,,,A*75
lng=-77.440650, lat=43.141098, altitude=154.00, speed=0.13, satellites=5, angle=226.5600, fixquality=1
$GPGGA,151604.200,4308.4658,N,07726.4390,W,1,05,3.62,153.6,M,-34.4,M,,*5C
$GPRMC,151604.200,A,4308.4658,N,07726.4390,W,0.23,278.55,250319,,,A*73
lng=-77.440650, lat=43.141098, altitude=153.60, speed=0.15, satellites=5, angle=241.3900, fixquality=1
$GPGGA,151604.400,4308.4659,N,07726.4389,W,1,05,3.62,153.1,M,-3
$GPRMC,151604.600,A,4308.4660,N,07726.4389,W,0.09,339.00,250319,,,A*78
lng=-77.440650, lat=43.141098, altitude=153.10, speed=0.23, satellites=5, angle=278.5500, fixquality=1
$GPGGA,151605.000,4308.4661,N,07726.4389,W,1,05,3.62,153.2,M,-34.4,M,,*59
$GPRMC,151605.000,A,4308.4661,N,07726.4389,W,0.11,324.46,250319,,,A*79
lng=-77.440650, lat=43.141105, altitude=153.20, speed=0.09, satellites=5, angle=339.0000, fixquality=1
$GPGGA,151605.400,4308.4660,N,07726.4391,W,1,05,3.62,153.2,M,-34.4,M,,*55
$GPRMC,151605.400,A,4308.4660,N,07726.4391,W,0.25,296.51,250319,,,A*7C
lng=-77.440650, lat=43.141098, altitude=153.20, speed=0.11, satellites=5, angle=324.4600, fixquality=1
$GPGGA,151605.800,4308.4660,N,07726.4392,W,1,05,3.62,152.8,M,-34.4,M,,*51
$GPRMC,151605.800,A,4308.4660,N,07726.4392,W,0.25,298.70,250319,,,A*7E
lng=-77.440650, lat=43.141098, altitude=152.80, speed=0.25, satellites=5, angle=296.5100, fixquality=1
$GPGGA,151606.000,4308.4660,N,07726.4394,W,1,05,3.62,152.8,M,-3250319,,,A*72
$GPGGA,151606.200,4308.4661,N,07726.4394,W,1,05,3.63,152.7,M,-3RMC,151606.200,A,4308.4661,N,07726.4394,W,0.44,295.21,250319,,,A*7E
lng=-77.440658, lat=43.141098, altitude=152.80, speed=0.25, satellites=5, angle=298.7000, fixquality=1
$GPGGA,151606.600,4308.4661,N,07726.4395,W,1,05,3.63,152.4,M,-34.4,M,,*57
$GPRMC,151606.600,A,4308.4661,N,07726.4395,W,0.50,294.44,250319,,,A*7C
lng=-77.440658, lat=43.141105, altitude=152.40, speed=0.25, satellites=5, angle=298.7000, fixquality=1
$GPRMC,151607.000,A,4308.4661,N,07726.4398,W,0.70,288.31,250319,,,A*7B
$GPGGA,151607.200,4308.4661,N,07726.4400,W,1,05,3.62,152.2,M,-34.4,M,,*5E
lng=-77.440666, lat=43.141105, altitude=152.40, speed=0.70, satellites=5, angle=288.3100, fixquality=1
$GPRMC,151607.400,A,4308.4659,N,07726.4404,W,1.13,276.24,250319,,,A*77
$GPGGA,151607.600,4308.4659,N,07726.4405,W,1,05,3.62,152.1,M,-34.4,M,,*57
lng=-77.440673, lat=43.141098, altitude=152.20, speed=1.13, satellites=5, angle=276.2400, fixquality=1
$GPRMC,151607.800,A,4308.4660,N,07726.4406,W,1.26,275.20,250319,,,A*72
$GPGGA,151608.000,4308.4659,N,07726.4408,W,1,05,3.63,151.9,M,-34.4,M,,*59
lng=-77.440673, lat=43.141098, altitude=152.10, speed=1.26, satellites=5, angle=275.2000, fixquality=1
$GPRMC,151608.200,A,4308.4659,N,07726.4408,W,1.24,278.27,250319,,,A*7B
$GPGGA,151608.400,4308.4660,N,07726.4409,W,1,05,3.63,151.8,M,-34.4,M,,*57
lng=-77.440681, lat=43.141098, altitude=151.90, speed=1.24, satellites=5, angle=278.2700, fixquality=1
$GPRMC,151608.600,A,4308.4660,N,07726.4409,W,1.11,281.58,250319,,,A*7C
$GPGGA,151608.800,4308.4659,N,07726.4410,W,1,05,3.63,151.8,M,-34.4,M,,*59
lng=-77.440681, lat=43.141098, altitude=151.80, speed=1.11, satellites=5, angle=281.5800, fixquality=1
$GPRMC,151609.000,A,4308.4659,N,07726.4410,W,0.87,281.60,250319,,,A*7C
$GPGGA,151609.200,4308.4659,N,07726.4409,W,1,05,3.63,151.9,M,-34.4,M,,*5B
lng=-77.440681, lat=43.141098, altitude=151.80, speed=0.87, satellites=5, angle=281.6000, fixquality=1
$GPRMC,151609.400,A,4308.4659,N,07726.4408,W,0.50,292.97,250319,,,A*71
$GPGGA,151609.600,4308.4658,N,07726.4409,W,1,05,3.63,152.0,M,-34.4,M,,*54
lng=-77.440681, lat=43.141098, altitude=151.90, speed=0.50, satellites=5, angle=292.9700, fixquality=1
$GPRMC,151609.800,A,4308.4658,N,07726.4408,W,0.38,289.92,250319,,,A*7D
$GPGGA,151610.000,4308.4657,N,07726.4408,W,1,05,3.63,152.1,M,-34.4,M,,*55
lng=-77.440681, lat=43.141098, altitude=152.00, speed=0.38, satellites=5, angle=289.9200, fixquality=1
$GPRMC,151610.200,A,4308.4657,N,07726.4408,W,0.22,292.27,250319,,,A*7F
$GPGGA,151610.400,4308.4656,N,07726.4408,W,1,05,3.63,152.1,M,-34.4,M,,*50
lng=-77.440681, lat=43.141098, altitude=152.10, speed=0.22, satellites=5, angle=292.2700, fixquality=1
$GPRMC,151610.600,A,4308.4656,N,07726.4408,W,0.20,286.37,250319,,,A*7C
$GPGGA,151610.800,4308.4655,N,07726.4408,W,1,05,3.63,152.1,M,-34.4,M,,*5F
lng=-77.440681, lat=43.141098, altitude=152.10, speed=0.20, satellites=5, angle=286.3700, fixquality=1
$GPRMC,151611.000,A,4308.4655,N,07726.4408,W,0.17,285.28,250319,,,A*71
$GPGGA,151611.200,4308.4655,N,07726.4408,W,1,05,3.63,152.1,M,-34.4,M,,*54
lng=-77.440681, lat=43.141090, altitude=152.10, speed=0.17, satellites=5, angle=285.2800, fixquality=1
$GPRMC,151611.400,A,4308.4655,N,07726.4408,W,0.12,295.26,250319,,,A*7F
$GPGGA,151611.600,4308.4654,N,07726.4408,W,1,05,3.63,152.0,M,-34.4,M,,*50
lng=-77.440681, lat=43.141090, altitude=152.10, speed=0.12, satellites=5, angle=295.2600, fixquality=1
$GPRMC,151611.800,A,4308.4654,N,07726.4408,W,0.09,291.56,250319,,,A*7B
$GPGGA,151612.000,4308.4654,N,07726.4408,W,1,05,3.63,152.0,M,-34.4,M,,*55
lng=-77.440681, lat=43.141090, altitude=152.00, speed=0.09, satellites=5, angle=291.5600, fixquality=1
$GPRMC,151612.200,A,4308.4654,N,07726.4408,W,0.05,245.13,250319,,,A*76
$GPGGA,151612.400,4308.4654,N,07726.4407,W,1,05,3.63,151.9,M,-34.4,M,,*54
lng=-77.440681, lat=43.141090, altitude=152.00, speed=0.05, satellites=5, angle=245.1300, fixquality=1
$GPRMC,151612.600,A,4308.4653,N,07726.4407,W,0.02,253.93,250319,,,A*72
$GPGGA,151612.800,4308.4653,N,07726.4407,W,1,05,3.63,152.0,M,-34.4,M,,*55
lng=-77.440681, lat=43.141090, altitude=151.90, speed=0.02, satellites=5, angle=253.9300, fixquality=1
$GPRMC,151613.000,A,4308.4652,N,07726.4407,W,0.09,179.11,250319,,,A*7E
$GPGGA,151613.200,4308.4651,N,07726.4407,W,1,05,3.63,152.0,M,-34.4,M,,*5C
lng=-77.440681, lat=43.141090, altitude=152.00, speed=0.09, satellites=5, angle=179.1100, fixquality=1
$GPRMC,151613.400,A,4308.4652,N,07726.4407,W,0.03,2.27,250319,,,A*78
$GPGGA,151613.600,4308.4651,N,07726.4407,W,1,05,3.66,152.1,M,-34.4,M,,*5C
lng=-77.440681, lat=43.141090, altitude=152.00, speed=0.03, satellites=5, angle=2.2700, fixquality=1
$GPRMC,151613.800,A,4308.4650,N,07726.4408,W,0.02,275.81,250319,,,A*76
$GPGGA,151614.000,4308.4650,N,07726.4408,W,1,05,3.63,152.2,M,-34.4,M,,*55
lng=-77.440681, lat=43.141078, altitude=152.10, speed=0.02, satellites=5, angle=275.8100, fixquality=1
$GPRMC,151614.200,A,4308.4648,N,07726.4408,W,0.04,152.65,250319,,,A*78
$GPGGA,151614.400,4308.4648,N,07726.4408,W,1,05,3.63,152.3,M,-34.4,M,,*59
lng=-77.440681, lat=43.141078, altitude=152.20, speed=0.04, satellites=5, angle=152.6500, fixquality=1
$GPRMC,151614.600,A,4308.4647,N,07726.4408,W,0.03,129.26,250319,,,A*7F
$GPGGA,151614.800,4308.4646,N,07726.4409,W,1,05,3.63,152.4,M,-34.4,M,,*5D
lng=-77.440681, lat=43.141078, altitude=152.30, speed=0.03, satellites=5, angle=129.2600, fixquality=1
$GPRMC,151615.000,A,4308.4645,N,07726.4409,W,0.02,272.86,250319,,,A*7D
$GPGGA,151615.200,4308.4644,N,07726.4409,W,1,05,3.63,152.5,M,-34.4,M,,*55
lng=-77.440681, lat=43.141071, altitude=152.40, speed=0.02, satellites=5, angle=272.8600, fixquality=1
$GPRMC,151615.400,A,4308.4643,N,07726.4409,W,0.02,158.29,250319,,,A*71
$GPGGA,151615.600,4308.4642,N,07726.4410,W,1,05,3.63,152.7,M,-34.4,M,,*5D
lng=-77.440681, lat=43.141071, altitude=152.50, speed=0.02, satellites=5, angle=158.2900, fixquality=1
$GPRMC,151615.800,A,4308.4641,N,07726.4410,W,0.05,165.83,250319,,,A*7E
$GPGGA,151616.000,4308.4640,N,07726.4410,W,1,05,3.63,152.8,M,-34.4,M,,*55
lng=-77.440681, lat=43.141063, altitude=152.70, speed=0.05, satellites=5, angle=165.8300, fixquality=1
$GPRMC,151616.200,A,4308.4639,N,07726.4411,W,0.02,227.67,250319,,,A*71
$GPGGA,151616.400,4308.4637,N,07726.4411,W,1,05,3.63,152.9,M,-34.4,M,,*51
lng=-77.440681, lat=43.141063, altitude=152.80, speed=0.02, satellites=5, angle=227.6700, fixquality=1
$GPRMC,151616.600,A,4308.4636,N,07726.4411,W,0.06,188.99,250319,,,A*79
$GPGGA,151616.800,4308.4635,N,07726.4412,W,1,05,3.63,152.9,M,-34.4,M,,*5C
lng=-77.440681, lat=43.141056, altitude=152.90, speed=0.06, satellites=5, angle=188.9900, fixquality=1
$GPRMC,151617.000,A,4308.4634,N,07726.4412,W,0.07,183.87,250319,,,A*7A
$GPGGA,151617.200,4308.4633,N,07726.4412,W,1,05,3.63,153.0,M,-34.4,M,,*59
lng=-77.440689, lat=43.141056, altitude=152.90, speed=0.07, satellites=5, angle=183.8700, fixquality=1
$GPRMC,151617.400,A,4308.4632,N,07726.4412,W,0.03,189.07,250319,,,A*7E
$GPGGA,151617.600,4308.4632,N,07726.4413,W,1,05,3.63,153.0,M,-34.4,M,,*5D
lng=-77.440689, lat=43.141056, altitude=153.00, speed=0.03, satellites=5, angle=189.0700, fixquality=1
$GPRMC,151617.800,A,4308.4631,N,07726.4413,W,0.03,22.67,250319,,,A*46
$GPGGA,151618.000,4308.4630,N,07726.4413,W,1,05,3.63,153.0,M,-34.4,M,,*56
lng=-77.440689, lat=43.141048, altitude=153.00, speed=0.03, satellites=5, angle=22.6700, fixquality=1
$GPRMC,151618.200,A,4308.4630,N,07726.4413,W,0.06,6.03,250319,,,A*73
$GPGGA,151618.400,4308.4629,N,07726.4414,W,1,05,3.67,153.0,M,-34.4,M,,*59
lng=-77.440689, lat=43.141048, altitude=153.00, speed=0.06, satellites=5, angle=6.0300, fixquality=1
$GPRMC,151618.600,A,4308.4629,N,07726.4414,W,0.03,143.76,250319,,,A*7F
$GPGGA,151618.800,4308.4628,N,07726.4414,W,1,05,3.63,153.0,M,-34.4,M,,*50
lng=-77.440689, lat=43.141048, altitude=153.00, speed=0.03, satellites=5, angle=143.7600, fixquality=1
$GPRMC,151619.000,A,4308.4628,N,07726.4414,W,0.02,225.21,250319,,,A*79
$GPGGA,151619.200,4308.4627,N,07726.4414,W,1,05,3.63,153.0,M,-34.4,M,,*54
lng=-77.440689, lat=43.141048, altitude=153.00, speed=0.02, satellites=5, angle=225.2100, fixquality=1
$GPRMC,151619.400,A,4308.4627,N,07726.4415,W,0.03,260.42,250319,,,A*76
$GPGGA,151619.600,4308.4627,N,07726.4415,W,1,05,3.63,152.9,M,-34.4,M,,*59
lng=-77.440689, lat=43.141048, altitude=153.00, speed=0.03, satellites=5, angle=260.4200, fixquality=1
$GPRMC,151619.800,A,4308.4626,N,07726.4415,W,0.04,204.76,250319,,,A*79
$GPGGA,151620.000,4308.4626,N,07726.4415,W,1,05,3.63,152.8,M,-34.4,M,,*55
lng=-77.440689, lat=43.141040, altitude=152.90, speed=0.04, satellites=5, angle=204.7600, fixquality=1
$GPRMC,151620.200,A,4308.4626,N,07726.4415,W,0.02,274.42,250319,,,A*7F
$GPGGA,151620.400,4308.4626,N,07726.4416,W,1,05,3.63,152.7,M,-34.4,M,,*5D
lng=-77.440689, lat=43.141040, altitude=152.80, speed=0.02, satellites=5, angle=274.4200, fixquality=1
$GPRMC,151620.600,A,4308.4626,N,07726.4416,W,0.05,182.33,250319,,,A*73
$GPGGA,151620.800,4308.4626,N,07726.4416,W,1,05,3.63,152.6,M,-34.4,M,,*50
lng=-77.440689, lat=43.141040, altitude=152.70, speed=0.05, satellites=5, angle=182.3300, fixquality=1
$GPRMC,151621.000,A,4308.4625,N,07726.4416,W,0.09,204.00,250319,,,A*76
$GPGGA,151621.200,4308.4626,N,07726.4416,W,1,05,3.63,152.5,M,-34.4,M,,*58
lng=-77.440689, lat=43.141040, altitude=152.60, speed=0.09, satellites=5, angle=204.0000, fixquality=1
$GPRMC,151621.400,A,4308.4625,N,07726.4416,W,0.07,155.20,250319,,,A*79
$GPGGA,151621.600,4308.4625,N,07726.4416,W,1,05,3.63,152.4,M,-34.4,M,,*5E
lng=-77.440689, lat=43.141040, altitude=152.50, speed=0.07, satellites=5, angle=155.2000, fixquality=1
$GPRMC,151621.800,A,4308.4625,N,07726.4417,W,0.04,230.32,250319,,,A*74
$GPGGA,151622.000,4308.4625,N,07726.4417,W,1,05,3.63,152.3,M,-34.4,M,,*5D
lng=-77.440696, lat=43.141040, altitude=152.40, speed=0.04, satellites=5, angle=230.3200, fixquality=1
$GPRMC,151622.200,A,4308.4625,N,07726.4417,W,0.03,330.68,250319,,,A*74
$GPGGA,151622.400,4308.4625,N,07726.4417,W,1,05,3.63,152.2,M,-34.4,M,,*58
lng=-77.440696, lat=43.141040, altitude=152.30, speed=0.03, satellites=5, angle=330.6800, fixquality=1
$GPRMC,151622.600,A,4308.4624,N,07726.4417,W,0.02,202.41,250319,,,A*7B
$GPGGA,151622.800,4308.4624,N,07726.4417,W,1,05,3.64,152.1,M,-34.4,M,,*51
lng=-77.440696, lat=43.141040, altitude=152.20, speed=0.02, satellites=5, angle=202.4100, fixquality=1
$GPRMC,151623.000,A,4308.4624,N,07726.4417,W,0.02,134.60,250319,,,A*79
$GPGGA,151623.200,4308.4623,N,07726.4418,W,1,05,3.63,151.9,M,-34.4,M,,*5E
lng=-77.440696, lat=43.141040, altitude=152.10, speed=0.02, satellites=5, angle=134.6000, fixquality=1
$GPRMC,151623.400,A,4308.4623,N,07726.4418,W,0.03,185.26,250319,,,A*7C
$GPGGA,151623.600,4308.4623,N,07726.4418,W,1,05,3.64,151.8,M,-34.4,M,,*5C
lng=-77.440696, lat=43.141040, altitude=151.90, speed=0.03, satellites=5, angle=185.2600, fixquality=1
$GPRMC,151623.800,A,4308.4623,N,07726.4418,W,0.03,11.65,250319,,,A*4B
$GPGGA,151624.000,4308.4623,N,07726.4418,W,1,05,3.67,151.7,M,-34.4,M,,*51
lng=-77.440696, lat=43.141040, altitude=151.80, speed=0.03, satellites=5, angle=11.6500, fixquality=1
$GPRMC,151624.200,A,4308.4625,N,07726.4418,W,0.05,172.90,250319,,,A*78
$GPGGA,151624.400,4308.4627,N,07726.4417,W,1,06,2.08,151.5,M,-34.4,M,,*57
lng=-77.440696, lat=43.141040, altitude=151.70, speed=0.05, satellites=5, angle=172.9000, fixquality=1
$GPRMC,151624.600,A,4308.4629,N,07726.4417,W,0.04,261.06,250319,,,A*70
$GPGGA,151624.800,4308.4631,N,07726.4416,W,1,06,2.08,151.4,M,-34.4,M,,*5C
lng=-77.440696, lat=43.141048, altitude=151.50, speed=0.04, satellites=6, angle=261.0600, fixquality=1
$GPRMC,151625.000,A,4308.4633,N,07726.4416,W,0.05,31.27,250319,,,A*48
$GPGGA,151625.200,4308.4635,N,07726.4416,W,1,06,2.08,151.3,M,-34.4,M,,*54
lng=-77.440689, lat=43.141056, altitude=151.40, speed=0.05, satellites=6, angle=31.2700, fixquality=1
$GPRMC,151625.400,A,4308.4637,N,07726.4415,W,0.03,14.76,250319,,,A*4E
$GPGGA,151625.600,4308.4638,N,07726.4415,W,1,06,2.18,151.1,M,-34.4,M,,*5D
lng=-77.440689, lat=43.141063, altitude=151.30, speed=0.03, satellites=6, angle=14.7600, fixquality=1
$GPRMC,151625.800,A,4308.4640,N,07726.4414,W,0.02,243.42,250319,,,A*75
$GPGGA,151626.000,4308.4642,N,07726.4414,W,1,06,2.08,151.0,M,-34.4,M,,*54
lng=-77.440689, lat=43.141063, altitude=151.10, speed=0.02, satellites=6, angle=243.4200, fixquality=1
$GPRMC,151626.200,A,4308.4643,N,07726.4414,W,0.03,107.87,250319,,,A*74
$GPGGA,151626.400,4308.4644,N,07726.4414,W,1,06,2.08,150.9,M,-34.4,M,,*5E
lng=-77.440689, lat=43.141071, altitude=151.00, speed=0.03, satellites=6, angle=107.8700, fixquality=1
$GPRMC,151626.600,A,4308.4645,N,07726.4413,W,0.04,178.48,250319,,,A*7D
$GPGGA,151626.800,4308.4646,N,07726.4413,W,1,06,2.09,150.8,M,-34.4,M,,*57
lng=-77.440689, lat=43.141071, altitude=150.90, speed=0.04, satellites=6, angle=178.4800, fixquality=1
$GPRMC,151627.000,A,4308.4648,N,07726.4413,W,0.02,308.56,250319,,,A*7B
$GPGGA,151627.200,4308.4649,N,07726.4413,W,1,06,2.09,150.7,M,-34.4,M,,*5C
lng=-77.440689, lat=43.141078, altitude=150.80, speed=0.02, satellites=6, angle=308.5600, fixquality=1
$GPRMC,151627.400,A,4308.4650,N,07726.4413,W,0.06,182.43,250319,,,A*76
$GPGGA,151627.600,4308.4651,N,07726.4412,W,1,06,2.09,150.6,M,-34.4,M,,*51
lng=-77.440689, lat=43.141078, altitude=150.70, speed=0.06, satellites=6, angle=182.4300, fixquality=1
$GPRMC,151627.800,A,4308.4652,N,07726.4412,W,0.03,111.04,250319,,,A*75
$GPGGA,151628.000,4308.4653,N,07726.4412,W,1,06,2.09,150.5,M,-34.4,M,,*59
lng=-77.440689, lat=43.141090, altitude=150.60, speed=0.03, satellites=6, angle=111.0400, fixquality=1
$GPRMC,151628.200,A,4308.4654,N,07726.4412,W,0.04,158.41,250319,,,A*7D
$GPGGA,151628.400,4308.4655,N,07726.4412,W,1,06,2.09,150.4,M,-34.4,M,,*5A
lng=-77.440689, lat=43.141090, altitude=150.50, speed=0.04, satellites=6, angle=158.4100, fixquality=1
$GPRMC,151628.600,A,4308.4656,N,07726.4412,W,0.03,176.61,250319,,,A*72
$GPGGA,151628.800,4308.4657,N,07726.4411,W,1,06,2.09,150.3,M,-34.4,M,,*50
lng=-77.440689, lat=43.141098, altitude=150.40, speed=0.03, satellites=6, angle=176.6100, fixquality=1
$GPRMC,151629.000,A,4308.4658,N,07726.4411,W,0.01,315.80,250319,,,A*72
$GPGGA,151629.200,4308.4659,N,07726.4411,W,1,06,2.09,150.2,M,-34.4,M,,*54
lng=-77.440681, lat=43.141098, altitude=150.30, speed=0.01, satellites=6, angle=315.8000, fixquality=1
$GPRMC,151629.400,A,4308.4660,N,07726.4411,W,0.03,48.87,250319,,,A*43
$GPGGA,151629.600,4308.4661,N,07726.4411,W,1,06,2.09,150.1,M,-34.4,M,,*58
lng=-77.440681, lat=43.141098, altitude=150.20, speed=0.03, satellites=6, angle=48.8700, fixquality=1
$GPRMC,151629.800,A,4308.4662,N,07726.4410,W,0.03,324.14,250319,,,A*7F
$GPGGA,151630.000,4308.4663,N,07726.4410,W,1,06,2.09,149.9,M,-34.4,M,,*55
lng=-77.440681, lat=43.141105, altitude=150.10, speed=0.03, satellites=6, angle=324.1400, fixquality=1
$GPRMC,151630.200,A,4308.4666,N,07726.4409,W,0.04,128.61,250319,,,A*7A
$GPGGA,151630.400,4308.4668,N,07726.4409,W,1,09,0.93,149.5,M,-34.4,M,,*50
lng=-77.440681, lat=43.141113, altitude=149.90, speed=0.04, satellites=6, angle=128.6100, fixquality=1
$GPRMC,151630.600,A,4308.4669,N,07726.4408,W,0.01,261.03,250319,,,A*7F
$GPGGA,151630.800,4308.4670,N,07726.4408,W,1,09,0.93,149.2,M,-34.4,M,,*53
lng=-77.440681, lat=43.141113, altitude=149.50, speed=0.01, satellites=9, angle=261.0300, fixquality=1
$GPRMC,151631.000,A,4308.4671,N,07726.4408,W,0.02,49.24,250319,,,A*4F
$GPGGA,151631.200,4308.4671,N,07726.4407,W,1,09,0.93,148.9,M,-34.4,M,,*5C
lng=-77.440681, lat=43.141120, altitude=149.20, speed=0.02, satellites=9, angle=49.2400, fixquality=1
$GPRMC,151631.400,A,4308.4672,N,07726.4407,W,0.06,35.91,250319,,,A*46
$GPGGA,151631.600,4308.4673,N,07726.4407,W,1,09,0.93,148.6,M,-34.4,M,,*55
lng=-77.440681, lat=43.141120, altitude=148.90, speed=0.06, satellites=9, angle=35.9100, fixquality=1
$GPRMC,151631.800,A,4308.4673,N,07726.4407,W,0.03,329.24,250319,,,A*7E
$GPGGA,151632.000,4308.4673,N,07726.4406,W,1,09,0.93,148.4,M,-34.4,M,,*53
lng=-77.440681, lat=43.141120, altitude=148.60, speed=0.03, satellites=9, angle=329.2400, fixquality=1
$GPRMC,151632.200,A,4308.4673,N,07726.4406,W,0.03,121.55,250319,,,A*7A
$GPGGA,151632.400,4308.4673,N,07726.4406,W,1,09,0.93,148.3,M,-34.4,M,,*50
lng=-77.440673, lat=43.141120, altitude=148.40, speed=0.03, satellites=9, angle=121.5500, fixquality=1
$GPRMC,151632.600,A,4308.4673,N,07726.4406,W,0.04,312.39,250319,,,A*71
$GPGGA,151632.800,4308.4673,N,07726.4406,W,1,09,0.93,148.2,M,-34.4,M,,*5D
lng=-77.440673, lat=43.141120, altitude=148.30, speed=0.04, satellites=9, angle=312.3900, fixquality=1
$GPRMC,151633.000,A,4308.4673,N,07726.4405,W,0.01,329.39,250319,,,A*78
$GPGGA,151633.200,4308.4673,N,07726.4405,W,1,09,0.93,148.1,M,-34.4,M,,*56
lng=-77.440673, lat=43.141120, altitude=148.20, speed=0.01, satellites=9, angle=329.3900, fixquality=1
$GPRMC,151633.400,A,4308.4673,N,07726.4405,W,0.06,205.96,250319,,,A*71
$GPGGA,151633.600,4308.4673,N,07726.4405,W,1,09,0.93,148.0,M,-34.4,M,,*53
lng=-77.440673, lat=43.141120, altitude=148.10, speed=0.06, satellites=9, angle=205.9600, fixquality=1
$GPRMC,151633.800,A,4308.4673,N,07726.4405,W,0.03,334.38,250319,,,A*7F
$GPGGA,151634.000,4308.4673,N,07726.4405,W,1,09,0.93,148.0,M,-34.4,M,,*52
lng=-77.440673, lat=43.141120, altitude=148.00, speed=0.03, satellites=9, angle=334.3800, fixquality=1
$GPRMC,151634.200,A,4308.4673,N,07726.4405,W,0.01,201.52,250319,,,A*7B
$GPGGA,151634.400,4308.4673,N,07726.4405,W,1,09,0.93,148.0,M,-34.4,M,,*56
lng=-77.440673, lat=43.141120, altitude=148.00, speed=0.01, satellites=9, angle=201.5200, fixquality=1
$GPRMC,151634.600,A,4308.4673,N,07726.4405,W,0.03,194.00,250319,,,A*75
$GPGGA,151634.800,4308.4673,N,07726.4405,W,1,09,0.93,148.0,M,-34.4,M,,*5A
lng=-77.440673, lat=43.141120, altitude=148.00, speed=0.03, satellites=9, angle=194.0000, fixquality=1
$GPRMC,151635.000,A,4308.4673,N,07726.4405,W,0.03,201.77,250319,,,A*7D
$GPGGA,151635.200,4308.4673,N,07726.4405,W,1,09,0.93,148.0,M,-34.4,M,,*51
lng=-77.440673, lat=43.141120, altitude=148.00, speed=0.03, satellites=9, angle=201.7700, fixquality=1
$GPRMC,151635.400,A,4308.4673,N,07726.4405,W,0.02,45.67,250319,,,A*4B
$GPGGA,151635.600,4308.4673,N,07726.4405,W,1,09,0.93,148.0,M,-34.4,M,,*55
lng=-77.440673, lat=43.141120, altitude=148.00, speed=0.02, satellites=9, angle=45.6700, fixquality=1
$GPRMC,151635.800,A,4308.4673,N,07726.4405,W,0.02,59.10,250319,,,A*4A
$GPGGA,151636.000,4308.4673,N,07726.4405,W,1,09,0.93,148.0,M,-34.4,M,,*50
lng=-77.440673, lat=43.141120, altitude=148.00, speed=0.02, satellites=9, angle=59.1000, fixquality=1
$GPRMC,151636.200,A,4308.4673,N,07726.4405,W,0.03,266.98,250319,,,A*7C
$GPGGA,151636.400,4308.4673,N,07726.4405,W,1,09,0.93,148.0,M,-34.4,M,,*54
lng=-77.440673, lat=43.141120, altitude=148.00, speed=0.03, satellites=9, angle=266.9800, fixquality=1
$GPRMC,151636.600,A,4308.4673,N,07726.4405,W,0.03,129.95,250319,,,A*7D
$GPGGA,151636.800,4308.4673,N,07726.4405,W,1,09,0.93,148.0,M,-34.4,M,,*58
lng=-77.440673, lat=43.141120, altitude=148.00, speed=0.03, satellites=9, angle=129.9500, fixquality=1
$GPRMC,151637.000,A,4308.4673,N,07726.4405,W,0.00,78.36,250319,,,A*45
$GPGGA,151637.200,4308.4673,N,07726.4405,W,1,09,0.93,148.0,M,-34.4,M,,*53
lng=-77.440673, lat=43.141120, altitude=148.00, speed=0.00, satellites=9, angle=78.3600, fixquality=1
$GPRMC,151637.400,A,4308.4673,N,07726.4405,W,0.04,63.92,250319,,,A*41
$GPGGA,151637.600,4308.4673,N,07726.4405,W,1,09,0.93,148.0,M,-34.4,M,,*57
lng=-77.440673, lat=43.141120, altitude=148.00, speed=0.04, satellites=9, angle=63.9200, fixquality=1
$GPRMC,151637.800,A,4308.4673,N,07726.4405,W,0.03,172.86,250319,,,A*7E
$GPGGA,151638.000,4308.4673,N,07726.4405,W,1,09,0.93,148.0,M,-34.4,M,,*5E
lng=-77.440673, lat=43.141120, altitude=148.00, speed=0.03, satellites=9, angle=172.8600, fixquality=1
$GPRMC,151638.200,A,4308.4673,N,07726.4405,W,0.04,20.28,250319,,,A*4E
$GPGGA,151638.400,4308.4673,N,07726.4405,W,1,09,0.93,148.0,M,-34.4,M,,*5A
lng=-77.440673, lat=43.141120, altitude=148.00, speed=0.04, satellites=9, angle=20.2800, fixquality=1
$GPRMC,151638.600,A,4308.4673,N,07726.4405,W,0.02,209.27,250319,,,A*7A
$GPGGA,151638.800,4308.4673,N,07726.4405,W,1,09,0.93,148.0,M,-34.4,M,,*56
lng=-77.440673, lat=43.141120, altitude=148.00, speed=0.02, satellites=9, angle=209.2700, fixquality=1
$GPRMC,151639.000,A,4308.4673,N,07726.4405,W,0.03,186.73,250319,,,A*79
$GPGGA,151639.200,4308.4673,N,07726.4405,W,1,09,0.93,148.0,M,-34.4,M,,*5D
lng=-77.440673, lat=43.141120, altitude=148.00, speed=0.03, satellites=9, angle=186.7300, fixquality=1
$GPRMC,151639.400,A,4308.4673,N,07726.4405,W,0.03,100.47,250319,,,A*74
$GPGGA,151639.600,4308.4673,N,07726.4405,W,1,09,0.93,148.0,M,-34.4,M,,*59
lng=-77.440673, lat=43.141120, altitude=148.00, speed=0.03, satellites=9, angle=100.4700, fixquality=1
$GPRMC,151639.800,A,4308.4673,N,07726.4405,W,0.01,265.97,250319,,,A*77
$GPGGA,151640.000,4308.4673,N,07726.4405,W,1,09,0.93,148.0,M,-34.4,M,,*51
lng=-77.440673, lat=43.141120, altitude=148.00, speed=0.01, satellites=9, angle=265.9700, fixquality=1
$GPRMC,151640.200,A,4308.4673,N,07726.4405,W,0.01,133.79,250319,,,A*73
$GPGGA,151640.400,4308.4673,N,07726.4405,W,1,09,0.93,148.0,M,-34.4,M,,*55
lng=-77.440673, lat=43.141120, altitude=148.00, speed=0.01, satellites=9, angle=133.7900, fixquality=1
$GPRMC,151640.600,A,4308.4673,N,07726.4405,W,0.01,245.84,250319,,,A*77
$GPGGA,151640.800,4308.4673,N,07726.4405,W,1,09,0.93,148.0,M,-34.4,M,,*59
lng=-77.440673, lat=43.141120, altitude=148.00, speed=0.01, satellites=9, angle=245.8400, fixquality=1
$GPRMC,151641.000,A,4308.4673,N,07726.4405,W,0.03,143.01,250319,,,A*7A
$GPGGA,151641.200,4308.4673,N,07726.4405,W,1,09,0.93,148.0,M,-34.4,M,,*52
lng=-77.440673, lat=43.141120, altitude=148.00, speed=0.03, satellites=9, angle=143.0100, fixquality=1
$GPRMC,151641.400,A,4308.4673,N,07726.4405,W,0.01,196.69,250319,,,A*7A
$GPGGA,151641.600,4308.4673,N,07726.4405,W,1,09,0.93,148.0,M,-34.4,M,,*56
lng=-77.440673, lat=43.141120, altitude=148.00, speed=0.01, satellites=9, angle=196.6900, fixquality=1
$GPRMC,151641.800,A,4308.4673,N,07726.4405,W,0.01,174.86,250319,,,A*7B
$GPGGA,151642.000,4308.4673,N,07726.4405,W,1,09,0.93,148.0,M,-34.4,M,,*53
lng=-77.440673, lat=43.141120, altitude=148.00, speed=0.01, satellites=9, angle=174.8600, fixquality=1
$GPRMC,151642.200,A,4308.4673,N,07726.4405,W,0.04,4.07,250319,,,A*78
$GPGGA,151642.400,4308.4673,N,07726.4405,W,1,09,0.95,148.0,M,-34.4,M,,*51
lng=-77.440673, lat=43.141120, altitude=148.00, speed=0.04, satellites=9, angle=4.0700, fixquality=1
$GPRMC,151642.600,A,4308.4673,N,07726.4405,W,0.01,255.38,250319,,,A*73
$GPGGA,151642.800,4308.4673,N,07726.4405,W,1,09,0.95,148.0,M,-34.4,M,,*5D
lng=-77.440673, lat=43.141120, altitude=148.00, speed=0.01, satellites=9, angle=255.3800, fixquality=1
$GPRMC,151643.000,A,4308.4673,N,07726.4405,W,0.01,156.55,250319,,,A*7F
$GPGGA,151643.200,4308.4673,N,07726.4405,W,1,09,0.95,148.0,M,-34.4,M,,*56
lng=-77.440673, lat=43.141120, altitude=148.00, speed=0.01, satellites=9, angle=156.5500, fixquality=1
$GPRMC,151643.400,A,4308.4673,N,07726.4405,W,0.01,213.15,250319,,,A*7D
$GPGGA,151643.600,4308.4673,N,07726.4405,W,1,09,0.95,148.0,M,-34.4,M,,*52
lng=-77.440673, lat=43.141120, altitude=148.00, speed=0.01, satellites=9, angle=213.1500, fixquality=1
$GPRMC,151643.800,A,4308.4673,N,07726.4405,W,0.01,45.38,250319,,,A*4F
$GPGGA,151644.000,4308.4673,N,07726.4405,W,1,09,0.95,148.0,M,-34.4,M,,*53
lng=-77.440673, lat=43.141120, altitude=148.00, speed=0.01, satellites=9, angle=45.3800, fixquality=1
$GPRMC,151644.200,A,4308.4673,N,07726.4405,W,0.01,128.97,250319,,,A*7D
$GPGGA,151644.400,4308.4673,N,07726.4405,W,1,09,0.95,148.0,M,-34.4,M,,*57
lng=-77.440673, lat=43.141120, altitude=148.00, speed=0.01, satellites=9, angle=128.9700, fixquality=1
$GPRMC,151644.600,A,4308.4673,N,07726.4405,W,0.00,0.00,250319,,,A*7D
$GPGGA,151644.800,4308.4673,N,07726.4405,W,1,09,0.95,148.0,M,-34.4,M,,*5B
lng=-77.440673, lat=43.141120, altitude=148.00, speed=0.00, satellites=9, angle=0.0000, fixquality=1
$GPRMC,151645.000,A,4308.4673,N,07726.4405,W,0.01,359.85,250319,,,A*79
$GPGGA,151645.200,4308.4673,N,07726.4405,W,1,09,0.95,148.0,M,-34.4,M,,*50
lng=-77.440673, lat=43.141120, altitude=148.00, speed=0.01, satellites=9, angle=359.8500, fixquality=1
$GPRMC,151645.400,A,4308.4673,N,07726.4405,W,0.01,122.58,250319,,,A*73
$GPGGA,151645.600,4308.4673,N,07726.4405,W,1,09,0.95,148.0,M,-34.4,M,,*54
lng=-77.440673, lat=43.141120, altitude=148.00, speed=0.01, satellites=9, angle=122.5800, fixquality=1
$GPRMC,151645.800,A,4308.4673,N,07726.4405,W,0.01,65.85,250319,,,A*4D
$GPGGA,151646.000,4308.4673,N,07726.4405,W,1,09,0.95,148.0,M,-34.4,M,,*51
lng=-77.440673, lat=43.141120, altitude=148.00, speed=0.01, satellites=9, angle=65.8500, fixquality=1
$GPRMC,151646.200,A,4308.4673,N,07726.4405,W,0.00,211.44,250319,,,A*79
$GPGGA,151646.400,4308.4673,N,07726.4405,W,1,09,0.95,148.0,M,-34.4,M,,*55
lng=-77.440673, lat=43.141120, altitude=148.00, speed=0.00, satellites=9, angle=211.4400, fixquality=1
$GPRMC,151646.600,A,4308.4673,N,07726.4405,W,0.01,185.15,250319,,,A*76
$GPGGA,151646.800,4308.4673,N,07726.4405,W,1,09,0.95,148.0,M,-34.4,M,,*59
lng=-77.440673, lat=43.141120, altitude=148.00, speed=0.01, satellites=9, angle=185.1500, fixquality=1
$GPRMC,151647.000,A,4308.4673,N,07726.4405,W,0.01,320.53,250319,,,A*7E
$GPGGA,151647.200,4308.4673,N,07726.4405,W,1,09,0.95,148.0,M,-34.4,M,,*52
lng=-77.440673, lat=43.141120, altitude=148.00, speed=0.01, satellites=9, angle=320.5300, fixquality=1
$GPRMC,151647.400,A,4308.4673,N,07726.4405,W,0.00,0.00,250319,,,A*7C
$GPGGA,151647.600,4308.4673,N,07726.4405,W,1,09,0.95,148.0,M,-34.4,M,,*56
lng=-77.440673, lat=43.141120, altitude=148.00, speed=0.00, satellites=9, angle=0.0000, fixquality=1
$GPRMC,151647.800,A,4308.4673,N,07726.4405,W,0.00,209.63,250319,,,A*7E
$GPGGA,151648.000,4308.4673,N,07726.4405,W,1,09,0.95,148.0,M,-34.4,M,,*5F
lng=-77.440673, lat=43.141120, altitude=148.00, speed=0.00, satellites=9, angle=209.6300, fixquality=1
$GPRMC,151648.200,A,4308.4673,N,07726.4405,W,0.00,293.03,250319,,,A*7E
$GPGGA,151648.400,4308.4673,N,07726.4405,W,1,09,0.95,148.0,M,-34.4,M,,*5B
lng=-77.440673, lat=43.141120, altitude=148.00, speed=0.00, satellites=9, angle=293.0300, fixquality=1
$GPRMC,151648.600,A,4308.4673,N,07726.4405,W,0.01,73.96,250319,,,A*4B
$GPGGA,151648.800,4308.4673,N,07726.4405,W,1,09,0.95,148.0,M,-34.4,M,,*57
lng=-77.440673, lat=43.141120, altitude=148.00, speed=0.01, satellites=9, angle=73.9600, fixquality=1
$GPRMC,151649.000,A,4308.4673,N,07726.4405,W,0.00,150.63,250319,,,A*77
$GPGGA,151649.200,4308.4673,N,07726.4405,W,1,09,0.95,148.0,M,-34.4,M,,*5C
lng=-77.440673, lat=43.141120, altitude=148.00, speed=0.00, satellites=9, angle=150.6300, fixquality=1
$GPRMC,151649.400,A,4308.4673,N,07726.4405,W,0.01,156.03,250319,,,A*72
$GPGGA,151649.600,4308.4673,N,07726.4405,W,1,09,0.95,148.0,M,-34.4,M,,*58
lng=-77.440673, lat=43.141120, altitude=148.00, speed=0.01, satellites=9, angle=156.0300, fixquality=1
$GPRMC,151649.800,A,4308.4673,N,07726.4405,W,0.01,262.30,250319,,,A*7A
$GPGGA,151650.000,4308.4673,N,07726.4405,W,1,09,0.95,148.0,M,-34.4,M,,*56
lng=-77.440673, lat=43.141120, altitude=148.00, speed=0.01, satellites=9, angle=262.3000, fixquality=1
$GPRMC,151650.200,A,4308.4673,N,07726.4405,W,0.00,295.75,250319,,,A*70
$GPGGA,151650.400,4308.4673,N,07726.4405,W,1,09,0.95,148.0,M,-34.4,M,,*52
lng=-77.440673, lat=43.141120, altitude=148.00, speed=0.00, satellites=9, angle=295.7500, fixquality=1
$GPRMC,151650.600,A,4308.4673,N,07726.4405,W,0.00,147.61,250319,,,A*7D
$GPGGA,151650.800,4308.4673,N,07726.4405,W,1,09,0.95,148.0,M,-34.4,M,,*5E
lng=-77.440673, lat=43.141120, altitude=148.00, speed=0.00, satellites=9, angle=147.6100, fixquality=1
$GPRMC,151651.000,A,4308.4673,N,07726.4405,W,0.00,358.43,250319,,,A*76
$GPGGA,151651.200,4308.4673,N,07726.4405,W,1,09,0.95,148.0,M,-34.4,M,,*55
lng=-77.440673, lat=43.141120, altitude=148.00, speed=0.00, satellites=9, angle=358.4300, fixquality=1
$GPRMC,151651.400,A,4308.4673,N,07726.4405,W,0.00,187.68,250319,,,A*7B
$GPGGA,151651.600,4308.4673,N,07726.4405,W,1,09,0.95,148.0,M,-34.4,M,,*51
lng=-77.440673, lat=43.141120, altitude=148.00, speed=0.00, satellites=9, angle=187.6800, fixquality=1
$GPRMC,151651.800,A,4308.4673,N,07726.4405,W,0.02,321.73,250319,,,A*71
$GPGGA,151652.000,4308.4673,N,07726.4405,W,1,09,0.95,148.0,M,-34.4,M,,*54
lng=-77.440673, lat=43.141120, altitude=148.00, speed=0.02, satellites=9, angle=321.7300, fixquality=1
$GPRMC,151652.200,A,4308.4673,N,07726.4405,W,0.01,37.79,250319,,,A*45
$GPGGA,151652.400,4308.4673,N,07726.4405,W,1,09,0.95,148.0,M,-34.4,M,,*50
lng=-77.440673, lat=43.141120, altitude=148.00, speed=0.01, satellites=9, angle=37.7900, fixquality=1
$GPRMC,151652.600,A,4308.4673,N,07726.4405,W,0.05,277.76,250319,,,A*7C
$GPGGA,151652.800,4308.4673,N,07726.4405,W,1,09,0.95,148.0,M,-34.4,M,,*5C
lng=-77.440673, lat=43.141120, altitude=148.00, speed=0.05, satellites=9, angle=277.7600, fixquality=1
$GPRMC,151653.000,A,4308.4673,N,07726.4405,W,0.84,283.84,250319,,,A*74
$GPGGA,151653.200,4308.4673,N,07726.4406,W,1,09,0.93,147.9,M,-34.4,M,,*54
lng=-77.440673, lat=43.141120, altitude=148.00, speed=0.84, satellites=9, angle=283.8400, fixquality=1
$GPRMC,151653.400,A,4308.4673,N,07726.4408,W,3.23,274.17,250319,,,A*71
$GPGGA,151653.600,4308.4673,N,07726.4411,W,1,09,0.93,147.8,M,-34.4,M,,*57
lng=-77.440681, lat=43.141120, altitude=147.90, speed=3.23, satellites=9, angle=274.1700, fixquality=1
$GPRMC,151653.800,A,4308.4674,N,07726.4415,W,5.31,279.63,250319,,,A*7D
$GPGGA,151654.000,4308.4674,N,07726.4420,W,1,09,0.95,147.7,M,-34.4,M,,*5A
lng=-77.440689, lat=43.141120, altitude=147.80, speed=5.31, satellites=9, angle=279.6300, fixquality=1
$GPRMC,151654.200,A,4308.4675,N,07726.4425,W,7.02,274.55,250319,,,A*78
$GPGGA,151654.400,4308.4675,N,07726.4431,W,1,09,0.95,147.6,M,-34.4,M,,*5E
lng=-77.440704, lat=43.141120, altitude=147.70, speed=7.02, satellites=9, angle=274.5500, fixquality=1
$GPRMC,151654.600,A,4308.4675,N,07726.4437,W,8.90,271.75,250319,,,A*7C
$GPGGA,151654.800,4308.4675,N,07726.4444,W,1,09,0.95,147.6,M,-34.4,M,,*50
lng=-77.440727, lat=43.141120, altitude=147.60, speed=8.90, satellites=9, angle=271.7500, fixquality=1
$GPRMC,151655.000,A,4308.4675,N,07726.4452,W,10.75,265.27,250319,,,A*48
$GPGGA,151655.200,4308.4675,N,07726.4461,W,1,09,0.95,147.5,M,-34.4,M,,*5F
lng=-77.440757, lat=43.141120, altitude=147.60, speed=10.75, satellites=9, angle=265.2700, fixquality=1
$GPRMC,151655.400,A,4308.4674,N,07726.4470,W,11.76,262.93,250319,,,A*47
$GPGGA,151655.600,4308.4673,N,07726.4479,W,1,09,0.93,147.4,M,-34.4,M,,*53
lng=-77.440780, lat=43.141120, altitude=147.50, speed=11.76, satellites=9, angle=262.9300, fixquality=1
$GPRMC,151655.800,A,4308.4672,N,07726.4488,W,12.40,256.80,250319,,,A*49
$GPGGA,151656.000,4308.4670,N,07726.4497,W,1,09,0.95,147.4,M,-34.4,M,,*53
lng=-77.440811, lat=43.141120, altitude=147.40, speed=12.40, satellites=9, angle=256.8000, fixquality=1
$GPRMC,151656.200,A,4308.4667,N,07726.4507,W,13.26,250.43,250319,,,A*4A
$GPGGA,151656.400,4308.4664,N,07726.4516,W,1,09,0.95,147.4,M,-34.4,M,,*5A
lng=-77.440841, lat=43.141113, altitude=147.40, speed=13.26, satellites=9, angle=250.4300, fixquality=1
$GPRMC,151656.600,A,4308.4660,N,07726.4527,W,14.46,243.65,250319,,,A*4C
$GPGGA,151656.800,4308.4655,N,07726.4537,W,1,09,0.93,147.4,M,-34.4,M,,*51
lng=-77.440879, lat=43.141098, altitude=147.40, speed=14.46, satellites=9, angle=243.6500, fixquality=1
$GPRMC,151657.000,A,4308.4650,N,07726.4548,W,15.81,239.16,250319,,,A*42
$GPGGA,151657.200,4308.4645,N,07726.4557,W,1,09,0.93,147.5,M,-34.4,M,,*5C
lng=-77.440910, lat=43.141078, altitude=147.40, speed=15.81, satellites=9, angle=239.1600, fixquality=1
$GPRMC,151657.400,A,4308.4638,N,07726.4567,W,17.43,231.58,250319,,,A*4B
$GPGGA,151657.600,4308.4632,N,07726.4577,W,1,09,0.93,147.5,M,-34.4,M,,*5A
lng=-77.440940, lat=43.141063, altitude=147.50, speed=17.43, satellites=9, angle=231.5800, fixquality=1
$GPRMC,151657.800,A,4308.4625,N,07726.4587,W,17.98,228.58,250319,,,A*4B
$GPGGA,151658.000,4308.4618,N,07726.4597,W,1,09,0.93,147.5,M,-34.4,M,,*55
lng=-77.440971, lat=43.141040, altitude=147.50, speed=17.98, satellites=9, angle=228.5800, fixquality=1
$GPRMC,151658.200,A,4308.4609,N,07726.4607,W,20.04,225.53,250319,,,A*4C
$GPGGA,151658.400,4308.4601,N,07726.4616,W,1,09,0.93,147.6,M,-34.4,M,,*50
lng=-77.441017, lat=43.141014, altitude=147.50, speed=20.04, satellites=9, angle=225.5300, fixquality=1
$GPRMC,151658.600,A,4308.4592,N,07726.4625,W,20.10,221.12,250319,,,A*4D
$GPGGA,151658.800,4308.4583,N,07726.4633,W,1,09,0.93,147.7,M,-34.4,M,,*53
lng=-77.441040, lat=43.140983, altitude=147.60, speed=20.10, satellites=9, angle=221.1200, fixquality=1
$GPRMC,151659.000,A,4308.4572,N,07726.4639,W,20.97,214.83,250319,,,A*48
$GPGGA,151659.200,4308.4561,N,07726.4646,W,1,09,0.93,147.9,M,-34.4,M,,*58
lng=-77.441062, lat=43.140949, altitude=147.70, speed=20.97, satellites=9, angle=214.8300, fixquality=1
$GPRMC,151659.400,A,4308.4550,N,07726.4653,W,21.84,210.27,250319,,,A*49
$GPGGA,151659.600,4308.4539,N,07726.4660,W,1,09,0.93,148.0,M,-34.4,M,,*53
lng=-77.441085, lat=43.140918, altitude=147.90, speed=21.84, satellites=9, angle=210.2700, fixquality=1
$GPRMC,151659.800,A,4308.4528,N,07726.4667,W,22.59,208.00,250319,,,A*42
$GPGGA,151700.000,4308.4515,N,07726.4673,W,1,09,0.93,148.1,M,-34.4,M,,*55
lng=-77.441116, lat=43.140876, altitude=148.00, speed=22.59, satellites=9, angle=208.0000, fixquality=1
$GPRMC,151700.200,A,4308.4503,N,07726.4680,W,23.92,205.27,250319,,,A*4B
$GPGGA,151700.400,4308.4489,N,07726.4686,W,1,09,0.93,148.2,M,-34.4,M,,*5C
lng=-77.441131, lat=43.140834, altitude=148.10, speed=23.92, satellites=9, angle=205.2700, fixquality=1
$GPRMC,151700.600,A,4308.4476,N,07726.4693,W,25.25,203.72,250319,,,A*42
$GPGGA,151700.800,4308.4462,N,07726.4700,W,1,09,0.93,148.3,M,-34.4,M,,*5B
lng=-77.441154, lat=43.140796, altitude=148.20, speed=25.25, satellites=9, angle=203.7200, fixquality=1
$GPRMC,151701.000,A,4308.4447,N,07726.4706,W,27.56,202.49,250319,,,A*45
$GPGGA,151701.200,4308.4431,N,07726.4713,W,1,09,0.93,148.4,M,-34.4,M,,*53
lng=-77.441177, lat=43.140747, altitude=148.30, speed=27.56, satellites=9, angle=202.4900, fixquality=1
$GPRMC,151701.400,A,4308.4414,N,07726.4719,W,30.01,200.47,250319,,,A*41
$GPGGA,151701.600,4308.4398,N,07726.4726,W,1,09,0.93,148.4,M,-34.4,M,,*55
lng=-77.441192, lat=43.140689, altitude=148.40, speed=30.01, satellites=9, angle=200.4700, fixquality=1
$GPRMC,151701.800,A,4308.4380,N,07726.4733,W,31.89,198.84,250319,,,A*43
$GPGGA,151702.000,4308.4362,N,07726.4740,W,1,09,0.93,148.4,M,-34.4,M,,*55
lng=-77.441215, lat=43.140632, altitude=148.40, speed=31.89, satellites=9, angle=198.8400, fixquality=1
$GPRMC,151702.200,A,4308.4344,N,07726.4748,W,34.33,199.44,250319,,,A*47
$GPGGA,151702.400,4308.4325,N,07726.4757,W,1,09,0.93,148.4,M,-34.4,M,,*54
lng=-77.441246, lat=43.140575, altitude=148.40, speed=34.33, satellites=9, angle=199.4400, fixquality=1
$GPRMC,151702.600,A,4308.4305,N,07726.4766,W,36.26,199.84,250319,,,A*40
$GPGGA,151702.800,4308.4286,N,07726.4775,W,1,09,0.93,148.4,M,-34.4,M,,*50
lng=-77.441276, lat=43.140510, altitude=148.40, speed=36.26, satellites=9, angle=199.8400, fixquality=1
$GPRMC,151703.000,A,4308.4265,N,07726.4785,W,38.08,200.08,250319,,,A*48
$GPGGA,151703.200,4308.4245,N,07726.4795,W,1,09,0.93,148.4,M,-34.4,M,,*5A
lng=-77.441307, lat=43.140438, altitude=148.40, speed=38.08, satellites=9, angle=200.0800, fixquality=1
$GPRMC,151703.400,A,4308.4224,N,07726.4805,W,39.65,199.79,250319,,,A*41
$GPGGA,151703.600,4308.4202,N,07726.4815,W,1,09,0.93,148.3,M,-34.4,M,,*5D
lng=-77.441337, lat=43.140373, altitude=148.40, speed=39.65, satellites=9, angle=199.7900, fixquality=1
$GPRMC,151703.800,A,4308.4180,N,07726.4825,W,40.75,199.30,250319,,,A*40
$GPGGA,151704.000,4308.4158,N,07726.4836,W,1,09,0.93,148.3,M,-34.4,M,,*51
lng=-77.441375, lat=43.140300, altitude=148.30, speed=40.75, satellites=9, angle=199.3000, fixquality=1
$GPRMC,151704.200,A,4308.4136,N,07726.4846,W,41.96,199.16,250319,,,A*4D
$GPGGA,151704.400,4308.4112,N,07726.4855,W,1,09,0.93,148.3,M,-34.4,M,,*5E
lng=-77.441406, lat=43.140224, altitude=148.30, speed=41.96, satellites=9, angle=199.1600, fixquality=1
$GPRMC,151704.600,A,4308.4089,N,07726.4865,W,43.42,197.77,250319,,,A*4F
$GPGGA,151704.800,4308.4066,N,07726.4875,W,1,09,0.93,148.3,M,-34.4,M,,*52
lng=-77.441436, lat=43.140144, altitude=148.30, speed=43.42, satellites=9, angle=197.7700, fixquality=1
$GPRMC,151705.000,A,4308.4043,N,07726.4885,W,44.08,197.57,250319,,,A*4B
$GPGGA,151705.200,4308.4019,N,07726.4896,W,1,08,0.98,148.2,M,-34.4,M,,*57
lng=-77.441474, lat=43.140071, altitude=148.30, speed=44.08, satellites=9, angle=197.5700, fixquality=1
$GPRMC,151705.400,A,4308.3996,N,07726.4906,W,45.06,197.69,250319,,,A*41
$GPGGA,151705.600,4308.3971,N,07726.4916,W,1,08,0.98,148.2,M,-34.4,M,,*5A
lng=-77.441513, lat=43.139991, altitude=148.20, speed=45.06, satellites=8, angle=197.6900, fixquality=1
$GPRMC,151705.800,A,4308.3947,N,07726.4926,W,45.48,196.66,250319,,,A*47
$GPGGA,151706.000,4308.3923,N,07726.4936,W,1,08,0.98,148.2,M,-34.4,M,,*5A
lng=-77.441543, lat=43.139907, altitude=148.20, speed=45.48, satellites=8, angle=196.6600, fixquality=1
$GPRMC,151706.200,A,4308.3898,N,07726.4946,W,45.91,195.68,250319,,,A*42
$GPGGA,151706.400,4308.3873,N,07726.4956,W,1,08,0.98,148.1,M,-34.4,M,,*5F
lng=-77.441574, lat=43.139827, altitude=148.20, speed=45.91, satellites=8, angle=195.6800, fixquality=1
$GPRMC,151706.600,A,4308.3848,N,07726.4965,W,46.52,194.76,250319,,,A*48
$GPGGA,151706.800,4308.3822,N,07726.4973,W,1,08,0.98,148.1,M,-34.4,M,,*50
lng=-77.441612, lat=43.139747, altitude=148.10, speed=46.52, satellites=8, angle=194.7600, fixquality=1
$GPRMC,151707.000,A,4308.3797,N,07726.4981,W,46.94,193.23,250319,,,A*45
$GPGGA,151707.200,4308.3771,N,07726.4990,W,1,08,1.01,148.0,M,-34.4,M,,*5F
lng=-77.441635, lat=43.139663, altitude=148.10, speed=46.94, satellites=8, angle=193.2300, fixquality=1
$GPRMC,151707.400,A,4308.3745,N,07726.4996,W,47.26,191.67,250319,,,A*42
$GPGGA,151707.600,4308.3719,N,07726.5003,W,1,08,0.98,147.9,M,-34.4,M,,*50
lng=-77.441658, lat=43.139575, altitude=148.00, speed=47.26, satellites=8, angle=191.6700, fixquality=1
$GPRMC,151707.800,A,4308.3692,N,07726.5011,W,47.49,191.58,250319,,,A*47
$GPGGA,151708.000,4308.3666,N,07726.5018,W,1,08,0.98,147.9,M,-34.4,M,,*5A
lng=-77.441680, lat=43.139484, altitude=147.90, speed=47.49, satellites=8, angle=191.5800, fixquality=1
$GPRMC,151708.200,A,4308.3640,N,07726.5025,W,47.91,191.37,250319,,,A*46
$GPGGA,151708.400,4308.3614,N,07726.5032,W,1,08,0.98,147.8,M,-34.4,M,,*52
lng=-77.441703, lat=43.139396, altitude=147.90, speed=47.91, satellites=8, angle=191.3700, fixquality=1
$GPRMC,151708.600,A,4308.3588,N,07726.5039,W,47.83,191.12,250319,,,A*4C
$GPGGA,151708.800,4308.3562,N,07726.5045,W,1,08,0.98,147.7,M,-34.4,M,,*53
lng=-77.441734, lat=43.139316, altitude=147.80, speed=47.83, satellites=8, angle=191.1200, fixquality=1
$GPRMC,151709.000,A,4308.3536,N,07726.5051,W,47.36,190.27,250319,,,A*49
$GPGGA,151709.200,4308.3510,N,07726.5057,W,1,08,0.98,147.7,M,-34.4,M,,*5E
lng=-77.441749, lat=43.139225, altitude=147.70, speed=47.36, satellites=8, angle=190.2700, fixquality=1
$GPRMC,151709.400,A,4308.3485,N,07726.5061,W,47.18,189.23,250319,,,A*47
$GPGGA,151709.600,4308.3459,N,07726.5066,W,1,08,0.98,147.7,M,-34.4,M,,*54
lng=-77.441764, lat=43.139144, altitude=147.70, speed=47.18, satellites=8, angle=189.2300, fixquality=1
$GPRMC,151709.800,A,4308.3434,N,07726.5070,W,46.90,188.16,250319,,,A*47
$GPGGA,151710.000,4308.3408,N,07726.5074,W,1,08,0.98,147.6,M,-34.4,M,,*5C
lng=-77.441780, lat=43.139053, altitude=147.70, speed=46.90, satellites=8, angle=188.1600, fixquality=1
$GPRMC,151710.200,A,4308.3383,N,07726.5077,W,46.07,186.87,250319,,,A*41
$GPGGA,151710.400,4308.3357,N,07726.5080,W,1,08,0.98,147.6,M,-34.4,M,,*5E
lng=-77.441795, lat=43.138973, altitude=147.60, speed=46.07, satellites=8, angle=186.8700, fixquality=1
$GPRMC,151710.600,A,4308.3331,N,07726.5083,W,46.07,185.95,250319,,,A*47
$GPGGA,151710.800,4308.3305,N,07726.5085,W,1,08,0.98,147.6,M,-34.4,M,,*50
lng=-77.441802, lat=43.138881, altitude=147.60, speed=46.07, satellites=8, angle=185.9500, fixquality=1
$GPRMC,151711.000,A,4308.3280,N,07726.5087,W,46.06,184.97,250319,,,A*4D
$GPGGA,151711.200,4308.3254,N,07726.5090,W,1,08,0.98,147.6,M,-34.4,M,,*5A
lng=-77.441810, lat=43.138801, altitude=147.60, speed=46.06, satellites=8, angle=184.9700, fixquality=1
$GPRMC,151711.400,A,4308.3228,N,07726.5093,W,46.27,184.95,250319,,,A*4F
$GPGGA,151711.600,4308.3202,N,07726.5096,W,1,08,0.98,147.7,M,-34.4,M,,*5A
lng=-77.441818, lat=43.138713, altitude=147.60, speed=46.27, satellites=8, angle=184.9500, fixquality=1
$GPRMC,151711.800,A,4308.3177,N,07726.5099,W,46.45,185.04,250319,,,A*4D
$GPGGA,151712.000,4308.3151,N,07726.5103,W,1,08,0.98,147.8,M,-34.4,M,,*58
lng=-77.441825, lat=43.138629, altitude=147.70, speed=46.45, satellites=8, angle=185.0400, fixquality=1
$GPRMC,151712.200,A,4308.3126,N,07726.5106,W,46.34,185.06,250319,,,A*43
$GPGGA,151712.400,4308.3100,N,07726.5108,W,1,08,0.98,147.9,M,-34.4,M,,*52
lng=-77.441848, lat=43.138542, altitude=147.80, speed=46.34, satellites=8, angle=185.0600, fixquality=1
$GPRMC,151712.600,A,4308.3074,N,07726.5111,W,46.34,184.57,250319,,,A*42
$GPGGA,151712.800,4308.3049,N,07726.5113,W,1,08,0.98,147.9,M,-34.4,M,,*58
lng=-77.441856, lat=43.138462, altitude=147.90, speed=46.34, satellites=8, angle=184.5700, fixquality=1
$GPRMC,151713.000,A,4308.3023,N,07726.5116,W,46.31,184.13,250319,,,A*45
$GPGGA,151713.200,4308.2997,N,07726.5118,W,1,08,0.98,148.0,M,-34.4,M,,*55
lng=-77.441864, lat=43.138370, altitude=147.90, speed=46.31, satellites=8, angle=184.1300, fixquality=1
$GPRMC,151713.400,A,4308.2972,N,07726.5120,W,46.28,183.41,250319,,,A*40
$GPGGA,151713.600,4308.2946,N,07726.5121,W,1,08,0.98,148.1,M,-34.4,M,,*56
lng=-77.441871, lat=43.138290, altitude=148.00, speed=46.28, satellites=8, angle=183.4100, fixquality=1
$GPRMC,151713.800,A,4308.2921,N,07726.5122,W,46.10,182.79,250319,,,A*49
$GPGGA,151714.000,4308.2895,N,07726.5123,W,1,09,0.93,148.2,M,-34.4,M,,*53
lng=-77.441871, lat=43.138198, altitude=148.10, speed=46.10, satellites=8, angle=182.7900, fixquality=1
$GPRMC,151714.200,A,4308.2869,N,07726.5123,W,46.18,182.17,250319,,,A*48
$GPGGA,151714.400,4308.2844,N,07726.5124,W,1,09,0.93,148.2,M,-34.4,M,,*5C
lng=-77.441871, lat=43.138118, altitude=148.20, speed=46.18, satellites=9, angle=182.1700, fixquality=1
$GPRMC,151714.600,A,4308.2818,N,07726.5125,W,46.22,181.75,250319,,,A*42
$GPGGA,151714.800,4308.2792,N,07726.5125,W,1,09,0.93,148.2,M,-34.4,M,,*55
lng=-77.441879, lat=43.138027, altitude=148.20, speed=46.22, satellites=9, angle=181.7500, fixquality=1
$GPRMC,151715.000,A,4308.2766,N,07726.5125,W,46.22,181.26,250319,,,A*45
$GPGGA,151715.200,4308.2740,N,07726.5126,W,1,08,0.98,148.2,M,-34.4,M,,*58
lng=-77.441879, lat=43.137939, altitude=148.20, speed=46.22, satellites=9, angle=181.2600, fixquality=1
$GPRMC,151715.400,A,4308.2715,N,07726.5126,W,46.01,181.13,250319,,,A*41
$GPGGA,151715.600,4308.2689,N,07726.5126,W,1,09,0.93,148.1,M,-34.4,M,,*51
lng=-77.441879, lat=43.137859, altitude=148.20, speed=46.01, satellites=8, angle=181.1300, fixquality=1
$GPRMC,151715.800,A,4308.2664,N,07726.5127,W,45.73,181.14,250319,,,A*4A
$GPGGA,151716.000,4308.2638,N,07726.5128,W,1,09,0.93,148.0,M,-34.4,M,,*51
lng=-77.441879, lat=43.137775, altitude=148.10, speed=45.73, satellites=9, angle=181.1400, fixquality=1
$GPRMC,151716.200,A,4308.2613,N,07726.5128,W,45.45,180.99,250319,,,A*4D
$GPGGA,151716.400,4308.2588,N,07726.5128,W,1,09,0.93,147.9,M,-34.4,M,,*5B
lng=-77.441879, lat=43.137687, altitude=148.00, speed=45.45, satellites=9, angle=180.9900, fixquality=1
$GPRMC,151716.600,A,4308.2563,N,07726.5128,W,45.33,180.82,250319,,,A*46
$GPGGA,151716.800,4308.2538,N,07726.5128,W,1,08,0.98,147.8,M,-34.4,M,,*57
lng=-77.441879, lat=43.137607, altitude=147.90, speed=45.33, satellites=9, angle=180.8200, fixquality=1
$GPRMC,151717.000,A,4308.2513,N,07726.5129,W,45.27,181.09,250319,,,A*40
$GPGGA,151717.200,4308.2487,N,07726.5130,W,1,09,0.93,147.7,M,-34.4,M,,*55
lng=-77.441879, lat=43.137523, altitude=147.80, speed=45.27, satellites=8, angle=181.0900, fixquality=1
$GPRMC,151717.400,A,4308.2462,N,07726.5131,W,45.24,181.72,250319,,,A*45
$GPGGA,151717.600,4308.2437,N,07726.5133,W,1,08,0.98,147.6,M,-34.4,M,,*52
lng=-77.441886, lat=43.137435, altitude=147.70, speed=45.24, satellites=9, angle=181.7200, fixquality=1
$GPRMC,151717.800,A,4308.2411,N,07726.5134,W,45.28,181.90,250319,,,A*48
$GPGGA,151718.000,4308.2386,N,07726.5135,W,1,09,0.93,147.5,M,-34.4,M,,*59
lng=-77.441886, lat=43.137351, altitude=147.60, speed=45.28, satellites=8, angle=181.9000, fixquality=1
$GPRMC,151718.200,A,4308.2361,N,07726.5136,W,45.30,181.80,250319,,,A*47
$GPGGA,151718.400,4308.2336,N,07726.5137,W,1,09,0.93,147.4,M,-34.4,M,,*55
lng=-77.441894, lat=43.137271, altitude=147.50, speed=45.30, satellites=9, angle=181.8000, fixquality=1
$GPRMC,151718.600,A,4308.2311,N,07726.5138,W,45.32,181.75,250319,,,A*42
$GPGGA,151718.800,4308.2285,N,07726.5139,W,1,09,0.93,147.4,M,-34.4,M,,*5E
lng=-77.441894, lat=43.137184, altitude=147.40, speed=45.32, satellites=9, angle=181.7500, fixquality=1
$GPRMC,151719.000,A,4308.2260,N,07726.5139,W,45.35,181.80,250319,,,A*4E
$GPGGA,151719.200,4308.2235,N,07726.5140,W,1,08,0.98,147.3,M,-34.4,M,,*5D
lng=-77.441894, lat=43.137100, altitude=147.40, speed=45.35, satellites=9, angle=181.8000, fixquality=1
$GPRMC,151719.400,A,4308.2210,N,07726.5141,W,45.32,181.89,250319,,,A*4C
$GPGGA,151719.600,4308.2184,N,07726.5143,W,1,09,0.93,147.2,M,-34.4,M,,*58
lng=-77.441902, lat=43.137020, altitude=147.30, speed=45.32, satellites=8, angle=181.8900, fixquality=1
$GPRMC,151719.800,A,4308.2159,N,07726.5144,W,45.34,181.93,250319,,,A*46
$GPGGA,151720.000,4308.2134,N,07726.5145,W,1,09,0.93,147.1,M,-34.4,M,,*5A
lng=-77.441902, lat=43.136928, altitude=147.20, speed=45.34, satellites=9, angle=181.9300, fixquality=1
$GPRMC,151720.200,A,4308.2108,N,07726.5145,W,45.41,181.49,250319,,,A*46
$GPGGA,151720.400,4308.2083,N,07726.5146,W,1,08,0.98,147.0,M,-34.4,M,,*5B
lng=-77.441909, lat=43.136848, altitude=147.10, speed=45.41, satellites=9, angle=181.4900, fixquality=1
$GPRMC,151720.600,A,4308.2058,N,07726.5147,W,45.51,181.45,250319,,,A*49
$GPGGA,151720.800,4308.2032,N,07726.5148,W,1,09,0.93,147.0,M,-34.4,M,,*59
lng=-77.441909, lat=43.136760, altitude=147.00, speed=45.51, satellites=8, angle=181.4500, fixquality=1
$GPRMC,151721.000,A,4308.2007,N,07726.5148,W,45.56,181.19,250319,,,A*45
$GPGGA,151721.200,4308.1981,N,07726.5149,W,1,09,0.93,146.9,M,-34.4,M,,*59
lng=-77.441909, lat=43.136676, altitude=147.00, speed=45.56, satellites=9, angle=181.1900, fixquality=1
$GPRMC,151721.400,A,4308.1956,N,07726.5149,W,45.53,180.97,250319,,,A*4C
$GPGGA,151721.600,4308.1931,N,07726.5149,W,1,09,0.93,146.9,M,-34.4,M,,*56
lng=-77.441917, lat=43.136596, altitude=146.90, speed=45.53, satellites=9, angle=180.9700, fixquality=1
$GPRMC,151721.800,A,4308.1906,N,07726.5150,W,45.27,180.95,250319,,,A*4C
$GPGGA,151722.000,4308.1881,N,07726.5150,W,1,08,0.98,146.9,M,-34.4,M,,*5B
lng=-77.441917, lat=43.136508, altitude=146.90, speed=45.27, satellites=9, angle=180.9500, fixquality=1
$GPRMC,151722.200,A,4308.1856,N,07726.5151,W,44.91,180.94,250319,,,A*4D
$GPGGA,151722.400,4308.1831,N,07726.5152,W,1,09,0.93,146.8,M,-34.4,M,,*5D
lng=-77.441917, lat=43.136425, altitude=146.90, speed=44.91, satellites=8, angle=180.9400, fixquality=1
$GPRMC,151722.600,A,4308.1807,N,07726.5152,W,44.61,181.10,250319,,,A*4C
$GPGGA,151722.800,4308.1782,N,07726.5152,W,1,09,0.93,146.8,M,-34.4,M,,*56
lng=-77.441917, lat=43.136344, altitude=146.80, speed=44.61, satellites=9, angle=181.1000, fixquality=1
$GPRMC,151723.000,A,4308.1758,N,07726.5153,W,44.21,181.35,250319,,,A*4C
$GPGGA,151723.200,4308.1733,N,07726.5153,W,1,09,0.93,146.8,M,-34.4,M,,*56
lng=-77.441917, lat=43.136264, altitude=146.80, speed=44.21, satellites=9, angle=181.3500, fixquality=1
$GPRMC,151723.400,A,4308.1709,N,07726.5153,W,43.76,181.27,250319,,,A*4A
$GPGGA,151723.600,4308.1685,N,07726.5153,W,1,09,0.93,146.8,M,-34.4,M,,*5E
lng=-77.441917, lat=43.136180, altitude=146.80, speed=43.76, satellites=9, angle=181.2700, fixquality=1
$GPRMC,151723.800,A,4308.1661,N,07726.5154,W,43.71,181.32,250319,,,A*4D
$GPGGA,151724.000,4308.1637,N,07726.5154,W,1,09,0.93,146.7,M,-34.4,M,,*5E
lng=-77.441925, lat=43.136100, altitude=146.80, speed=43.71, satellites=9, angle=181.3200, fixquality=1
$GPRMC,151724.200,A,4308.1613,N,07726.5155,W,43.46,181.47,250319,,,A*42
$GPGGA,151724.400,4308.1588,N,07726.5155,W,1,09,0.93,146.7,M,-34.4,M,,*5C
lng=-77.441925, lat=43.136020, altitude=146.70, speed=43.46, satellites=9, angle=181.4700, fixquality=1
$GPRMC,151724.600,A,4308.1564,N,07726.5155,W,43.41,181.27,250319,,,A*44
$GPGGA,151724.800,4308.1540,N,07726.5155,W,1,09,0.93,146.7,M,-34.4,M,,*54
lng=-77.441925, lat=43.135936, altitude=146.70, speed=43.41, satellites=9, angle=181.2700, fixquality=1
$GPRMC,151725.000,A,4308.1516,N,07726.5155,W,43.45,181.20,250319,,,A*45
$GPGGA,151725.200,4308.1491,N,07726.5155,W,1,09,0.93,146.6,M,-34.4,M,,*53
lng=-77.441925, lat=43.135856, altitude=146.70, speed=43.45, satellites=9, angle=181.2000, fixquality=1
$GPRMC,151725.400,A,4308.1467,N,07726.5155,W,43.43,181.17,250319,,,A*44
$GPGGA,151725.600,4308.1443,N,07726.5155,W,1,09,0.93,146.6,M,-34.4,M,,*58
lng=-77.441925, lat=43.135776, altitude=146.60, speed=43.43, satellites=9, angle=181.1700, fixquality=1
$GPRMC,151725.800,A,4308.1419,N,07726.5156,W,43.58,180.97,250319,,,A*41
$GPGGA,151726.000,4308.1394,N,07726.5156,W,1,09,0.95,146.5,M,-34.4,M,,*56
lng=-77.441925, lat=43.135700, altitude=146.60, speed=43.58, satellites=9, angle=180.9700, fixquality=1
$GPRMC,151726.200,A,4308.1370,N,07726.5156,W,43.65,180.99,250319,,,A*40
$GPGGA,151726.400,4308.1345,N,07726.5156,W,1,09,0.95,146.4,M,-34.4,M,,*5F
lng=-77.441925, lat=43.135620, altitude=146.50, speed=43.65, satellites=9, angle=180.9900, fixquality=1
$GPRMC,151726.600,A,4308.1321,N,07726.5156,W,44.08,180.91,250319,,,A*44
$GPGGA,151726.800,4308.1296,N,07726.5156,W,1,09,0.93,146.3,M,-34.4,M,,*5D
lng=-77.441925, lat=43.135540, altitude=146.40, speed=44.08, satellites=9, angle=180.9100, fixquality=1
$GPRMC,151727.000,A,4308.1271,N,07726.5156,W,44.40,180.85,250319,,,A*4E
$GPGGA,151727.200,4308.1246,N,07726.5156,W,1,09,0.95,146.2,M,-34.4,M,,*5C
lng=-77.441925, lat=43.135448, altitude=146.30, speed=44.40, satellites=9, angle=180.8500, fixquality=1
$GPRMC,151727.400,A,4308.1221,N,07726.5157,W,44.45,180.89,250319,,,A*47
$GPGGA,151727.600,4308.1196,N,07726.5157,W,1,09,0.93,146.1,M,-34.4,M,,*52
lng=-77.441925, lat=43.135368, altitude=146.20, speed=44.45, satellites=9, angle=180.8900, fixquality=1
$GPRMC,151727.800,A,4308.1172,N,07726.5158,W,44.47,181.56,250319,,,A*40
$GPGGA,151728.000,4308.1147,N,07726.5158,W,1,09,0.95,146.0,M,-34.4,M,,*5F
lng=-77.441925, lat=43.135288, altitude=146.10, speed=44.47, satellites=9, angle=181.5600, fixquality=1
$GPRMC,151728.200,A,4308.1122,N,07726.5158,W,44.53,181.65,250319,,,A*45
$GPGGA,151728.400,4308.1097,N,07726.5159,W,1,09,0.95,146.0,M,-34.4,M,,*56
lng=-77.441925, lat=43.135204, altitude=146.00, speed=44.53, satellites=9, angle=181.6500, fixquality=1
$GPRMC,151728.600,A,4308.1072,N,07726.5160,W,44.54,181.71,250319,,,A*4C
$GPGGA,151728.800,4308.1047,N,07726.5161,W,1,09,0.93,145.9,M,-34.4,M,,*50
lng=-77.441932, lat=43.135124, altitude=146.00, speed=44.54, satellites=9, angle=181.7100, fixquality=1
$GPRMC,151729.000,A,4308.1022,N,07726.5161,W,44.55,181.97,250319,,,A*46
$GPGGA,151729.200,4308.0997,N,07726.5162,W,1,09,0.93,145.8,M,-34.4,M,,*5C
lng=-77.441932, lat=43.135032, altitude=145.90, speed=44.55, satellites=9, angle=181.9700, fixquality=1
$GPRMC,151729.400,A,4308.0973,N,07726.5163,W,44.56,181.62,250319,,,A*45
$GPGGA,151729.600,4308.0948,N,07726.5164,W,1,09,0.93,145.7,M,-34.4,M,,*53
lng=-77.441932, lat=43.134952, altitude=145.80, speed=44.56, satellites=9, angle=181.6200, fixquality=1
$GPRMC,151729.800,A,4308.0923,N,07726.5164,W,44.60,181.26,250319,,,A*4E
$GPGGA,151730.000,4308.0898,N,07726.5165,W,1,09,0.93,145.6,M,-34.4,M,,*51
lng=-77.441940, lat=43.134872, altitude=145.70, speed=44.60, satellites=9, angle=181.2600, fixquality=1
$GPRMC,151730.200,A,4308.0873,N,07726.5165,W,44.55,180.37,250319,,,A*4E
$GPGGA,151730.400,4308.0849,N,07726.5165,W,1,09,0.93,145.5,M,-34.4,M,,*5A
lng=-77.441940, lat=43.134788, altitude=145.60, speed=44.55, satellites=9, angle=180.3700, fixquality=1
$GPRMC,151730.600,A,4308.0824,N,07726.5165,W,44.55,179.42,250319,,,A*4C
$GPGGA,151730.800,4308.0799,N,07726.5164,W,1,09,0.95,145.4,M,-34.4,M,,*52
lng=-77.441940, lat=43.134708, altitude=145.50, speed=44.55, satellites=9, angle=179.4200, fixquality=1
$GPRMC,151731.000,A,4308.0774,N,07726.5163,W,44.56,178.48,250319,,,A*4F
$GPGGA,151731.200,4308.0750,N,07726.5162,W,1,09,0.95,145.3,M,-34.4,M,,*5D
lng=-77.441932, lat=43.134628, altitude=145.40, speed=44.56, satellites=9, angle=178.4800, fixquality=1
$GPRMC,151731.400,A,4308.0725,N,07726.5161,W,44.72,177.97,250319,,,A*46
$GPGGA,151731.600,4308.0700,N,07726.5160,W,1,09,0.95,145.3,M,-34.4,M,,*5E
lng=-77.441932, lat=43.134536, altitude=145.30, speed=44.72, satellites=9, angle=177.9700, fixquality=1
$GPRMC,151731.800,A,4308.0676,N,07726.5159,W,44.39,177.89,250319,,,A*46
$GPGGA,151732.000,4308.0651,N,07726.5157,W,1,09,0.95,145.2,M,-34.4,M,,*5B
lng=-77.441932, lat=43.134456, altitude=145.30, speed=44.39, satellites=9, angle=177.8900, fixquality=1
$GPRMC,151732.200,A,4308.0627,N,07726.5156,W,44.48,177.17,250319,,,A*45
$GPGGA,151732.400,4308.0602,N,07726.5154,W,1,09,0.95,145.2,M,-34.4,M,,*5A
lng=-77.441925, lat=43.134376, altitude=145.20, speed=44.48, satellites=9, angle=177.1700, fixquality=1
$GPRMC,151732.600,A,4308.0578,N,07726.5152,W,44.21,176.55,250319,,,A*44
$GPGGA,151732.800,4308.0554,N,07726.5150,W,1,09,0.95,145.3,M,-34.4,M,,*53
lng=-77.441917, lat=43.134292, altitude=145.20, speed=44.21, satellites=9, angle=176.5500, fixquality=1
$GPRMC,151733.000,A,4308.0529,N,07726.5147,W,43.95,176.11,250319,,,A*4B
$GPGGA,151733.200,4308.0505,N,07726.5145,W,1,09,0.95,145.4,M,-34.4,M,,*5F
lng=-77.441909, lat=43.134212, altitude=145.30, speed=43.95, satellites=9, angle=176.1100, fixquality=1
$GPRMC,151733.400,A,4308.0481,N,07726.5142,W,43.50,175.60,250319,,,A*45
$GPGGA,151733.600,4308.0457,N,07726.5139,W,1,09,0.95,145.5,M,-34.4,M,,*57
lng=-77.441902, lat=43.134140, altitude=145.40, speed=43.50, satellites=9, angle=175.6000, fixquality=1
$GPRMC,151733.800,A,4308.0433,N,07726.5136,W,42.96,175.32,250319,,,A*4F
$GPGGA,151734.000,4308.0409,N,07726.5133,W,1,09,0.95,145.5,M,-34.4,M,,*57
lng=-77.441894, lat=43.134056, altitude=145.50, speed=42.96, satellites=9, angle=175.3200, fixquality=1
$GPRMC,151734.200,A,4308.0386,N,07726.5130,W,42.92,174.50,250319,,,A*4C
$GPGGA,151734.400,4308.0362,N,07726.5127,W,1,09,0.95,145.5,M,-34.3,M,,*5B
lng=-77.441886, lat=43.133975, altitude=145.50, speed=42.92, satellites=9, angle=174.5000, fixquality=1
$GPRMC,151734.600,A,4308.0338,N,07726.5123,W,42.77,174.14,250319,,,A*44
$GPGGA,151734.800,4308.0315,N,07726.5120,W,1,09,0.95,145.6,M,-34.3,M,,*53
lng=-77.441871, lat=43.133895, altitude=145.50, speed=42.77, satellites=9, angle=174.1400, fixquality=1
$GPRMC,151735.000,A,4308.0291,N,07726.5116,W,42.71,173.78,250319,,,A*4C
$GPGGA,151735.200,4308.0268,N,07726.5113,W,1,09,0.95,145.7,M,-34.3,M,,*52
lng=-77.441864, lat=43.133823, altitude=145.60, speed=42.71, satellites=9, angle=173.7800, fixquality=1
$GPRMC,151735.400,A,4308.0245,N,07726.5109,W,42.55,173.36,250319,,,A*43
$GPGGA,151735.600,4308.0222,N,07726.5106,W,1,09,0.95,145.8,M,-34.3,M,,*53
lng=-77.441848, lat=43.133739, altitude=145.70, speed=42.55, satellites=9, angle=173.3600, fixquality=1
$GPRMC,151735.800,A,4308.0199,N,07726.5102,W,41.40,173.00,250319,,,A*44
$GPGGA,151736.000,4308.0176,N,07726.5098,W,1,09,0.95,145.8,M,-34.3,M,,*52
lng=-77.441841, lat=43.133666, altitude=145.80, speed=41.40, satellites=9, angle=173.0000, fixquality=1
$GPRMC,151736.200,A,4308.0153,N,07726.5094,W,41.11,172.84,250319,,,A*4C
$GPGGA,151736.400,4308.0130,N,07726.5090,W,1,09,0.95,145.9,M,-34.3,M,,*5D
lng=-77.441818, lat=43.133586, altitude=145.80, speed=41.11, satellites=9, angle=172.8400, fixquality=1
$GPRMC,151736.600,A,4308.0108,N,07726.5086,W,40.77,172.91,250319,,,A*40
$GPGGA,151736.800,4308.0085,N,07726.5083,W,1,08,0.94,146.0,M,-34.3,M,,*56
lng=-77.441810, lat=43.133510, altitude=145.90, speed=40.77, satellites=9, angle=172.9100, fixquality=1
$GPRMC,151737.000,A,4308.0063,N,07726.5079,W,40.27,172.71,250319,,,A*40
$GPGGA,151737.200,4308.0040,N,07726.5075,W,1,08,1.04,146.1,M,-34.3,M,,*54
lng=-77.441795, lat=43.133438, altitude=146.00, speed=40.27, satellites=8, angle=172.7100, fixquality=1
$GPRMC,151737.400,A,4308.0018,N,07726.5071,W,39.98,172.47,250319,,,A*4F
$GPGGA,151737.600,4307.9996,N,07726.5066,W,1,08,0.95,146.2,M,-34.3,M,,*5C
lng=-77.441787, lat=43.133365, altitude=146.10, speed=39.98, satellites=8, angle=172.4700, fixquality=1
$GPRMC,151737.800,A,4307.9974,N,07726.5062,W,39.59,172.46,250319,,,A*48
$GPGGA,151738.000,4307.9952,N,07726.5058,W,1,08,0.95,146.3,M,-34.3,M,,*51
lng=-77.441772, lat=43.133293, altitude=146.20, speed=39.59, satellites=8, angle=172.4600, fixquality=1
$GPRMC,151738.200,A,4307.9930,N,07726.5054,W,39.51,172.12,250319,,,A*41
$GPGGA,151738.400,4307.9909,N,07726.5050,W,1,09,0.95,146.4,M,-34.3,M,,*55
