Vers 57
USE_SERIAL_FEEDBACK=false
DEVELOPMENT_MODE=false
USE_RMC_ONLY=false

$GPRMC,233554.400,A,4305.1642,N,07740.8665,W,0.01,195.70,040319,,,D*75
$GPGGA,233554.600,4305.1642,N,07740.8665,W,2,10,0.93,165.9,M,-34.4,M,0000,0000*59
lng=-77.681114, lat=43.086067, altitude=165.90, speed=0.01, satellites=10, angle=195.7000, fixquality=2
$GPRMC,233554.800,A,4305.1642,N,07740.8665,W,0.01,195.70,040319,,,D*79
$GPGGA,233555.000,4305.1642,N,07740.8665,W,2,10,0.93,165.9,M,-34.4,M,0000,0000*5E
lng=-77.681114, lat=43.086067, altitude=165.90, speed=0.01, satellites=10, angle=195.7000, fixquality=2
$GPRMC,233555.200,A,4305.1642,N,07740.8665,W,0.00,195.70,040319,,,D*73
$GPGGA,233555.400,4305.1642,N,07740.8665,W,2,11,0.91,165.9,M,-34.4,M,0000,0000*59
lng=-77.681114, lat=43.086067, altitude=165.90, speed=0.00, satellites=10, angle=195.7000, fixquality=2
$GPRMC,233555.600,A,4305.1642,N,07740.8665,W,0.01,195.70,040319,,,D*76
$GPGGA,233555.800,4305.1642,N,07740.8665,W,2,11,0.91,165.9,M,-34.4,M,0000,0000*55
lng=-77.681114, lat=43.086067, altitude=165.90, speed=0.01, satellites=11, angle=195.7000, fixquality=2
$GPRMC,233556.000,A,4305.1642,N,07740.8665,W,0.01,195.70,040319,,,D*73
$GPGGA,233556.200,4305.1642,N,07740.8665,W,2,11,0.91,165.9,M,-34.4,M,0000,0000*5C
lng=-77.681114, lat=43.086067, altitude=165.90, speed=0.01, satellites=11, angle=195.7000, fixquality=2
$GPRMC,233556.400,A,4305.1642,N,07740.8665,W,0.01,195.70,040319,,,D*77
$GPGGA,233556.600,4305.1642,N,07740.8665,W,2,11,0.91,165.9,M,-34.4,M,0000,0000*58
lng=-77.681114, lat=43.086067, altitude=165.90, speed=0.01, satellites=11, angle=195.7000, fixquality=2
$GPRMC,233556.800,A,4305.1642,N,07740.8665,W,0.01,195.70,040319,,,D*7B
$GPGGA,233557.000,4305.1642,N,07740.8665,W,2,11,0.91,165.9,M,-34.4,M,0000,0000*5F
lng=-77.681114, lat=43.086067, altitude=165.90, speed=0.01, satellites=11, angle=195.7000, fixquality=2
$GPRMC,233557.200,A,4305.1642,N,07740.8665,W,0.03,195.70,040319,,,D*72
$GPGGA,233557.400,4305.1642,N,07740.8665,W,2,11,0.91,165.9,M,-34.4,M,0000,0000*5B
lng=-77.681114, lat=43.086067, altitude=165.90, speed=0.03, satellites=11, angle=195.7000, fixquality=2
$GPRMC,233557.600,A,4305.1642,N,07740.8665,W,0.03,195.70,040319,,,D*76
$GPGGA,233557.800,4305.1642,N,07740.8665,W,2,11,0.91,165.9,M,-34.4,M,0000,0000*57
lng=-77.681114, lat=43.086067, altitude=165.90, speed=0.03, satellites=11, angle=195.7000, fixquality=2
$GPRMC,233558.000,A,4305.1642,N,07740.8665,W,0.03,195.70,040319,,,D*7F
$GPGGA,233558.200,4305.1642,N,07740.8665,W,2,11,0.91,165.9,M,-34.4,M,0000,0000*52
lng=-77.681114, lat=43.086067, altitude=165.90, speed=0.03, satellites=11, angle=195.7000, fixquality=2
$GPRMC,233558.400,A,4305.1642,N,07740.8665,W,0.03,195.70,040319,,,D*7B
$GPGGA,233558.600,4305.1642,N,07740.8665,W,2,11,0.91,165.9,M,-34.4,M,0000,0000*56
lng=-77.681114, lat=43.086067, altitude=165.90, speed=0.03, satellites=11, angle=195.7000, fixquality=2
$GPRMC,233558.800,A,4305.1642,N,07740.8665,W,0.03,195.70,040319,,,D*77
$GPGGA,233559.000,4305.1642,N,07740.8665,W,2,11,0.91,165.9,M,-34.4,M,0000,0000*51
lng=-77.681114, lat=43.086067, altitude=165.90, speed=0.03, satellites=11, angle=195.7000, fixquality=2
$GPRMC,233559.200,A,4305.1642,N,07740.8665,W,0.03,195.70,040319,,,D*7C
$GPGGA,233559.400,4305.1642,N,07740.8665,W,2,11,0.91,165.9,M,-34.4,M,0000,0000*55
lng=-77.681114, lat=43.086067, altitude=165.90, speed=0.03, satellites=11, angle=195.7000, fixquality=2
$GPRMC,233559.600,A,4305.1642,N,07740.8665,W,0.03,195.70,040319,,,D*78
$GPGGA,233559.800,4305.1642,N,07740.8665,W,2,11,0.91,165.9,M,-34.4,M,0000,0000*59
lng=-77.681114, lat=43.086067, altitude=165.90, speed=0.03, satellites=11, angle=195.7000, fixquality=2
$GPRMC,233600.000,A,4305.1642,N,07740.8665,W,0.03,195.70,040319,,,D*71
$GPGGA,233600.200,4305.1642,N,07740.8665,W,2,11,0.91,165.9,M,-34.4,M,0000,0000*5C
lng=-77.681114, lat=43.086067, altitude=165.90, speed=0.03, satellites=11, angle=195.7000, fixquality=2
$GPRMC,233600.400,A,4305.1642,N,07740.8665,W,0.03,195.70,040319,,,D*75
$GPGGA,233600.600,4305.1642,N,07740.8665,W,2,11,0.91,165.9,M,-34.4,M,0000,0000*58
lng=-77.681114, lat=43.086067, altitude=165.90, speed=0.03, satellites=11, angle=195.7000, fixquality=2
$GPRMC,233600.800,A,4305.1642,N,07740.8665,W,0.04,195.70,040319,,,D*7E
$GPGGA,233601.000,4305.1642,N,07740.8665,W,2,11,0.91,165.9,M,-34.4,M,0000,0000*5F
lng=-77.681114, lat=43.086067, altitude=165.90, speed=0.04, satellites=11, angle=195.7000, fixquality=2
$GPRMC,233601.200,A,4305.1642,N,07740.8665,W,0.04,195.70,040319,,,D*75
$GPGGA,233601.400,4305.1642,N,07740.8665,W,2,11,0.91,165.9,M,-34.4,M,0000,0000*5B
lng=-77.681114, lat=43.086067, altitude=165.90, speed=0.04, satellites=11, angle=195.7000, fixquality=2
$GPRMC,233601.600,A,4305.1642,N,07740.8665,W,0.05,195.70,040319,,,D*70
$GPGGA,233601.800,4305.1642,N,07740.8665,W,2,11,0.91,165.9,M,-34.4,M,0000,0000*57
lng=-77.681114, lat=43.086067, altitude=165.90, speed=0.05, satellites=11, angle=195.7000, fixquality=2
$GPRMC,233602.000,A,4305.1642,N,07740.8665,W,0.05,195.70,040319,,,D*75
$GPGGA,233602.200,4305.1642,N,07740.8665,W,2,11,0.91,165.8,M,-34.4,M,0000,0000*5F
lng=-77.681114, lat=43.086067, altitude=165.90, speed=0.05, satellites=11, angle=195.7000, fixquality=2
$GPRMC,233602.400,A,4305.1642,N,07740.8665,W,0.06,195.70,040319,,,D*72
$GPGGA,233602.600,4305.1642,N,07740.8665,W,2,11,0.91,165.8,M,-34.4,M,0000,0000*5B
lng=-77.681114, lat=43.086067, altitude=165.80, speed=0.06, satellites=11, angle=195.7000, fixquality=2
$GPRMC,233602.800,A,4305.1642,N,07740.8665,W,0.06,195.70,040319,,,D*7E
$GPGGA,233603.000,4305.1642,N,07740.8665,W,2,11,0.91,165.8,M,-34.4,M,0000,0000*5C
lng=-77.681114, lat=43.086067, altitude=165.80, speed=0.06, satellites=11, angle=195.7000, fixquality=2
$GPRMC,233603.200,A,4305.1642,N,07740.8665,W,0.07,195.70,040319,,,D*74
$GPGGA,233603.400,4305.1642,N,07740.8665,W,2,11,0.91,165.8,M,-34.4,M,0000,0000*58
lng=-77.681114, lat=43.086067, altitude=165.80, speed=0.07, satellites=11, angle=195.7000, fixquality=2
$GPRMC,233603.600,A,4305.1642,N,07740.8665,W,0.00,195.70,040319,,,D*77
$GPGGA,233603.800,4305.1642,N,07740.8665,W,2,11,0.91,165.8,M,-34.4,M,0000,0000*54
lng=-77.681114, lat=43.086067, altitude=165.80, speed=0.00, satellites=11, angle=195.7000, fixquality=2
$GPRMC,233604.000,A,4305.1642,N,07740.8665,W,0.01,195.70,040319,,,D*77
$GPGGA,233604.200,4305.1642,N,07740.8665,W,2,11,0.91,165.8,M,-34.4,M,0000,0000*59
lng=-77.681114, lat=43.086067, altitude=165.80, speed=0.01, satellites=11, angle=195.7000, fixquality=2
$GPRMC,233604.400,A,4305.1642,N,07740.8665,W,0.01,195.70,040319,,,D*73
$GPGGA,233604.600,4305.1642,N,07740.8665,W,2,11,0.91,165.8,M,-34.4,M,0000,0000*5D
lng=-77.681114, lat=43.086067, altitude=165.80, speed=0.01, satellites=11, angle=195.7000, fixquality=2
$GPRMC,233604.800,A,4305.1642,N,07740.8665,W,0.01,195.70,040319,,,D*7F
$GPGGA,233605.000,4305.1642,N,07740.8665,W,2,11,0.91,165.8,M,-34.4,M,0000,0000*5A
lng=-77.681114, lat=43.086067, altitude=165.80, speed=0.01, satellites=11, angle=195.7000, fixquality=2
$GPRMC,233605.200,A,4305.1642,N,07740.8665,W,0.01,195.70,040319,,,D*74
$GPGGA,233605.400,4305.1642,N,07740.8665,W,2,11,0.91,165.8,M,-34.4,M,0000,0000*5E
lng=-77.681114, lat=43.086067, altitude=165.80, speed=0.01, satellites=11, angle=195.7000, fixquality=2
$GPRMC,233605.600,A,4305.1642,N,07740.8665,W,0.00,195.70,040319,,,D*71
$GPGGA,233605.800,4305.1642,N,07740.8665,W,2,11,0.91,165.8,M,-34.4,M,0000,0000*52
lng=-77.681114, lat=43.086067, altitude=165.80, speed=0.00, satellites=11, angle=195.7000, fixquality=2
$GPRMC,233606.000,A,4305.1642,N,07740.8665,W,0.00,195.70,040319,,,D*74
$GPGGA,233606.200,4305.1642,N,07740.8665,W,2,11,0.91,165.8,M,-34.4,M,0000,0000*5B
lng=-77.681114, lat=43.086067, altitude=165.80, speed=0.00, satellites=11, angle=195.7000, fixquality=2
$GPRMC,233606.400,A,4305.1642,N,07740.8665,W,0.00,195.70,040319,,,D*70
$GPGGA,233606.600,4305.1642,N,07740.8665,W,2,11,0.91,165.8,M,-34.4,M,0000,0000*5F
lng=-77.681114, lat=43.086067, altitude=165.80, speed=0.00, satellites=11, angle=195.7000, fixquality=2
$GPRMC,233606.800,A,4305.1642,N,07740.8665,W,0.01,195.70,040319,,,D*7D
$GPGGA,233607.000,4305.1642,N,07740.8665,W,2,11,0.91,165.8,M,-34.4,M,0000,0000*58
lng=-77.681114, lat=43.086067, altitude=165.80, speed=0.01, satellites=11, angle=195.7000, fixquality=2
$GPRMC,233607.200,A,4305.1642,N,07740.8665,W,0.01,195.70,040319,,,D*76
$GPGGA,233607.400,4305.1642,N,07740.8665,W,2,11,0.91,165.8,M,-34.4,M,0000,0000*5C
lng=-77.681114, lat=43.086067, altitude=165.80, speed=0.01, satellites=11, angle=195.7000, fixquality=2
$GPRMC,233607.600,A,4305.1642,N,07740.8665,W,0.01,195.70,040319,,,D*72
$GPGGA,233607.800,4305.1642,N,07740.8665,W,2,11,0.91,165.8,M,-34.4,M,0000,0000*50
lng=-77.681114, lat=43.086067, altitude=165.80, speed=0.01, satellites=11, angle=195.7000, fixquality=2
$GPRMC,233608.000,A,4305.1642,N,07740.8665,W,0.00,195.70,040319,,,D*7A
$GPGGA,233608.200,4305.1642,N,07740.8665,W,2,11,0.91,165.8,M,-34.4,M,0000,0000*55
lng=-77.681114, lat=43.086067, altitude=165.80, speed=0.00, satellites=11, angle=195.7000, fixquality=2
$GPRMC,233608.400,A,4305.1643,N,07740.8665,W,0.00,195.70,040319,,,D*7F
$GPGGA,233608.600,4305.1643,N,07740.8665,W,2,11,0.91,165.8,M,-34.4,M,0000,0000*50
lng=-77.681114, lat=43.086067, altitude=165.80, speed=0.00, satellites=11, angle=195.7000, fixquality=2
$GPRMC,233608.800,A,4305.1643,N,07740.8665,W,0.01,195.70,040319,,,D*72
$GPGGA,233609.000,4305.1643,N,07740.8665,W,2,11,0.91,165.8,M,-34.4,M,0000,0000*57
lng=-77.681114, lat=43.086067, altitude=165.80, speed=0.01, satellites=11, angle=195.7000, fixquality=2
$GPRMC,233609.200,A,4305.1643,N,07740.8665,W,0.01,195.70,040319,,,D*79
$GPGGA,233609.400,4305.1643,N,07740.8665,W,2,11,0.91,165.8,M,-34.4,M,0000,0000*53
lng=-77.681114, lat=43.086067, altitude=165.80, speed=0.01, satellites=11, angle=195.7000, fixquality=2
$GPRMC,233609.600,A,4305.1643,N,07740.8665,W,0.00,195.70,040319,,,D*7C
$GPGGA,233609.800,4305.1643,N,07740.8665,W,2,11,0.91,165.8,M,-34.4,M,0000,0000*5F
lng=-77.681114, lat=43.086067, altitude=165.80, speed=0.00, satellites=11, angle=195.7000, fixquality=2
$GPRMC,233610.000,A,4305.1643,N,07740.8665,W,0.00,195.70,040319,,,D*72
$GPGGA,233610.200,4305.1643,N,07740.8665,W,2,11,0.91,165.8,M,-34.4,M,0000,0000*5D
lng=-77.681114, lat=43.086067, altitude=165.80, speed=0.00, satellites=11, angle=195.7000, fixquality=2
$GPRMC,233610.400,A,4305.1643,N,07740.8665,W,0.01,195.70,040319,,,D*77
$GPGGA,233610.600,4305.1643,N,07740.8665,W,2,11,0.91,165.8,M,-34.4,M,0000,0000*59
lng=-77.681114, lat=43.086067, altitude=165.80, speed=0.01, satellites=11, angle=195.7000, fixquality=2
$GPRMC,233610.800,A,4305.1643,N,07740.8665,W,0.00,195.70,040319,,,D*7A
$GPGGA,233611.000,4305.1643,N,07740.8665,W,2,11,0.91,165.8,M,-34.4,M,0000,0000*5E
lng=-77.681114, lat=43.086067, altitude=165.80, speed=0.00, satellites=11, angle=195.7000, fixquality=2
$GPRMC,233611.200,A,4305.1643,N,07740.8665,W,0.01,195.70,040319,,,D*70
$GPGGA,233611.400,4305.1643,N,07740.8665,W,2,11,0.91,165.8,M,-34.4,M,0000,0000*5A
lng=-77.681114, lat=43.086067, altitude=165.80, speed=0.01, satellites=11, angle=195.7000, fixquality=2
$GPRMC,233611.600,A,4305.1643,N,07740.8665,W,0.01,195.70,040319,,,D*74
$GPGGA,233611.800,4305.1643,N,07740.8665,W,2,11,0.91,165.8,M,-34.4,M,0000,0000*56
lng=-77.681114, lat=43.086067, altitude=165.80, speed=0.01, satellites=11, angle=195.7000, fixquality=2
$GPRMC,233612.000,A,4305.1643,N,07740.8665,W,0.01,195.70,040319,,,D*71
$GPGGA,233612.200,4305.1643,N,07740.8665,W,2,11,0.91,165.8,M,-34.4,M,0000,0000*5F
lng=-77.681114, lat=43.086067, altitude=165.80, speed=0.01, satellites=11, angle=195.7000, fixquality=2
$GPRMC,233612.400,A,4305.1643,N,07740.8665,W,0.01,195.70,040319,,,D*75
$GPGGA,233612.600,4305.1643,N,07740.8665,W,2,11,0.91,165.8,M,-34.4,M,0000,0000*5B
lng=-77.681114, lat=43.086067, altitude=165.80, speed=0.01, satellites=11, angle=195.7000, fixquality=2
$GPRMC,233612.800,A,4305.1643,N,07740.8665,W,0.00,195.70,040319,,,D*78
$GPGGA,233613.000,4305.1643,N,07740.8665,W,2,11,0.91,165.8,M,-34.4,M,0000,0000*5C
lng=-77.681114, lat=43.086067, altitude=165.80, speed=0.00, satellites=11, angle=195.7000, fixquality=2
$GPRMC,233613.200,A,4305.1643,N,07740.8665,W,0.00,195.70,040319,,,D*73
$GPGGA,233613.400,4305.1643,N,07740.8665,W,2,11,0.91,165.8,M,-34.4,M,0000,0000*58
lng=-77.681114, lat=43.086067, altitude=165.80, speed=0.00, satellites=11, angle=195.7000, fixquality=2
$GPRMC,233613.600,A,4305.1643,N,07740.8665,W,0.00,195.70,040319,,,D*77
$GPGGA,233613.800,4305.1643,N,07740.8665,W,2,11,0.91,165.8,M,-34.4,M,0000,0000*54
lng=-77.681114, lat=43.086067, altitude=165.80, speed=0.00, satellites=11, angle=195.7000, fixquality=2
$GPRMC,233614.000,A,4305.1643,N,07740.8665,W,0.00,195.70,040319,,,D*76
$GPGGA,233614.200,4305.1643,N,07740.8665,W,2,11,0.91,165.8,M,-34.4,M,0000,0000*59
lng=-77.681114, lat=43.086067, altitude=165.80, speed=0.00, satellites=11, angle=195.7000, fixquality=2
$GPRMC,233614.400,A,4305.1643,N,07740.8665,W,0.00,195.70,040319,,,D*72
$GPGGA,233614.600,4305.1643,N,07740.8665,W,2,11,0.91,165.8,M,-34.4,M,0000,0000*5D
lng=-77.681114, lat=43.086067, altitude=165.80, speed=0.00, satellites=11, angle=195.7000, fixquality=2
$GPRMC,233614.800,A,4305.1643,N,07740.8665,W,0.01,195.70,040319,,,D*7F
$GPGGA,233615.000,4305.1643,N,07740.8665,W,2,11,0.91,165.8,M,-34.4,M,0000,0000*5A
lng=-77.681114, lat=43.086067, altitude=165.80, speed=0.01, satellites=11, angle=195.7000, fixquality=2
$GPRMC,233615.200,A,4305.1643,N,07740.8665,W,0.00,195.70,040319,,,D*75
$GPGGA,233615.400,4305.1643,N,07740.8665,W,2,11,0.91,165.8,M,-34.4,M,0000,0000*5E
lng=-77.681114, lat=43.086067, altitude=165.80, speed=0.00, satellites=11, angle=195.7000, fixquality=2
$GPRMC,233615.600,A,4305.1643,N,07740.8665,W,0.00,195.70,040319,,,D*71
$GPGGA,233615.800,4305.1643,N,07740.8665,W,2,11,0.91,165.8,M,-34.4,M,0000,0000*52
lng=-77.681114, lat=43.086067, altitude=165.80, speed=0.00, satellites=11, angle=195.7000, fixquality=2
$GPRMC,233616.000,A,4305.1643,N,07740.8665,W,0.00,195.70,040319,,,D*74
$GPGGA,233616.200,4305.1643,N,07740.8665,W,2,11,0.91,165.8,M,-34.4,M,0000,0000*5B
lng=-77.681114, lat=43.086067, altitude=165.80, speed=0.00, satellites=11, angle=195.7000, fixquality=2
$GPRMC,233616.400,A,4305.1643,N,07740.8665,W,0.00,195.70,040319,,,D*70
$GPGGA,233616.600,4305.1643,N,07740.8665,W,2,11,0.91,165.8,M,-34.4,M,0000,0000*5F
lng=-77.681114, lat=43.086067, altitude=165.80, speed=0.00, satellites=11, angle=195.7000, fixquality=2
$GPRMC,233616.800,A,4305.1643,N,07740.8665,W,0.00,195.70,040319,,,D*7C
$GPGGA,233617.000,4305.1643,N,07740.8665,W,2,11,0.91,165.8,M,-34.4,M,0000,0000*58
lng=-77.681114, lat=43.086067, altitude=165.80, speed=0.00, satellites=11, angle=195.7000, fixquality=2
$GPRMC,233617.200,A,4305.1643,N,07740.8665,W,0.00,195.70,040319,,,D*77
$GPGGA,233617.400,4305.1643,N,07740.8665,W,2,11,0.91,165.8,M,-34.4,M,0000,0000*5C
lng=-77.681114, lat=43.086067, altitude=165.80, speed=0.00, satellites=11, angle=195.7000, fixquality=2
$GPRMC,233617.600,A,4305.1643,N,07740.8665,W,0.00,195.70,040319,,,D*73
$GPGGA,233617.800,4305.1643,N,07740.8665,W,2,11,0.91,165.8,M,-34.4,M,0000,0000*50
lng=-77.681114, lat=43.086067, altitude=165.80, speed=0.00, satellites=11, angle=195.7000, fixquality=2
$GPRMC,233618.000,A,4305.1643,N,07740.8665,W,0.00,195.70,040319,,,D*7A
$GPGGA,233618.200,4305.1643,N,07740.8665,W,2,11,0.91,165.8,M,-34.4,M,0000,0000*55
lng=-77.681114, lat=43.086067, altitude=165.80, speed=0.00, satellites=11, angle=195.7000, fixquality=2
$GPRMC,233618.400,A,4305.1643,N,07740.8665,W,0.00,195.70,040319,,,D*7E
$GPGGA,233618.600,4305.1643,N,07740.8665,W,2,11,0.91,165.8,M,-34.4,M,0000,0000*51
lng=-77.681114, lat=43.086067, altitude=165.80, speed=0.00, satellites=11, angle=195.7000, fixquality=2
$GPRMC,233618.800,A,4305.1643,N,07740.8665,W,0.01,195.70,040319,,,D*73
$GPGGA,233619.000,4305.1643,N,07740.8665,W,2,11,0.91,165.8,M,-34.4,M,0000,0000*56
lng=-77.681114, lat=43.086067, altitude=165.80, speed=0.01, satellites=11, angle=195.7000, fixquality=2
$GPRMC,233619.200,A,4305.1643,N,07740.8665,W,0.00,195.70,040319,,,D*79
$GPGGA,233619.400,4305.1643,N,07740.8665,W,2,11,0.91,165.8,M,-34.4,M,0000,0000*52
lng=-77.681114, lat=43.086067, altitude=165.80, speed=0.00, satellites=11, angle=195.7000, fixquality=2
$GPRMC,233619.600,A,4305.1643,N,07740.8665,W,0.01,195.70,040319,,,D*7C
$GPGGA,233619.800,4305.1643,N,07740.8665,W,2,11,0.91,165.8,M,-34.4,M,0000,0000*5E
lng=-77.681114, lat=43.086067, altitude=165.80, speed=0.01, satellites=11, angle=195.7000, fixquality=2
$GPRMC,233620.000,A,4305.1643,N,07740.8665,W,0.00,195.70,040319,,,D*71
$GPGGA,233620.200,4305.1643,N,07740.8665,W,2,11,0.91,165.8,M,-34.4,M,0000,0000*5E
lng=-77.681114, lat=43.086067, altitude=165.80, speed=0.00, satellites=11, angle=195.7000, fixquality=2
$GPRMC,233620.400,A,4305.1643,N,07740.8665,W,0.00,195.70,040319,,,D*75
$GPGGA,233620.600,4305.1643,N,07740.8665,W,2,11,0.91,165.8,M,-34.4,M,0000,0000*5A
lng=-77.681114, lat=43.086067, altitude=165.80, speed=0.00, satellites=11, angle=195.7000, fixquality=2
$GPRMC,233620.800,A,4305.1643,N,07740.8665,W,0.00,195.70,040319,,,D*79
$GPGGA,233621.000,4305.1643,N,07740.8665,W,2,11,0.91,165.8,M,-34.4,M,0000,0000*5D
lng=-77.681114, lat=43.086067, altitude=165.80, speed=0.00, satellites=11, angle=195.7000, fixquality=2
$GPRMC,233621.200,A,4305.1643,N,07740.8665,W,0.00,195.70,040319,,,D*72
$GPGGA,233621.400,4305.1643,N,07740.8665,W,2,11,0.91,165.7,M,-34.4,M,0000,0000*56
lng=-77.681114, lat=43.086067, altitude=165.80, speed=0.00, satellites=11, angle=195.7000, fixquality=2
$GPRMC,233621.600,A,4305.1643,N,07740.8665,W,0.01,195.70,040319,,,D*77
$GPGGA,233621.800,4305.1643,N,07740.8665,W,2,11,0.91,165.7,M,-34.4,M,0000,0000*5A
lng=-77.681114, lat=43.086067, altitude=165.70, speed=0.01, satellites=11, angle=195.7000, fixquality=2
$GPRMC,233622.000,A,4305.1643,N,07740.8665,W,0.00,195.70,040319,,,D*73
$GPGGA,233622.200,4305.1643,N,07740.8665,W,2,11,0.91,165.7,M,-34.4,M,0000,0000*53
lng=-77.681114, lat=43.086067, altitude=165.70, speed=0.00, satellites=11, angle=195.7000, fixquality=2
$GPRMC,233622.400,A,4305.1643,N,07740.8665,W,0.00,195.70,040319,,,D*77
$GPGGA,233622.600,4305.1643,N,07740.8665,W,2,11,0.91,165.7,M,-34.4,M,0000,0000*57
lng=-77.681114, lat=43.086067, altitude=165.70, speed=0.00, satellites=11, angle=195.7000, fixquality=2
$GPRMC,233622.800,A,4305.1643,N,07740.8665,W,0.00,195.70,040319,,,D*7B
$GPGGA,233623.000,4305.1643,N,07740.8665,W,2,11,0.91,165.7,M,-34.4,M,0000,0000*50
lng=-77.681114, lat=43.086067, altitude=165.70, speed=0.00, satellites=11, angle=195.7000, fixquality=2
$GPRMC,233623.200,A,4305.1643,N,07740.8665,W,0.00,195.70,040319,,,D*70
$GPGGA,233623.400,4305.1643,N,07740.8665,W,2,11,0.91,165.7,M,-34.4,M,0000,0000*54
lng=-77.681114, lat=43.086067, altitude=165.70, speed=0.00, satellites=11, angle=195.7000, fixquality=2
$GPRMC,233623.600,A,4305.1643,N,07740.8665,W,0.00,195.70,040319,,,D*74
$GPGGA,233623.800,4305.1643,N,07740.8665,W,2,11,0.91,165.7,M,-34.4,M,0000,0000*58
lng=-77.681114, lat=43.086067, altitude=165.70, speed=0.00, satellites=11, angle=195.7000, fixquality=2
$GPRMC,233624.000,A,4305.1643,N,07740.8665,W,0.01,195.70,040319,,,D*74
$GPGGA,233624.200,4305.1643,N,07740.8665,W,2,11,0.91,165.7,M,-34.4,M,0000,0000*55
lng=-77.681114, lat=43.086067, altitude=165.70, speed=0.01, satellites=11, angle=195.7000, fixquality=2
$GPRMC,233624.400,A,4305.1643,N,07740.8665,W,0.01,195.70,040319,,,D*70
$GPGGA,233624.600,4305.1643,N,07740.8665,W,2,11,0.91,165.7,M,-34.4,M,0000,0000*51
lng=-77.681114, lat=43.086067, altitude=165.70, speed=0.01, satellites=11, angle=195.7000, fixquality=2
$GPRMC,233624.800,A,4305.1643,N,07740.8665,W,0.01,195.70,040319,,,D*7C
$GPGGA,233625.000,4305.1643,N,07740.8665,W,2,11,0.91,165.7,M,-34.4,M,0000,0000*56
lng=-77.681114, lat=43.086067, altitude=165.70, speed=0.01, satellites=11, angle=195.7000, fixquality=2
$GPRMC,233625.200,A,4305.1643,N,07740.8665,W,0.00,195.70,040319,,,D*76
$GPGGA,233625.400,4305.1643,N,07740.8665,W,2,11,0.91,165.7,M,-34.4,M,0000,0000*52
lng=-77.681114, lat=43.086067, altitude=165.70, speed=0.00, satellites=11, angle=195.7000, fixquality=2
$GPRMC,233625.600,A,4305.1643,N,07740.8665,W,0.00,195.70,040319,,,D*72
$GPGGA,233625.800,4305.1643,N,07740.8665,W,2,11,0.91,165.7,M,-34.4,M,0000,0000*5E
lng=-77.681114, lat=43.086067, altitude=165.70, speed=0.00, satellites=11, angle=195.7000, fixquality=2
$GPRMC,233626.000,A,4305.1643,N,07740.8665,W,0.00,195.70,040319,,,D*77
$GPGGA,233626.200,4305.1643,N,07740.8665,W,2,11,0.91,165.7,M,-34.4,M,0000,0000*57
lng=-77.681114, lat=43.086067, altitude=165.70, speed=0.00, satellites=11, angle=195.7000, fixquality=2
$GPRMC,233626.400,A,4305.1643,N,07740.8665,W,0.00,195.70,040319,,,D*73
$GPGGA,233626.600,4305.1643,N,07740.8665,W,2,11,0.91,165.7,M,-34.4,M,0000,0000*53
lng=-77.681114, lat=43.086067, altitude=165.70, speed=0.00, satellites=11, angle=195.7000, fixquality=2
$GPRMC,233626.800,A,4305.1643,N,07740.8665,W,0.00,195.70,040319,,,D*7F
$GPGGA,233627.000,4305.1643,N,07740.8665,W,2,11,0.91,165.7,M,-34.4,M,0000,0000*54
lng=-77.681114, lat=43.086067, altitude=165.70, speed=0.00, satellites=11, angle=195.7000, fixquality=2
$GPRMC,233627.200,A,4305.1643,N,07740.8665,W,0.01,195.70,040319,,,D*75
$GPGGA,233627.400,4305.1643,N,07740.8665,W,2,11,0.91,165.7,M,-34.4,M,0000,0000*50
lng=-77.681114, lat=43.086067, altitude=165.70, speed=0.01, satellites=11, angle=195.7000, fixquality=2
$GPRMC,233627.600,A,4305.1643,N,07740.8665,W,0.00,195.70,040319,,,D*70
$GPGGA,233627.800,4305.1643,N,07740.8665,W,2,11,0.91,165.7,M,-34.4,M,0000,0000*5C
lng=-77.681114, lat=43.086067, altitude=165.70, speed=0.00, satellites=11, angle=195.7000, fixquality=2
$GPRMC,233628.000,A,4305.1643,N,07740.8665,W,0.00,195.70,040319,,,D*79
$GPGGA,233628.200,4305.1643,N,07740.8665,W,2,11,0.91,165.7,M,-34.4,M,0000,0000*59
lng=-77.681114, lat=43.086067, altitude=165.70, speed=0.00, satellites=11, angle=195.7000, fixquality=2
$GPRMC,233628.400,A,4305.1643,N,07740.8665,W,0.00,195.70,040319,,,D*7D
$GPGGA,233628.600,4305.1643,N,07740.8665,W,2,11,0.91,165.7,M,-34.4,M,0000,0000*5D
lng=-77.681114, lat=43.086067, altitude=165.70, speed=0.00, satellites=11, angle=195.7000, fixquality=2
$GPRMC,233628.800,A,4305.1643,N,07740.8665,W,0.00,195.70,040319,,,D*71
$GPGGA,233629.000,4305.1643,N,07740.8665,W,2,11,0.91,165.7,M,-34.4,M,0000,0000*5A
lng=-77.681114, lat=43.086067, altitude=165.70, speed=0.00, satellites=11, angle=195.7000, fixquality=2
$GPRMC,233629.200,A,4305.1643,N,07740.8665,W,0.01,195.70,040319,,,D*7B
$GPGGA,233629.400,4305.1643,N,07740.8665,W,2,11,0.91,165.7,M,-34.4,M,0000,0000*5E
lng=-77.681114, lat=43.086067, altitude=165.70, speed=0.01, satellites=11, angle=195.7000, fixquality=2
$GPRMC,233629.600,A,4305.1643,N,07740.8665,W,0.01,195.70,040319,,,D*7F
$GPGGA,233629.800,4305.1643,N,07740.8665,W,2,11,0.91,165.7,M,-34.4,M,0000,0000*52
lng=-77.681114, lat=43.086067, altitude=165.70, speed=0.01, satellites=11, angle=195.7000, fixquality=2
$GPRMC,233630.000,A,4305.1643,N,07740.8665,W,0.01,195.70,040319,,,D*71
$GPGGA,233630.200,4305.1643,N,07740.8665,W,2,11,0.91,165.7,M,-34.4,M,0000,0000*50
lng=-77.681114, lat=43.086067, altitude=165.70, speed=0.01, satellites=11, angle=195.7000, fixquality=2
$GPRMC,233630.400,A,4305.1643,N,07740.8665,W,0.02,195.70,040319,,,D*76
$GPGGA,233630.600,4305.1643,N,07740.8665,W,2,11,0.91,165.7,M,-34.4,M,0000,0000*54
lng=-77.681114, lat=43.086067, altitude=165.70, speed=0.02, satellites=11, angle=195.7000, fixquality=2
$GPRMC,233630.800,A,4305.1643,N,07740.8665,W,0.00,195.70,040319,,,D*78
$GPGGA,233631.000,4305.1643,N,07740.8665,W,2,11,0.91,165.7,M,-34.4,M,0000,0000*53
lng=-77.681114, lat=43.086067, altitude=165.70, speed=0.00, satellites=11, angle=195.7000, fixquality=2
$GPRMC,233631.200,A,4305.1643,N,07740.8665,W,0.01,195.70,040319,,,D*72
$GPGGA,233631.400,4305.1643,N,07740.8665,W,2,11,0.91,165.7,M,-34.4,M,0000,0000*57
lng=-77.681114, lat=43.086067, altitude=165.70, speed=0.01, satellites=11, angle=195.7000, fixquality=2
$GPRMC,233631.600,A,4305.1643,N,07740.8665,W,0.02,195.70,040319,,,D*75
$GPGGA,233631.800,4305.1643,N,07740.8665,W,2,11,0.91,165.7,M,-34.4,M,0000,0000*5B
lng=-77.681114, lat=43.086067, altitude=165.70, speed=0.02, satellites=11, angle=195.7000, fixquality=2
$GPRMC,233632.000,A,4305.1643,N,07740.8665,W,0.07,195.70,040319,,,D*75
$GPGGA,233632.200,4305.1643,N,07740.8665,W,2,11,0.91,165.7,M,-34.4,M,0000,0000*52
lng=-77.681114, lat=43.086067, altitude=165.70, speed=0.07, satellites=11, angle=195.7000, fixquality=2
$GPRMC,233632.400,A,4305.1643,N,07740.8665,W,0.11,195.70,040319,,,D*76
$GPGGA,233632.600,4305.1643,N,07740.8665,W,2,11,0.91,165.7,M,-34.4,M,0000,0000*56
lng=-77.681114, lat=43.086067, altitude=165.70, speed=0.11, satellites=11, angle=195.7000, fixquality=2
$GPRMC,233632.800,A,4305.1643,N,07740.8665,W,0.80,195.70,040319,,,D*72
$GPGGA,233633.000,4305.1644,N,07740.8665,W,2,11,0.91,165.7,M,-34.4,M,0000,0000*56
lng=-77.681114, lat=43.086067, altitude=165.70, speed=0.80, satellites=11, angle=195.7000, fixquality=2
$GPRMC,233633.200,A,4305.1645,N,07740.8665,W,2.06,357.01,040319,,,D*79
$GPGGA,233633.400,4305.1647,N,07740.8665,W,2,11,0.91,165.7,M,-34.4,M,0000,0000*51
lng=-77.681114, lat=43.086074, altitude=165.70, speed=2.06, satellites=11, angle=357.0100, fixquality=2
$GPRMC,233633.600,A,4305.1648,N,07740.8664,W,1.81,356.35,040319,,,D*7B
$GPGGA,233633.800,4305.1649,N,07740.8664,W,2,11,0.91,165.6,M,-34.4,M,0000,0000*53
lng=-77.681106, lat=43.086082, altitude=165.70, speed=1.81, satellites=11, angle=356.3500, fixquality=2
$GPRMC,233634.000,A,4305.1650,N,07740.8664,W,1.50,359.46,040319,,,D*74
$GPGGA,233634.200,4305.1651,N,07740.8663,W,2,11,0.91,165.5,M,-34.4,M,0000,0000*53
lng=-77.681106, lat=43.086082, altitude=165.60, speed=1.50, satellites=11, angle=359.4600, fixquality=2
$GPRMC,233634.400,A,4305.1652,N,07740.8663,W,1.17,357.71,040319,,,D*7C
$GPGGA,233634.600,4305.1653,N,07740.8663,W,2,11,0.91,165.5,M,-34.4,M,0000,0000*55
lng=-77.681106, lat=43.086082, altitude=165.50, speed=1.17, satellites=11, angle=357.7100, fixquality=2
$GPRMC,233634.800,A,4305.1654,N,07740.8663,W,1.24,357.66,040319,,,D*70
$GPGGA,233635.000,4305.1654,N,07740.8663,W,2,11,0.91,165.4,M,-34.4,M,0000,0000*54
lng=-77.681106, lat=43.086093, altitude=165.50, speed=1.24, satellites=11, angle=357.6600, fixquality=2
$GPRMC,233635.200,A,4305.1655,N,07740.8663,W,1.63,2.29,040319,,,D*71
$GPGGA,233635.400,4305.1656,N,07740.8663,W,2,11,0.91,165.4,M,-34.4,M,0000,0000*52
lng=-77.681106, lat=43.086093, altitude=165.40, speed=1.63, satellites=11, angle=2.2900, fixquality=2
$GPRMC,233635.600,A,4305.1657,N,07740.8663,W,1.61,6.92,040319,,,D*71
$GPGGA,233635.800,4305.1659,N,07740.8662,W,2,11,0.91,165.3,M,-34.4,M,0000,0000*57
lng=-77.681106, lat=43.086093, altitude=165.40, speed=1.61, satellites=11, angle=6.9200, fixquality=2
$GPRMC,233636.000,A,4305.1660,N,07740.8662,W,1.94,7.60,040319,,,D*77
$GPGGA,233636.200,4305.1661,N,07740.8661,W,2,11,0.91,165.3,M,-34.4,M,0000,0000*56
lng=-77.681106, lat=43.086101, altitude=165.30, speed=1.94, satellites=11, angle=7.6000, fixquality=2
$GPRMC,233636.400,A,4305.1662,N,07740.8660,W,2.25,10.97,040319,,,D*44
$GPGGA,233636.600,4305.1663,N,07740.8660,W,2,11,0.91,165.3,M,-34.4,M,0000,0000*51
lng=-77.681106, lat=43.086101, altitude=165.30, speed=2.25, satellites=11, angle=10.9700, fixquality=2
$GPRMC,233636.800,A,4305.1664,N,07740.8659,W,2.33,12.08,040319,,,D*47
$GPGGA,233637.000,4305.1666,N,07740.8659,W,2,11,0.91,165.2,M,-34.4,M,0000,0000*58
lng=-77.681098, lat=43.086109, altitude=165.30, speed=2.33, satellites=11, angle=12.0800, fixquality=2
$GPRMC,233637.200,A,4305.1667,N,07740.8658,W,2.79,23.28,040319,,,D*40
$GPGGA,233637.400,4305.1669,N,07740.8657,W,2,11,0.90,165.2,M,-34.4,M,0000,0000*5C
lng=-77.681098, lat=43.086109, altitude=165.20, speed=2.79, satellites=11, angle=23.2800, fixquality=2
$GPRMC,233637.600,A,4305.1670,N,07740.8656,W,2.79,26.37,040319,,,D*47
$GPGGA,233637.800,4305.1672,N,07740.8655,W,2,11,0.90,165.1,M,-34.4,M,0000,0000*5B
lng=-77.681098, lat=43.086116, altitude=165.20, speed=2.79, satellites=11, angle=26.3700, fixquality=2
$GPRMC,233638.000,A,4305.1673,N,07740.8654,W,3.04,29.70,040319,,,D*48
$GPGGA,233638.200,4305.1675,N,07740.8653,W,2,11,0.90,165.1,M,-34.4,M,0000,0000*5F
lng=-77.681083, lat=43.086124, altitude=165.10, speed=3.04, satellites=11, angle=29.7000, fixquality=2
$GPRMC,233638.400,A,4305.1676,N,07740.8651,W,2.98,35.66,040319,,,D*42
$GPGGA,233638.600,4305.1677,N,07740.8650,W,2,11,0.90,165.1,M,-34.4,M,0000,0000*5A
lng=-77.681083, lat=43.086124, altitude=165.10, speed=2.98, satellites=11, angle=35.6600, fixquality=2
$GPRMC,233638.800,A,4305.1678,N,07740.8649,W,2.54,38.57,040319,,,D*46
$GPGGA,233639.000,4305.1679,N,07740.8647,W,2,10,0.95,165.1,M,-34.4,M,0000,0000*51
lng=-77.681076, lat=43.086132, altitude=165.10, speed=2.54, satellites=11, angle=38.5700, fixquality=2
$GPRMC,233639.200,A,4305.1680,N,07740.8646,W,1.73,44.14,040319,,,D*4F
$GPGGA,233639.400,4305.1680,N,07740.8644,W,2,10,0.95,165.2,M,-34.4,M,0000,0000*53
lng=-77.681076, lat=43.086132, altitude=165.10, speed=1.73, satellites=10, angle=44.1400, fixquality=2
$GPRMC,233639.600,A,4305.1681,N,07740.8644,W,1.26,46.40,040319,,,D*4B
$GPGGA,233639.800,4305.1681,N,07740.8643,W,2,10,0.95,165.2,M,-34.4,M,0000,0000*59
lng=-77.681068, lat=43.086132, altitude=165.20, speed=1.26, satellites=10, angle=46.4000, fixquality=2
$GPRMC,233640.000,A,4305.1680,N,07740.8643,W,0.64,40.15,040319,,,D*44
$GPGGA,233640.200,4305.1680,N,07740.8643,W,2,10,0.95,165.2,M,-34.4,M,0000,0000*5C
lng=-77.681068, lat=43.086132, altitude=165.20, speed=0.64, satellites=10, angle=40.1500, fixquality=2
$GPRMC,233640.400,A,4305.1679,N,07740.8643,W,0.27,40.15,040319,,,D*41
$GPGGA,233640.600,4305.1679,N,07740.8644,W,2,10,0.95,165.2,M,-34.4,M,0000,0000*59
lng=-77.681068, lat=43.086132, altitude=165.20, speed=0.27, satellites=10, angle=40.1500, fixquality=2
$GPRMC,233640.800,A,4305.1677,N,07740.8644,W,0.58,40.15,040319,,,D*4C
$GPGGA,233641.000,4305.1676,N,07740.8645,W,2,10,0.95,165.1,M,-34.4,M,0000,0000*53
lng=-77.681068, lat=43.086124, altitude=165.20, speed=0.58, satellites=10, angle=40.1500, fixquality=2
$GPRMC,233641.200,A,4305.1674,N,07740.8647,W,1.83,240.51,040319,,,D*72
$GPGGA,233641.400,4305.1672,N,07740.8650,W,2,11,0.90,165.1,M,-34.4,M,0000,0000*53
lng=-77.681076, lat=43.086124, altitude=165.10, speed=1.83, satellites=10, angle=240.5100, fixquality=2
$GPRMC,233641.600,A,4305.1671,N,07740.8654,W,5.68,242.62,040319,,,D*72
$GPGGA,233641.800,4305.1669,N,07740.8658,W,2,11,0.91,165.1,M,-34.4,M,0000,0000*5C
lng=-77.681083, lat=43.086116, altitude=165.10, speed=5.68, satellites=11, angle=242.6200, fixquality=2
$GPRMC,233642.000,A,4305.1667,N,07740.8664,W,7.63,246.86,040319,,,D*74
$GPGGA,233642.200,4305.1665,N,07740.8670,W,2,11,0.91,165.1,M,-34.4,M,0000,0000*53
lng=-77.681106, lat=43.086109, altitude=165.10, speed=7.63, satellites=11, angle=246.8600, fixquality=2
$GPRMC,233642.400,A,4305.1663,N,07740.8677,W,9.01,253.78,040319,,,D*79
$GPGGA,233642.600,4305.1661,N,07740.8684,W,2,11,0.90,165.1,M,-34.4,M,0000,0000*59
lng=-77.681129, lat=43.086109, altitude=165.10, speed=9.01, satellites=11, angle=253.7800, fixquality=2
$GPRMC,233642.800,A,4305.1660,N,07740.8691,W,9.90,258.70,040319,,,D*75
$GPGGA,233643.000,4305.1659,N,07740.8699,W,2,11,0.91,165.0,M,-34.4,M,0000,0000*59
lng=-77.681152, lat=43.086101, altitude=165.10, speed=9.90, satellites=11, angle=258.7000, fixquality=2
$GPRMC,233643.200,A,4305.1658,N,07740.8707,W,11.15,263.29,040319,,,D*4B
$GPGGA,233643.400,4305.1658,N,07740.8716,W,2,11,0.91,164.9,M,-34.4,M,0000,0000*52
lng=-77.681175, lat=43.086101, altitude=165.00, speed=11.15, satellites=11, angle=263.2900, fixquality=2
$GPRMC,233643.600,A,4305.1658,N,07740.8727,W,12.11,270.65,040319,,,D*40
$GPGGA,233643.800,4305.1658,N,07740.8736,W,2,11,0.91,164.8,M,-34.4,M,0000,0000*5D
lng=-77.681205, lat=43.086101, altitude=164.90, speed=12.11, satellites=11, angle=270.6500, fixquality=2
$GPRMC,233644.000,A,4305.1659,N,07740.8745,W,12.14,271.48,040319,,,D*4F
$GPGGA,233644.200,4305.1659,N,07740.8754,W,2,11,0.91,164.7,M,-34.4,M,0000,0000*5A
lng=-77.681243, lat=43.086101, altitude=164.80, speed=12.14, satellites=11, angle=271.4800, fixquality=2
$GPRMC,233644.400,A,4305.1659,N,07740.8763,W,11.84,272.44,040319,,,D*4A
$GPGGA,233644.600,4305.1659,N,07740.8772,W,2,11,0.91,164.6,M,-34.4,M,0000,0000*5B
lng=-77.681274, lat=43.086101, altitude=164.70, speed=11.84, satellites=11, angle=272.4400, fixquality=2
$GPRMC,233644.800,A,4305.1660,N,07740.8781,W,11.58,276.30,040319,,,D*46
$GPGGA,233645.000,4305.1661,N,07740.8789,W,2,11,0.91,164.4,M,-34.4,M,0000,0000*51
lng=-77.681297, lat=43.086101, altitude=164.60, speed=11.58, satellites=11, angle=276.3000, fixquality=2
$GPRMC,233645.200,A,4305.1661,N,07740.8797,W,11.12,280.60,040319,,,D*49
$GPGGA,233645.400,4305.1663,N,07740.8805,W,2,11,0.91,164.3,M,-34.4,M,0000,0000*5B
lng=-77.681327, lat=43.086101, altitude=164.40, speed=11.12, satellites=11, angle=280.6000, fixquality=2
$GPRMC,233645.600,A,4305.1664,N,07740.8812,W,10.68,290.30,040319,,,D*42
$GPGGA,233645.800,4305.1667,N,07740.8819,W,2,11,0.91,164.3,M,-34.4,M,0000,0000*5E
lng=-77.681358, lat=43.086109, altitude=164.30, speed=10.68, satellites=11, angle=290.3000, fixquality=2
$GPRMC,233646.000,A,4305.1669,N,07740.8826,W,10.45,300.62,040319,,,D*4D
$GPGGA,233646.200,4305.1671,N,07740.8832,W,2,11,0.91,164.1,M,-34.4,M,0000,0000*5B
lng=-77.681381, lat=43.086116, altitude=164.30, speed=10.45, satellites=11, angle=300.6200, fixquality=2
$GPRMC,233646.400,A,4305.1675,N,07740.8838,W,10.59,309.45,040319,,,D*4A
$GPGGA,233646.600,4305.1678,N,07740.8843,W,2,11,0.91,163.9,M,-34.4,M,0000,0000*5F
lng=-77.681396, lat=43.086124, altitude=164.10, speed=10.59, satellites=11, angle=309.4500, fixquality=2
$GPRMC,233646.800,A,4305.1683,N,07740.8849,W,10.33,319.10,040319,,,D*44
$GPGGA,233647.000,4305.1687,N,07740.8853,W,2,10,0.94,163.8,M,-34.4,M,0000,0000*5C
lng=-77.681411, lat=43.086139, altitude=163.90, speed=10.33, satellites=11, angle=319.1000, fixquality=2
$GPRMC,233647.200,A,4305.1692,N,07740.8858,W,10.11,326.78,040319,,,D*4D
$GPGGA,233647.400,4305.1697,N,07740.8861,W,2,11,0.91,163.7,M,-34.4,M,0000,0000*53
lng=-77.681427, lat=43.086158, altitude=163.80, speed=10.11, satellites=10, angle=326.7800, fixquality=2
$GPRMC,233647.600,A,4305.1702,N,07740.8863,W,10.03,335.59,040319,,,D*4B
$GPGGA,233647.800,4305.1709,N,07740.8864,W,2,11,0.91,163.6,M,-34.4,M,0000,0000*5D
lng=-77.681434, lat=43.086174, altitude=163.70, speed=10.03, satellites=11, angle=335.5900, fixquality=2
$GPRMC,233648.000,A,4305.1719,N,07740.8864,W,13.33,350.41,040319,,,D*45
$GPGGA,233648.200,4305.1726,N,07740.8865,W,2,11,0.91,163.6,M,-34.4,M,0000,0000*54
lng=-77.681434, lat=43.086196, altitude=163.60, speed=13.33, satellites=11, angle=350.4100, fixquality=2
$GPRMC,233648.400,A,4305.1733,N,07740.8865,W,15.16,353.93,040319,,,D*45
$GPGGA,233648.600,4305.1741,N,07740.8866,W,2,11,0.91,163.5,M,-34.4,M,0000,0000*51
lng=-77.681442, lat=43.086223, altitude=163.60, speed=15.16, satellites=11, angle=353.9300, fixquality=2
$GPRMC,233648.800,A,4305.1749,N,07740.8865,W,16.50,358.09,040319,,,D*4D
$GPGGA,233649.000,4305.1758,N,07740.8865,W,2,11,0.91,163.4,M,-34.4,M,0000,0000*5C
lng=-77.681442, lat=43.086246, altitude=163.50, speed=16.50, satellites=11, angle=358.0900, fixquality=2
$GPRMC,233649.200,A,4305.1767,N,07740.8864,W,18.26,359.63,040319,,,D*49
$GPGGA,233649.400,4305.1777,N,07740.8864,W,2,11,0.91,163.2,M,-34.4,M,0000,0000*52
lng=-77.681434, lat=43.086280, altitude=163.40, speed=18.26, satellites=11, angle=359.6300, fixquality=2
$GPRMC,233649.600,A,4305.1787,N,07740.8864,W,19.40,359.55,040319,,,D*47
$GPGGA,233649.800,4305.1797,N,07740.8863,W,2,11,0.91,162.9,M,-34.4,M,0000,0000*5D
lng=-77.681434, lat=43.086311, altitude=163.20, speed=19.40, satellites=11, angle=359.5500, fixquality=2
$GPRMC,233650.000,A,4305.1807,N,07740.8862,W,20.44,0.65,040319,,,D*4A
$GPGGA,233650.200,4305.1818,N,07740.8861,W,2,11,0.91,162.7,M,-34.4,M,0000,0000*5B
lng=-77.681434, lat=43.086345, altitude=162.90, speed=20.44, satellites=11, angle=0.6500, fixquality=2
$GPRMC,233650.400,A,4305.1829,N,07740.8860,W,21.49,0.30,040319,,,D*4C
$GPGGA,233650.600,4305.1840,N,07740.8859,W,2,11,0.91,162.5,M,-34.4,M,0000,0000*5B
lng=-77.681434, lat=43.086383, altitude=162.70, speed=21.49, satellites=11, angle=0.3000, fixquality=2
$GPRMC,233650.800,A,4305.1852,N,07740.8859,W,22.25,359.87,040319,,,D*4C
$GPGGA,233651.000,4305.1864,N,07740.8858,W,2,11,0.91,162.2,M,-34.4,M,0000,0000*5C
lng=-77.681427, lat=43.086418, altitude=162.50, speed=22.25, satellites=11, angle=359.8700, fixquality=2
$GPRMC,233651.200,A,4305.1876,N,07740.8858,W,22.93,359.43,040319,,,D*45
$GPGGA,233651.400,4305.1888,N,07740.8858,W,2,11,0.91,161.9,M,-34.4,M,0000,0000*52
lng=-77.681427, lat=43.086460, altitude=162.20, speed=22.93, satellites=11, angle=359.4300, fixquality=2
$GPRMC,233651.600,A,4305.1900,N,07740.8859,W,23.16,358.66,040319,,,D*4A
$GPGGA,233651.800,4305.1912,N,07740.8859,W,2,11,0.91,161.5,M,-34.4,M,0000,0000*51
lng=-77.681427, lat=43.086498, altitude=161.90, speed=23.16, satellites=11, angle=358.6600, fixquality=2
$GPRMC,233652.000,A,4305.1925,N,07740.8859,W,23.05,359.26,040319,,,D*4F
$GPGGA,233652.200,4305.1937,N,07740.8859,W,2,11,0.91,161.2,M,-34.4,M,0000,0000*58
lng=-77.681427, lat=43.086540, altitude=161.50, speed=23.05, satellites=11, angle=359.2600, fixquality=2
$GPRMC,233652.400,A,4305.1949,N,07740.8859,W,22.94,0.06,040319,,,D*45
$GPGGA,233652.600,4305.1961,N,07740.8858,W,2,11,0.91,160.9,M,-34.4,M,0000,0000*54
lng=-77.681427, lat=43.086582, altitude=161.20, speed=22.94, satellites=11, angle=0.0600, fixquality=2
$GPRMC,233652.800,A,4305.1973,N,07740.8858,W,22.85,0.04,040319,,,D*43
$GPGGA,233653.000,4305.1985,N,07740.8857,W,2,11,0.91,160.7,M,-34.4,M,0000,0000*58
lng=-77.681427, lat=43.086620, altitude=160.90, speed=22.85, satellites=11, angle=0.0400, fixquality=2
$GPRMC,233653.200,A,4305.1998,N,07740.8857,W,22.59,0.76,040319,,,D*46
$GPGGA,233653.400,4305.2010,N,07740.8857,W,2,11,0.91,160.3,M,-34.4,M,0000,0000*5E
lng=-77.681427, lat=43.086662, altitude=160.70, speed=22.59, satellites=11, angle=0.7600, fixquality=2
$GPRMC,233653.600,A,4305.2022,N,07740.8857,W,22.24,0.60,040319,,,D*44
$GPGGA,233653.800,4305.2034,N,07740.8856,W,2,11,0.91,160.1,M,-34.4,M,0000,0000*57
lng=-77.681427, lat=43.086704, altitude=160.30, speed=22.24, satellites=11, angle=0.6000, fixquality=2
$GPRMC,233654.000,A,4305.2046,N,07740.8856,W,22.16,359.48,040319,,,D*42
$GPGGA,233654.200,4305.2058,N,07740.8857,W,2,10,1.06,159.9,M,-34.4,M,0000,0000*5D
lng=-77.681427, lat=43.086742, altitude=160.10, speed=22.16, satellites=11, angle=359.4800, fixquality=2
$GPRMC,233654.400,A,4305.2070,N,07740.8857,W,21.96,358.61,040319,,,D*43
$GPGGA,233654.600,4305.2082,N,07740.8857,W,2,10,1.06,159.6,M,-34.4,M,0000,0000*51
lng=-77.681427, lat=43.086784, altitude=159.90, speed=21.96, satellites=10, angle=358.6100, fixquality=2
$GPRMC,233654.800,A,4305.2093,N,07740.8857,W,21.66,357.12,040319,,,D*46
$GPGGA,233655.000,4305.2105,N,07740.8857,W,2,11,0.91,159.4,M,-34.4,M,0000,0000*54
lng=-77.681427, lat=43.086826, altitude=159.60, speed=21.66, satellites=10, angle=357.1200, fixquality=2
$GPRMC,233655.200,A,4305.2117,N,07740.8858,W,21.44,355.79,040319,,,D*40
$GPGGA,233655.400,4305.2129,N,07740.8860,W,2,11,0.91,159.1,M,-34.4,M,0000,0000*5F
lng=-77.681427, lat=43.086864, altitude=159.40, speed=21.44, satellites=11, angle=355.7900, fixquality=2
$GPRMC,233655.600,A,4305.2140,N,07740.8861,W,20.95,354.43,040319,,,D*49
$GPGGA,233655.800,4305.2152,N,07740.8863,W,2,11,0.91,158.9,M,-34.4,M,0000,0000*55
lng=-77.681434, lat=43.086898, altitude=159.10, speed=20.95, satellites=11, angle=354.4300, fixquality=2
$GPRMC,233656.000,A,4305.2163,N,07740.8865,W,20.43,353.62,040319,,,D*46
$GPGGA,233656.200,4305.2174,N,07740.8867,W,2,11,0.91,158.6,M,-34.4,M,0000,0000*53
lng=-77.681442, lat=43.086936, altitude=158.90, speed=20.43, satellites=11, angle=353.6200, fixquality=2
$GPRMC,233656.400,A,4305.2185,N,07740.8869,W,19.85,351.75,040319,,,D*42
$GPGGA,233656.600,4305.2195,N,07740.8870,W,2,11,0.91,158.4,M,-34.4,M,0000,0000*5C
lng=-77.681442, lat=43.086971, altitude=158.60, speed=19.85, satellites=11, angle=351.7500, fixquality=2
$GPRMC,233656.800,A,4305.2206,N,07740.8873,W,19.57,350.33,040319,,,D*41
$GPGGA,233657.000,4305.2217,N,07740.8875,W,2,11,0.91,158.2,M,-34.4,M,0000,0000*51
lng=-77.681449, lat=43.087013, altitude=158.40, speed=19.57, satellites=11, angle=350.3300, fixquality=2
$GPRMC,233657.200,A,4305.2227,N,07740.8878,W,18.81,350.31,040319,,,D*4A
$GPGGA,233657.400,4305.2238,N,07740.8881,W,2,11,0.91,157.9,M,-34.4,M,0000,0000*57
lng=-77.681465, lat=43.087043, altitude=158.20, speed=18.81, satellites=11, angle=350.3100, fixquality=2
$GPRMC,233657.600,A,4305.2247,N,07740.8883,W,17.88,350.17,040319,,,D*4E
$GPGGA,233657.800,4305.2257,N,07740.8885,W,2,11,0.91,157.7,M,-34.4,M,0000,0000*58
lng=-77.681472, lat=43.087078, altitude=157.90, speed=17.88, satellites=11, angle=350.1700, fixquality=2
$GPRMC,233658.000,A,4305.2266,N,07740.8887,W,16.78,350.18,040319,,,D*41
$GPGGA,233658.200,4305.2275,N,07740.8890,W,2,11,0.91,157.5,M,-34.4,M,0000,0000*5B
lng=-77.681480, lat=43.087108, altitude=157.70, speed=16.78, satellites=11, angle=350.1800, fixquality=2
$GPRMC,233658.400,A,4305.2283,N,07740.8893,W,15.73,350.48,040319,,,D*46
$GPGGA,233658.600,4305.2291,N,07740.8894,W,2,11,0.91,157.4,M,-34.4,M,0000,0000*50
lng=-77.681488, lat=43.087142, altitude=157.50, speed=15.73, satellites=11, angle=350.4800, fixquality=2
$GPRMC,233658.800,A,4305.2299,N,07740.8898,W,14.36,351.31,040319,,,D*45
$GPGGA,233659.000,4305.2306,N,07740.8900,W,2,11,0.91,157.3,M,-34.4,M,0000,0000*53
lng=-77.681495, lat=43.087165, altitude=157.40, speed=14.36, satellites=11, angle=351.3100, fixquality=2
$GPRMC,233659.200,A,4305.2313,N,07740.8902,W,12.82,352.75,040319,,,D*45
$GPGGA,233659.400,4305.2320,N,07740.8904,W,2,11,0.91,157.2,M,-34.4,M,0000,0000*56
lng=-77.681503, lat=43.087192, altitude=157.30, speed=12.82, satellites=11, angle=352.7500, fixquality=2
$GPRMC,233659.600,A,4305.2326,N,07740.8905,W,10.87,353.81,040319,,,D*4D
$GPGGA,233659.800,4305.2332,N,07740.8905,W,2,11,0.91,157.1,M,-34.4,M,0000,0000*5B
lng=-77.681510, lat=43.087207, altitude=157.20, speed=10.87, satellites=11, angle=353.8100, fixquality=2
$GPRMC,233700.000,A,4305.2337,N,07740.8906,W,8.89,355.25,040319,,,D*7A
$GPGGA,233700.200,4305.2341,N,07740.8906,W,2,11,0.91,157.1,M,-34.4,M,0000,0000*5B
lng=-77.681510, lat=43.087230, altitude=157.10, speed=8.89, satellites=11, angle=355.2500, fixquality=2
$GPRMC,233700.400,A,4305.2346,N,07740.8907,W,6.90,356.19,040319,,,D*73
$GPGGA,233700.600,4305.2349,N,07740.8907,W,2,11,0.91,157.0,M,-34.4,M,0000,0000*57
lng=-77.681510, lat=43.087238, altitude=157.10, speed=6.90, satellites=11, angle=356.1900, fixquality=2
$GPRMC,233700.800,A,4305.2352,N,07740.8907,W,6.18,358.62,040319,,,D*78
$GPGGA,233701.000,4305.2355,N,07740.8906,W,2,10,1.06,157.1,M,-34.4,M,0000,0000*53
lng=-77.681510, lat=43.087257, altitude=157.00, speed=6.18, satellites=11, angle=358.6200, fixquality=2
$GPRMC,233701.200,A,4305.2359,N,07740.8906,W,6.49,0.82,040319,,,D*7D
$GPGGA,233701.400,4305.2362,N,07740.8906,W,2,11,0.91,157.3,M,-34.4,M,0000,0000*5F
lng=-77.681510, lat=43.087265, altitude=157.10, speed=6.49, satellites=10, angle=0.8200, fixquality=2
$GPRMC,233701.600,A,4305.2366,N,07740.8905,W,7.49,6.00,040319,,,D*7B
$GPGGA,233701.800,4305.2371,N,07740.8905,W,2,11,0.91,157.3,M,-34.4,M,0000,0000*52
lng=-77.681510, lat=43.087280, altitude=157.30, speed=7.49, satellites=11, angle=6.0000, fixquality=2
$GPRMC,233702.000,A,4305.2375,N,07740.8904,W,8.61,7.00,040319,,,D*79
$GPGGA,233702.200,4305.2380,N,07740.8904,W,2,11,0.91,157.2,M,-34.4,M,0000,0000*55
lng=-77.681510, lat=43.087287, altitude=157.30, speed=8.61, satellites=11, angle=7.0000, fixquality=2
$GPRMC,233702.400,A,4305.2386,N,07740.8903,W,9.70,10.39,040319,,,D*4B
$GPGGA,233702.600,4305.2391,N,07740.8901,W,2,11,0.91,157.1,M,-34.4,M,0000,0000*57
lng=-77.681503, lat=43.087314, altitude=157.20, speed=9.70, satellites=11, angle=10.3900, fixquality=2
$GPRMC,233702.800,A,4305.2397,N,07740.8899,W,10.41,18.07,040319,,,D*7A
$GPGGA,233703.000,4305.2403,N,07740.8896,W,2,11,0.91,157.0,M,-34.4,M,0000,0000*52
lng=-77.681503, lat=43.087329, altitude=157.10, speed=10.41, satellites=11, angle=18.0700, fixquality=2
$GPRMC,233703.200,A,4305.2409,N,07740.8892,W,11.53,23.53,040319,,,D*71
$GPGGA,233703.400,4305.2415,N,07740.8885,W,2,11,0.91,157.5,M,-34.4,M,0000,0000*56
lng=-77.681488, lat=43.087345, altitude=157.00, speed=11.53, satellites=11, angle=23.5300, fixquality=2
$GPRMC,233703.600,A,4305.2420,N,07740.8879,W,12.11,37.05,040319,,,D*78
$GPGGA,233703.800,4305.2425,N,07740.8873,W,2,11,0.91,157.5,M,-34.4,M,0000,0000*50
lng=-77.681465, lat=43.087368, altitude=157.50, speed=12.11, satellites=11, angle=37.0500, fixquality=2
$GPRMC,233704.000,A,4305.2429,N,07740.8866,W,12.75,48.42,040319,,,D*77
$GPGGA,233704.200,4305.2433,N,07740.8857,W,2,10,1.00,157.7,M,-34.4,M,0000,0000*56
lng=-77.681442, lat=43.087379, altitude=157.50, speed=12.75, satellites=11, angle=48.4200, fixquality=2
$GPRMC,233704.400,A,4305.2436,N,07740.8848,W,13.70,65.97,040319,,,D*72
$GPGGA,233704.600,4305.2440,N,07740.8840,W,2,10,1.00,157.8,M,-34.4,M,0000,0000*5F
lng=-77.681411, lat=43.087394, altitude=157.70, speed=13.70, satellites=10, angle=65.9700, fixquality=2
$GPRMC,233704.800,A,4305.2443,N,07740.8830,W,14.45,69.27,040319,,,D*75
$GPGGA,233705.000,4305.2446,N,07740.8820,W,2,10,1.00,157.6,M,-34.4,M,0000,0000*56
lng=-77.681381, lat=43.087402, altitude=157.80, speed=14.45, satellites=10, angle=69.2700, fixquality=2
$GPRMC,233705.200,A,4305.2450,N,07740.8809,W,15.58,72.88,040319,,,D*74
$GPGGA,233705.400,4305.2453,N,07740.8798,W,2,10,1.00,157.5,M,-34.4,M,0000,0000*59
lng=-77.681350, lat=43.087417, altitude=157.60, speed=15.58, satellites=10, angle=72.8800, fixquality=2
$GPRMC,233705.600,A,4305.2456,N,07740.8787,W,16.71,73.23,040319,,,D*77
$GPGGA,233705.800,4305.2459,N,07740.8774,W,2,10,1.00,157.4,M,-34.4,M,0000,0000*5C
lng=-77.681312, lat=43.087425, altitude=157.50, speed=16.71, satellites=10, angle=73.2300, fixquality=2
$GPRMC,233706.000,A,4305.2462,N,07740.8762,W,18.20,74.44,040319,,,D*72
$GPGGA,233706.200,4305.2465,N,07740.8748,W,2,10,1.00,157.3,M,-34.4,M,0000,0000*52
lng=-77.681266, lat=43.087436, altitude=157.40, speed=18.20, satellites=10, angle=74.4400, fixquality=2
$GPRMC,233706.400,A,4305.2468,N,07740.8734,W,19.82,74.86,040319,,,D*78
$GPGGA,233706.600,4305.2471,N,07740.8720,W,2,10,1.00,157.3,M,-34.4,M,0000,0000*5D
lng=-77.681228, lat=43.087444, altitude=157.30, speed=19.82, satellites=10, angle=74.8600, fixquality=2
$GPRMC,233706.800,A,4305.2474,N,07740.8705,W,20.93,75.02,040319,,,D*7C
$GPGGA,233707.000,4305.2478,N,07740.8690,W,2,10,1.00,157.2,M,-34.4,M,0000,0000*58
lng=-77.681175, lat=43.087459, altitude=157.30, speed=20.93, satellites=10, angle=75.0200, fixquality=2
$GPRMC,233707.200,A,4305.2481,N,07740.8674,W,22.02,75.61,040319,,,D*75
$GPGGA,233707.400,4305.2485,N,07740.8658,W,2,11,0.91,157.1,M,-34.4,M,0000,0000*51
lng=-77.681121, lat=43.087467, altitude=157.20, speed=22.02, satellites=10, angle=75.6100, fixquality=2
$GPRMC,233707.600,A,4305.2488,N,07740.8641,W,23.09,76.06,040319,,,D*76
$GPGGA,233707.800,4305.2492,N,07740.8624,W,2,10,1.00,157.1,M,-34.4,M,0000,0000*58
lng=-77.681068, lat=43.087482, altitude=157.10, speed=23.09, satellites=11, angle=76.0600, fixquality=2
$GPRMC,233708.000,A,4305.2495,N,07740.8607,W,24.13,76.41,040319,,,D*7E
$GPGGA,233708.200,4305.2499,N,07740.8589,W,2,10,1.00,157.0,M,-34.4,M,0000,0000*53
lng=-77.681015, lat=43.087490, altitude=157.10, speed=24.13, satellites=10, angle=76.4100, fixquality=2
$GPRMC,233708.400,A,4305.2502,N,07740.8571,W,24.80,76.89,040319,,,D*79
$GPGGA,233708.600,4305.2505,N,07740.8552,W,2,10,1.00,157.0,M,-34.4,M,0000,0000*55
lng=-77.680946, lat=43.087501, altitude=157.00, speed=24.80, satellites=10, angle=76.8900, fixquality=2
$GPRMC,233708.800,A,4305.2509,N,07740.8533,W,25.30,77.23,040319,,,D*73
$GPGGA,233709.000,4305.2512,N,07740.8515,W,2,11,0.91,157.0,M,-34.4,M,0000,0000*5F
lng=-77.680892, lat=43.087516, altitude=157.00, speed=25.30, satellites=10, angle=77.2300, fixquality=2
$GPRMC,233709.200,A,4305.2516,N,07740.8496,W,25.63,77.77,040319,,,D*7F
$GPGGA,233709.400,4305.2519,N,07740.8477,W,2,11,0.91,157.0,M,-34.4,M,0000,0000*55
lng=-77.680824, lat=43.087524, altitude=157.00, speed=25.63, satellites=11, angle=77.7700, fixquality=2
$GPRMC,233709.600,A,4305.2523,N,07740.8457,W,25.87,78.69,040319,,,D*7A
$GPGGA,233709.800,4305.2526,N,07740.8438,W,2,11,0.91,156.8,M,-34.4,M,0000,0000*57
lng=-77.680763, lat=43.087539, altitude=157.00, speed=25.87, satellites=11, angle=78.6900, fixquality=2
$GPRMC,233710.000,A,4305.2529,N,07740.8419,W,25.76,79.59,040319,,,D*78
$GPGGA,233710.200,4305.2532,N,07740.8399,W,2,11,0.91,156.8,M,-34.4,M,0000,0000*5C
lng=-77.680694, lat=43.087547, altitude=156.80, speed=25.76, satellites=11, angle=79.5900, fixquality=2
$GPRMC,233710.400,A,4305.2535,N,07740.8380,W,25.25,80.47,040319,,,D*79
$GPGGA,233710.600,4305.2537,N,07740.8361,W,2,11,0.91,156.7,M,-34.4,M,0000,0000*55
lng=-77.680633, lat=43.087558, altitude=156.80, speed=25.25, satellites=11, angle=80.4700, fixquality=2
$GPRMC,233710.800,A,4305.2540,N,07740.8343,W,24.95,81.51,040319,,,D*74
$GPGGA,233711.000,4305.2542,N,07740.8324,W,2,11,0.91,156.7,M,-34.4,M,0000,0000*51
lng=-77.680572, lat=43.087566, altitude=156.70, speed=24.95, satellites=11, angle=81.5100, fixquality=2
$GPRMC,233711.200,A,4305.2544,N,07740.8306,W,24.46,82.39,040319,,,D*79
$GPGGA,233711.400,4305.2546,N,07740.8287,W,2,11,0.91,156.6,M,-34.4,M,0000,0000*58
lng=-77.680511, lat=43.087574, altitude=156.70, speed=24.46, satellites=11, angle=82.3900, fixquality=2
$GPRMC,233711.600,A,4305.2548,N,07740.8269,W,24.05,82.93,040319,,,D*7E
$GPGGA,233711.800,4305.2550,N,07740.8251,W,2,11,0.91,156.6,M,-34.4,M,0000,0000*58
lng=-77.680442, lat=43.087581, altitude=156.60, speed=24.05, satellites=11, angle=82.9300, fixquality=2
$GPRMC,233712.000,A,4305.2552,N,07740.8233,W,23.68,83.29,040319,,,D*73
$GPGGA,233712.200,4305.2554,N,07740.8216,W,2,11,0.91,156.5,M,-34.4,M,0000,0000*55
lng=-77.680389, lat=43.087589, altitude=156.60, speed=23.68, satellites=11, angle=83.2900, fixquality=2
$GPRMC,233712.400,A,4305.2556,N,07740.8198,W,23.28,83.93,040319,,,D*74
$GPGGA,233712.600,4305.2557,N,07740.8180,W,2,11,0.91,156.4,M,-34.4,M,0000,0000*5F
lng=-77.680328, lat=43.087589, altitude=156.50, speed=23.28, satellites=11, angle=83.9300, fixquality=2
$GPRMC,233712.800,A,4305.2559,N,07740.8163,W,22.91,85.08,040319,,,D*74
$GPGGA,233713.000,4305.2560,N,07740.8146,W,2,11,0.91,156.4,M,-34.4,M,0000,0000*56
lng=-77.680274, lat=43.087596, altitude=156.40, speed=22.91, satellites=11, angle=85.0800, fixquality=2
$GPRMC,233713.200,A,4305.2561,N,07740.8129,W,22.60,85.87,040319,,,D*73
$GPGGA,233713.400,4305.2562,N,07740.8112,W,2,11,0.91,156.3,M,-34.4,M,0000,0000*56
lng=-77.680213, lat=43.087596, altitude=156.40, speed=22.60, satellites=11, angle=85.8700, fixquality=2
$GPRMC,233713.600,A,4305.2563,N,07740.8096,W,22.23,86.62,040319,,,D*7F
$GPGGA,233713.800,4305.2564,N,07740.8079,W,2,11,0.91,156.3,M,-34.4,M,0000,0000*50
lng=-77.680160, lat=43.087604, altitude=156.30, speed=22.23, satellites=11, angle=86.6200, fixquality=2
$GPRMC,233714.000,A,4305.2564,N,07740.8063,W,21.84,87.55,040319,,,D*78
$GPGGA,233714.200,4305.2565,N,07740.8047,W,2,11,0.91,156.3,M,-34.4,M,0000,0000*51
lng=-77.680099, lat=43.087604, altitude=156.30, speed=21.84, satellites=11, angle=87.5500, fixquality=2
$GPRMC,233714.400,A,4305.2566,N,07740.8031,W,21.45,87.69,040319,,,D*7B
$GPGGA,233714.600,4305.2566,N,07740.8015,W,2,11,0.91,156.2,M,-34.4,M,0000,0000*50
lng=-77.680053, lat=43.087612, altitude=156.30, speed=21.45, satellites=11, angle=87.6900, fixquality=2
$GPRMC,233714.800,A,4305.2567,N,07740.8000,W,19.79,87.21,040319,,,D*7C
$GPGGA,233715.000,4305.2568,N,07740.7986,W,2,11,0.91,156.2,M,-34.4,M,0000,0000*55
lng=-77.680000, lat=43.087612, altitude=156.20, speed=19.79, satellites=11, angle=87.2100, fixquality=2
$GPRMC,233715.200,A,4305.2568,N,07740.7972,W,17.97,86.52,040319,,,D*70
$GPGGA,233715.400,4305.2569,N,07740.7959,W,2,11,0.91,156.1,M,-34.4,M,0000,0000*51
lng=-77.679954, lat=43.087612, altitude=156.20, speed=17.97, satellites=11, angle=86.5200, fixquality=2
$GPRMC,233715.600,A,4305.2570,N,07740.7947,W,16.89,86.45,040319,,,D*73
$GPGGA,233715.800,4305.2572,N,07740.7935,W,2,11,0.91,156.1,M,-34.4,M,0000,0000*5D
lng=-77.679916, lat=43.087612, altitude=156.10, speed=16.89, satellites=11, angle=86.4500, fixquality=2
$GPRMC,233716.000,A,4305.2573,N,07740.7924,W,16.59,85.53,040319,,,D*79
$GPGGA,233716.200,4305.2574,N,07740.7912,W,2,11,0.91,156.0,M,-34.4,M,0000,0000*56
lng=-77.679878, lat=43.087623, altitude=156.10, speed=16.59, satellites=11, angle=85.5300, fixquality=2
$GPRMC,233716.400,A,4305.2576,N,07740.7900,W,16.59,85.84,040319,,,D*74
$GPGGA,233716.600,4305.2578,N,07740.7888,W,2,11,0.91,156.0,M,-34.4,M,0000,0000*5C
lng=-77.679832, lat=43.087631, altitude=156.00, speed=16.59, satellites=11, angle=85.8400, fixquality=2
$GPRMC,233716.800,A,4305.2579,N,07740.7876,W,16.67,86.47,040319,,,D*76
$GPGGA,233717.000,4305.2580,N,07740.7864,W,2,11,0.91,156.0,M,-34.4,M,0000,0000*5E
lng=-77.679794, lat=43.087631, altitude=156.00, speed=16.67, satellites=11, angle=86.4700, fixquality=2
$GPRMC,233717.200,A,4305.2581,N,07740.7852,W,16.75,86.80,040319,,,D*74
$GPGGA,233717.400,4305.2583,N,07740.7840,W,2,11,0.91,156.0,M,-34.4,M,0000,0000*5F
lng=-77.679756, lat=43.087638, altitude=156.00, speed=16.75, satellites=11, angle=86.8000, fixquality=2
$GPRMC,233717.600,A,4305.2584,N,07740.7828,W,16.82,87.00,040319,,,D*79
$GPGGA,233717.800,4305.2585,N,07740.7815,W,2,11,0.91,155.9,M,-34.4,M,0000,0000*5F
lng=-77.679710, lat=43.087638, altitude=156.00, speed=16.82, satellites=11, angle=87.0000, fixquality=2
$GPRMC,233718.000,A,4305.2586,N,07740.7803,W,16.85,87.53,040319,,,D*7A
$GPGGA,233718.200,4305.2586,N,07740.7791,W,2,11,0.91,155.9,M,-34.4,M,0000,0000*5A
lng=-77.679672, lat=43.087646, altitude=155.90, speed=16.85, satellites=11, angle=87.5300, fixquality=2
$GPRMC,233718.400,A,4305.2586,N,07740.7779,W,16.87,88.01,040319,,,D*76
$GPGGA,233718.600,4305.2587,N,07740.7767,W,2,11,0.91,155.9,M,-34.4,M,0000,0000*56
lng=-77.679634, lat=43.087646, altitude=155.90, speed=16.87, satellites=11, angle=88.0100, fixquality=2
$GPRMC,233718.800,A,4305.2588,N,07740.7754,W,16.65,88.47,040319,,,D*75
$GPGGA,233719.000,4305.2588,N,07740.7742,W,2,11,0.91,155.9,M,-34.4,M,0000,0000*59
lng=-77.679588, lat=43.087646, altitude=155.90, speed=16.65, satellites=11, angle=88.4700, fixquality=2
$GPRMC,233719.200,A,4305.2589,N,07740.7730,W,16.40,88.56,040319,,,D*7A
$GPGGA,233719.400,4305.2589,N,07740.7718,W,2,11,0.91,155.9,M,-34.4,M,0000,0000*53
lng=-77.679550, lat=43.087646, altitude=155.90, speed=16.40, satellites=11, angle=88.5600, fixquality=2
$GPRMC,233719.600,A,4305.2589,N,07740.7706,W,16.03,88.54,040319,,,D*7E
$GPGGA,233719.800,4305.2590,N,07740.7694,W,2,11,0.91,155.9,M,-34.4,M,0000,0000*52
lng=-77.679512, lat=43.087646, altitude=155.90, speed=16.03, satellites=11, angle=88.5400, fixquality=2
$GPRMC,233720.000,A,4305.2590,N,07740.7683,W,15.72,87.73,040319,,,D*79
$GPGGA,233720.200,4305.2590,N,07740.7671,W,2,11,0.91,155.8,M,-34.4,M,0000,0000*58
lng=-77.679466, lat=43.087646, altitude=155.90, speed=15.72, satellites=11, angle=87.7300, fixquality=2
$GPRMC,233720.400,A,4305.2591,N,07740.7659,W,15.37,85.34,040319,,,D*7B
$GPGGA,233720.600,4305.2592,N,07740.7648,W,2,10,1.00,155.8,M,-34.4,M,0000,0000*5C
lng=-77.679435, lat=43.087654, altitude=155.80, speed=15.37, satellites=11, angle=85.3400, fixquality=2
$GPRMC,233720.800,A,4305.2594,N,07740.7637,W,14.88,77.85,040319,,,D*78
$GPGGA,233721.000,4305.2595,N,07740.7626,W,2,10,1.00,155.8,M,-34.4,M,0000,0000*54
lng=-77.679397, lat=43.087654, altitude=155.80, speed=14.88, satellites=10, angle=77.8500, fixquality=2
$GPRMC,233721.200,A,4305.2597,N,07740.7615,W,14.41,71.22,040319,,,D*7E
$GPGGA,233721.400,4305.2600,N,07740.7605,W,2,11,0.91,155.7,M,-34.4,M,0000,0000*59
lng=-77.679359, lat=43.087661, altitude=155.80, speed=14.41, satellites=10, angle=71.2200, fixquality=2
$GPRMC,233721.600,A,4305.2603,N,07740.7595,W,14.01,64.99,040319,,,D*7F
$GPGGA,233721.800,4305.2607,N,07740.7586,W,2,11,0.91,155.6,M,-34.4,M,0000,0000*5B
lng=-77.679321, lat=43.087669, altitude=155.70, speed=14.01, satellites=11, angle=64.9900, fixquality=2
$GPRMC,233722.000,A,4305.2609,N,07740.7576,W,14.02,57.39,040319,,,D*74
$GPGGA,233722.200,4305.2611,N,07740.7568,W,2,11,0.91,155.6,M,-34.4,M,0000,0000*55
lng=-77.679298, lat=43.087680, altitude=155.60, speed=14.02, satellites=11, angle=57.3900, fixquality=2
$GPRMC,233722.400,A,4305.2615,N,07740.7560,W,13.98,50.63,040319,,,D*76
$GPGGA,233722.600,4305.2620,N,07740.7551,W,2,11,0.91,155.5,M,-34.4,M,0000,0000*5A
lng=-77.679267, lat=43.087696, altitude=155.60, speed=13.98, satellites=11, angle=50.6300, fixquality=2
$GPRMC,233722.800,A,4305.2625,N,07740.7543,W,14.17,45.35,040319,,,D*7F
$GPGGA,233723.000,4305.2631,N,07740.7535,W,2,11,0.91,155.4,M,-34.4,M,0000,0000*5E
lng=-77.679237, lat=43.087711, altitude=155.50, speed=14.17, satellites=11, angle=45.3500, fixquality=2
$GPRMC,233723.200,A,4305.2637,N,07740.7528,W,14.20,42.72,040319,,,D*7A
$GPGGA,233723.400,4305.2643,N,07740.7521,W,2,11,0.91,155.3,M,-34.4,M,0000,0000*5D
lng=-77.679214, lat=43.087726, altitude=155.40, speed=14.20, satellites=11, angle=42.7200, fixquality=2
$GPRMC,233723.600,A,4305.2650,N,07740.7514,W,14.22,39.96,040319,,,D*74
$GPGGA,233723.800,4305.2656,N,07740.7508,W,2,11,0.91,155.3,M,-34.4,M,0000,0000*5E
lng=-77.679191, lat=43.087753, altitude=155.30, speed=14.22, satellites=11, angle=39.9600, fixquality=2
$GPRMC,233724.000,A,4305.2663,N,07740.7503,W,14.51,31.30,040319,,,D*73
$GPGGA,233724.200,4305.2669,N,07740.7498,W,2,10,1.02,155.2,M,-34.4,M,0000,0000*5C
lng=-77.679176, lat=43.087768, altitude=155.30, speed=14.51, satellites=11, angle=31.3000, fixquality=2
$GPRMC,233724.400,A,4305.2676,N,07740.7493,W,14.72,24.31,040319,,,D*7F
$GPGGA,233724.600,4305.2683,N,07740.7490,W,2,10,1.02,155.1,M,-34.4,M,0000,0000*57
lng=-77.679161, lat=43.087791, altitude=155.20, speed=14.72, satellites=10, angle=24.3100, fixquality=2
$GPRMC,233724.800,A,4305.2690,N,07740.7486,W,14.86,17.28,040319,,,D*7C
$GPGGA,233725.000,4305.2698,N,07740.7483,W,2,10,1.06,155.1,M,-34.4,M,0000,0000*5C
lng=-77.679145, lat=43.087818, altitude=155.10, speed=14.86, satellites=10, angle=17.2800, fixquality=2
$GPRMC,233725.200,A,4305.2705,N,07740.7482,W,15.34,9.64,040319,,,D*41
$GPGGA,233725.400,4305.2713,N,07740.7481,W,2,10,1.06,155.1,M,-34.4,M,0000,0000*58
lng=-77.679130, lat=43.087841, altitude=155.10, speed=15.34, satellites=10, angle=9.6400, fixquality=2
$GPRMC,233725.600,A,4305.2721,N,07740.7480,W,15.56,5.13,040319,,,D*49
$GPGGA,233725.800,4305.2730,N,07740.7480,W,2,10,1.06,155.1,M,-34.4,M,0000,0000*54
lng=-77.679130, lat=43.087867, altitude=155.10, speed=15.56, satellites=10, angle=5.1300, fixquality=2
$GPRMC,233726.000,A,4305.2738,N,07740.7480,W,15.95,0.68,040319,,,D*42
$GPGGA,233726.200,4305.2747,N,07740.7480,W,2,10,1.06,155.1,M,-34.4,M,0000,0000*5D
lng=-77.679130, lat=43.087898, altitude=155.10, speed=15.95, satellites=10, angle=0.6800, fixquality=2
$GPRMC,233726.400,A,4305.2756,N,07740.7480,W,15.83,358.61,040319,,,D*4E
$GPGGA,233726.600,4305.2764,N,07740.7480,W,2,10,1.06,155.1,M,-34.4,M,0000,0000*58
lng=-77.679130, lat=43.087924, altitude=155.10, speed=15.83, satellites=10, angle=358.6100, fixquality=2
$GPRMC,233726.800,A,4305.2773,N,07740.7480,W,16.09,359.41,040319,,,D*47
$GPGGA,233727.000,4305.2782,N,07740.7480,W,2,10,1.06,155.0,M,-34.4,M,0000,0000*56
lng=-77.679130, lat=43.087955, altitude=155.10, speed=16.09, satellites=10, angle=359.4100, fixquality=2
$GPRMC,233727.200,A,4305.2791,N,07740.7480,W,16.55,0.44,040319,,,D*43
$GPGGA,233727.400,4305.2800,N,07740.7480,W,2,11,0.91,155.0,M,-34.4,M,0000,0000*59
lng=-77.679130, lat=43.087989, altitude=155.00, speed=16.55, satellites=10, angle=0.4400, fixquality=2
