Vers 57
USE_SERIAL_FEEDBACK=false
DEVELOPMENT_MODE=false
USE_RMC_ONLY=false

$GPGGA,182823.200,4308.4681,N,07726.4208,W,1,08,1.16,153.6,M,-34.4,M,,*51
$GPRMC,182823.200,A,4308.4681,N,07726.4208,W,24.17,277.07,270319,,,A*49
lng=-77.440345, lat=43.141136, altitude=153.60, speed=26.17, satellites=8, angle=277.7900, fixquality=1
$GPGGA,182823.400,4308.4683,N,07726.4225,W,1,08,1.16,153.6,M,-34.4,M,,*5A
$GPRMC,182823.400,A,4308.4683,N,07726.4225,W,23.24,276.63,270319,,,A*46
lng=-77.440376, lat=43.141136, altitude=153.60, speed=24.17, satellites=8, angle=277.0700, fixquality=1
$GPGGA,182823.600,4308.4684,N,07726.4241,W,1,08,1.16,153.6,M,-34.4,M,,*5D
$GPRMC,182823.600,A,4308.4684,N,07726.4241,W,22.43,274.97,270319,,,A*48
lng=-77.440406, lat=43.141136, altitude=153.60, speed=23.24, satellites=8, angle=276.6300, fixquality=1
$GPGGA,182823.800,4308.4684,N,07726.4256,W,1,08,1.16,153.6,M,-34.4,M,,*55
$GPRMC,182823.800,A,4308.4684,N,07726.4256,W,21.96,274.98,270319,,,A*44
lng=-77.440429, lat=43.141136, altitude=153.60, speed=22.43, satellites=8, angle=274.9700, fixquality=1
$GPGGA,182824.000,4308.4685,N,07726.4271,W,1,08,1.16,153.6,M,-34.4,M,,*5E
$GPRMC,182824.000,A,4308.4685,N,07726.4271,W,21.29,274.55,270319,,,A*4A
lng=-77.440452, lat=43.141136, altitude=153.60, speed=21.96, satellites=8, angle=274.9800, fixquality=1
$GPGGA,182824.200,4308.4687,N,07726.4283,W,1,08,1.16,153.5,M,-34.4,M,,*50
$GPRMC,182824.200,A,4308.4687,N,07726.4283,W,19.58,275.75,270319,,,A*49
lng=-77.440467, lat=43.141147, altitude=153.50, speed=21.29, satellites=8, angle=274.5500, fixquality=1
$GPGGA,182824.400,4308.4688,N,07726.4295,W,1,08,1.16,153.5,M,-34.4,M,,*5E
$GPRMC,182824.400,A,4308.4688,N,07726.4295,W,18.24,276.23,270319,,,A*4D
lng=-77.440498, lat=43.141147, altitude=153.50, speed=19.58, satellites=8, angle=275.7500, fixquality=1
$GPGGA,182824.600,4308.4689,N,07726.4307,W,1,08,1.16,153.5,M,-34.4,M,,*57
$GPRMC,182824.600,A,4308.4689,N,07726.4307,W,17.44,276.28,270319,,,A*46
lng=-77.440513, lat=43.141147, altitude=153.50, speed=18.24, satellites=8, angle=276.2300, fixquality=1
$GPGGA,182824.800,4308.4690,N,07726.4319,W,1,08,1.16,153.5,M,-34.4,M,,*5E
$GPRMC,182824.800,A,4308.4690,N,07726.4319,W,16.87,276.23,270319,,,A*4A
lng=-77.440536, lat=43.141155, altitude=153.50, speed=17.44, satellites=8, angle=276.2800, fixquality=1
$GPGGA,182825.000,4308.4691,N,07726.4330,W,1,08,1.16,153.5,M,-34.4,M,,*5D
$GPRMC,182825.000,A,4308.4691,N,07726.4330,W,16.06,276.04,270319,,,A*45
lng=-77.440551, lat=43.141155, altitude=153.50, speed=16.87, satellites=8, angle=276.2300, fixquality=1
$GPGGA,182825.200,4308.4691,N,07726.4341,W,1,08,1.16,153.5,M,-34.4,M,,*59
$GPRMC,182825.200,A,4308.4691,N,07726.4341,W,15.19,275.57,270319,,,A*49
lng=-77.440567, lat=43.141155, altitude=153.50, speed=16.06, satellites=8, angle=276.0400, fixquality=1
$GPGGA,182825.400,4308.4691,N,07726.4351,W,1,08,1.16,153.5,M,-34.4,M,,*5E
$GPRMC,182825.400,A,4308.4691,N,07726.4351,W,14.05,275.18,270319,,,A*49
lng=-77.440582, lat=43.141155, altitude=153.50, speed=15.19, satellites=8, angle=275.5700, fixquality=1
$GPGGA,182825.600,4308.4692,N,07726.4359,W,1,08,1.16,153.4,M,-34.4,M,,*56
$GPRMC,182825.600,A,4308.4692,N,07726.4359,W,13.08,275.75,270319,,,A*41
lng=-77.440597, lat=43.141155, altitude=153.40, speed=14.05, satellites=8, angle=275.1800, fixquality=1
$GPGGA,182825.800,4308.4693,N,07726.4367,W,1,08,1.16,153.4,M,-34.4,M,,*54
$GPRMC,182825.800,A,4308.4693,N,07726.4367,W,12.52,276.57,270319,,,A*4E
lng=-77.440605, lat=43.141155, altitude=153.40, speed=13.08, satellites=8, angle=275.7500, fixquality=1
$GPGGA,182826.000,4308.4693,N,07726.4375,W,1,09,1.00,153.4,M,-34.4,M,,*5A
$GPRMC,182826.000,A,4308.4693,N,07726.4375,W,11.63,277.14,270311
lng=-77.440628, lat=43.141155, altitude=153.40, speed=12.52, satellites=9, angle=276.5700, fixquality=1
$GPGGA,182826.200,4308.4694,N,07726.4382,W,1,09,1.00,153.4,M,-34.4,M,,*57
$GPRMC,182826.200,A,4308.4694,N,07726.4382,W,10.84,277.24,270319,,,A*47
lng=-77.440635, lat=43.141155, altitude=153.40, speed=11.63, satellites=9, angle=277.1400, fixquality=1
$GPGGA,182826.400,4308.4695,N,07726.4388,W,1,09,1.00,153.4,M,-34.4,M,,*5A
$GPRMC,182826.400,A,4308.4695,N,07726.4388,W,9.80,276.61,27031976
lng=-77.440650, lat=43.141162, altitude=153.40, speed=10.84, satellites=9, angle=277.2400, fixquality=1
$GPGGA,182826.600,4308.4695,N,07726.4393,W,1,09,1.00,153.4,M,-34.4,M,,*52
$GPRMC,182826.600,A,4308.4695,N,07726.4393,W,8.58,276.02,270319,,,A*7F
lng=-77.440658, lat=43.141162, altitude=153.40, speed=9.80, satellites=9, angle=276.6100, fixquality=1
$GPGGA,182826.800,4308.4696,N,07726.4398,W,1,09,1.00,153.4,M,-34.4,M,,*54
$GPRMC,182826.800,A,4308.4696,N,07726.4398,W,7.88,277.22,270319*78
lng=-77.440666, lat=43.141162, altitude=153.40, speed=8.58, satellites=9, angle=276.0200, fixquality=1
$GPGGA,182827.000,4308.4696,N,07726.4402,W,1,09,1.00,153.4,M,-34.4,M,,*59
$GPRMC,182827.000,A,4308.4696,N,07726.4402,W,6.87,276.87,270319,,,A*75
lng=-77.440673, lat=43.141162, altitude=153.40, speed=8.58, satellites=9, angle=276.0200, fixquality=1
$GPGGA,182827.200,4308.4697,N,07726.4405,W,1,09,1.00,153.4,M,-34.4,M,,*5D
$GPRMC,182827.200,A,4308.4697,N,07726.4405,W,5.84,275.59,2703191
lng=-77.440673, lat=43.141162, altitude=153.40, speed=6.87, satellites=9, angle=276.8700, fixquality=1
$GPGGA,182827.400,4308.4697,N,07726.4406,W,1,09,1.00,153.5,M,-34.4,M,,*59
$GPRMC,182827.400,A,4308.4697,N,07726.4406,W,4.49,275.70,270319,,,A*7F
lng=-77.440673, lat=43.141162, altitude=153.50, speed=5.84, satellites=9, angle=275.5900, fixquality=1
$GPGGA,182827.600,4308.4698,N,07726.4407,W,1,09,1.00,153.4,M,-34.4,M,,*54
$GPRMC,182827.600,A,4308.4698,N,07726.4407,W,3.48,278.28,270319,,,A*75
lng=-77.440681, lat=43.141162, altitude=153.40, speed=4.49, satellites=9, angle=275.7000, fixquality=1
$GPGGA,182827.800,4308.4698,N,07726.4409,W,1,09,1.00,153.4,M,-34.4,M,,*54
$GPRMC,182827.800,A,4308.4698,N,07726.4409,W,3.15,280.85,270319,,,A*7D
lng=-77.440681, lat=43.141162, altitude=153.40, speed=3.48, satellites=9, angle=278.2800, fixquality=1
$GPGGA,182828.000,4308.4699,N,07726.4410,W,1,09,1.00,153.4,M,-34.4,M,,*5A
$GPRMC,182828.000,A,4308.4699,N,07726.4410,W,2.67,282.54,270319,,,A*79
lng=-77.440681, lat=43.141162, altitude=153.40, speed=3.15, satellites=9, angle=280.8500, fixquality=1
$GPGGA,182828.200,4308.4699,N,07726.4411,W,1,09,1.00,153.4,M,-34.4,M,,*59
$GPRMC,182828.200,A,4308.4699,N,07726.4411,W,2.11,281.55,270319,,,A*79
lng=-77.440681, lat=43.141162, altitude=153.40, speed=2.67, satellites=9, angle=282.5400, fixquality=1
$GPGGA,182828.400,4308.4698,N,07726.4411,W,1,09,1.00,153.4,M,-34.4,M,,*5E
$GPRMC,182828.400,A,4308.4698,N,07726.4411,W,1.33,272.63,270319,,,A*74
lng=-77.440681, lat=43.141162, altitude=153.40, speed=2.11, satellites=9, angle=281.5500, fixquality=1
$GPGGA,182828.600,4308.4698,N,07726.4410,W,1,09,1.00,153.4,M,-34.4,M,,*5D
$GPRMC,182828.600,A,4308.4698,N,07726.4410,W,1.05,272.23,270319,,,A*76
lng=-77.440681, lat=43.141162, altitude=153.40, speed=1.33, satellites=9, angle=272.6300, fixquality=1
$GPGGA,182828.800,4308.4698,N,07726.4410,W,1,09,1.00,153.4,M,-34.4,M,,*53
$GPRMC,182828.800,A,4308.4698,N,07726.4410,W,0.96,272.82,270319,,,A*78
lng=-77.440681, lat=43.141162, altitude=153.40, speed=1.05, satellites=9, angle=272.2300, fixquality=1
$GPGGA,182829.000,4308.4698,N,07726.4410,W,1,09,1.00,153.4,M,-34.4,M,,*5A
$GPRMC,182829.000,A,4308.4698,N,07726.4410,W,0.76,272.77,270319,,,A*75
lng=-77.440681, lat=43.141162, altitude=153.40, speed=0.96, satellites=9, angle=272.8200, fixquality=1
$GPGGA,182829.200,4308.4698,N,07726.4409,W,1,09,1.00,153.4,M,-34.4,M,,*50
$GPRMC,182829.200,A,4308.4698,N,07726.4409,W,0.63,271.35,270319,,,A*7E
lng=-77.440681, lat=43.141162, altitude=153.40, speed=0.76, satellites=9, angle=272.7700, fixquality=1
$GPGGA,182829.400,4308.4699,N,07726.4409,W,1,09,1.00,153.4,M,-34.4,M,,*57
$GPRMC,182829.400,A,4308.4699,N,07726.4409,W,0.49,270.82,270319,,,A*7C
lng=-77.440681, lat=43.141162, altitude=153.40, speed=0.63, satellites=9, angle=271.3500, fixquality=1
$GPGGA,182829.600,4308.4699,N,07726.4408,W,1,09,1.00,153.5,M,-34.4,M,,*55
$GPRMC,182829.600,A,4308.4699,N,07726.4408,W,0.38,274.47,270319,,,A*74
lng=-77.440681, lat=43.141162, altitude=153.50, speed=0.49, satellites=9, angle=270.8200, fixquality=1
$GPGGA,182829.800,4308.4699,N,07726.4407,W,1,09,1.00,153.5,M,-34.4,M,,*54
$GPRMC,182829.800,A,4308.4699,N,07726.4407,W,0.24,264.46,270319,,,A*78
lng=-77.440681, lat=43.141162, altitude=153.50, speed=0.38, satellites=9, angle=274.4700, fixquality=1
$GPGGA,182830.000,4308.4699,N,07726.4407,W,1,09,1.00,153.5,M,-34.4,M,,*54
$GPRMC,182830.000,A,4308.4699,N,07726.4407,W,0.12,242.67,270319,,,A*7A
lng=-77.440681, lat=43.141162, altitude=153.50, speed=0.24, satellites=9, angle=264.4600, fixquality=1
$GPGGA,182830.200,4308.4699,N,07726.4406,W,1,09,1.00,153.5,M,-34.4,M,,*57
$GPRMC,182830.200,A,4308.4699,N,07726.4406,W,0.04,226.36,270319,,,A*78
lng=-77.440673, lat=43.141162, altitude=153.50, speed=0.12, satellites=9, angle=242.6700, fixquality=1
$GPGGA,182830.400,4308.4699,N,07726.4406,W,1,09,1.00,153.5,M,-34.4,M,,*51
$GPRMC,182830.400,A,4308.4699,N,07726.4406,W,0.06,235.19,270319,,,A*73
lng=-77.440673, lat=43.141162, altitude=153.50, speed=0.04, satellites=9, angle=226.3600, fixquality=1
$GPGGA,182830.600,4308.4699,N,07726.4405,W,1,09,1.00,153.5,M,-34.4,M,,*50
$GPRMC,182830.600,A,4308.4699,N,07726.4405,W,0.03,199.92,270319,,,A*71
lng=-77.440673, lat=43.141162, altitude=153.50, speed=0.06, satellites=9, angle=235.1900, fixquality=1
$GPGGA,182830.800,4308.4699,N,07726.4405,W,1,09,1.00,153.5,M,-34.4,M,,*5E
$GPRMC,182830.800,A,4308.4699,N,07726.4405,W,0.03,178.08,270319,,,A*73
lng=-77.440673, lat=43.141162, altitude=153.50, speed=0.03, satellites=9, angle=199.9200, fixquality=1
$GPGGA,182831.000,4308.4699,N,07726.4405,W,1,09,1.00,153.5,M,-34.4,M,,*57
$GPRMC,182831.000,A,4308.4699,N,07726.4405,W,0.03,96.55,270319,,,A*43
lng=-77.440673, lat=43.141162, altitude=153.50, speed=0.03, satellites=9, angle=178.0800, fixquality=1
$GPGGA,182831.200,4308.4698,N,07726.4405,W,1,09,1.00,153.5,M,-34.4,M,,*54
$GPRMC,182831.200,A,4308.4698,N,07726.4405,W,0.03,181.77,270319,,,A*77
lng=-77.440673, lat=43.141162, altitude=153.50, speed=0.03, satellites=9, angle=96.5500, fixquality=1
$GPGGA,182831.400,4308.4698,N,07726.4404,W,1,09,1.00,153.6,M,-34.4,M,,*50
$GPRMC,182831.400,A,4308.4698,N,07726.4404,W,0.01,191.08,270319,,,A*7B
lng=-77.440673, lat=43.141162, altitude=153.60, speed=0.03, satellites=9, angle=181.7700, fixquality=1
$GPGGA,182831.600,4308.4698,N,07726.4404,W,1,09,1.00,153.6,M,-34.4,M,,*52
$GPRMC,182831.600,A,4308.4698,N,07726.4404,W,0.01,357.76,270319,,,A*78
lng=-77.440673, lat=43.141162, altitude=153.60, speed=0.01, satellites=9, angle=191.0800, fixquality=1
$GPGGA,182831.800,4308.4698,N,07726.4404,W,1,09,1.14,153.5,M,-34.4,M,,*5A
$GPRMC,182831.800,A,4308.4698,N,07726.4404,W,0.01,108.05,270319,,,A*7A
lng=-77.440673, lat=43.141162, altitude=153.50, speed=0.01, satellites=9, angle=357.7600, fixquality=1
$GPGGA,182832.000,4308.4698,N,07726.4404,W,1,09,1.00,153.6,M,-34.4,M,,*57
$GPRMC,182832.000,A,4308.4698,N,07726.4404,W,0.03,203.48,270319,,,A*72
lng=-77.440673, lat=43.141162, altitude=153.60, speed=0.01, satellites=9, angle=108.0500, fixquality=1
$GPGGA,182832.200,4308.4698,N,07726.4404,W,1,09,1.00,153.6,M,-34.4,M,,*55
$GPRMC,182832.200,A,4308.4698,N,07726.4404,W,0.02,69.01,270319
lng=-77.440673, lat=43.141162, altitude=153.60, speed=0.03, satellites=9, angle=203.4800, fixquality=1
$GPGGA,182832.400,4308.4698,N,07726.4403,W,1,09,1.00,153.6,M,-34.4,M,,*54
$GPRMC,182832.400,A,4308.4698,N,07726.4403,W,0.03,269.17,270319,,,A*77
lng=-77.440673, lat=43.141162, altitude=153.60, speed=0.02, satellites=9, angle=69.0100, fixquality=1
$GPGGA,182832.600,4308.4698,N,07726.4403,W,1,09,1.00,153.6,M,-34.4,M,,*56
$GPRMC,182832.600,A,4308.4698,N,07726.4403,W,0.02,120.77,270319C
lng=-77.440673, lat=43.141162, altitude=153.60, speed=0.03, satellites=9, angle=269.1700, fixquality=1
$GPGGA,182832.800,4308.4698,N,07726.4403,W,1,09,1.00,153.6,M,-34.4,M,,*58
$GPRMC,182832.800,A,4308.4698,N,07726.4403,W,0.04,78.16,270319,,,A*4F
lng=-77.440673, lat=43.141162, altitude=153.60, speed=0.02, satellites=9, angle=120.7700, fixquality=1
$GPGGA,182833.000,4308.4698,N,07726.4403,W,1,09,1.00,153.6,M,-34.4,M,,*51
$GPRMC,182833.000,A,4308.4698,N,07726.4403,W,0.03,216.79,2703192
lng=-77.440673, lat=43.141162, altitude=153.60, speed=0.04, satellites=9, angle=78.1600, fixquality=1
$GPGGA,182833.200,4308.4698,N,07726.4403,W,1,09,1.00,153.6,M,-34.4,M,,*53
$GPRMC,182833.200,A,4308.4698,N,07726.4403,W,0.02,109.62,270319,,,A*76
lng=-77.440673, lat=43.141162, altitude=153.60, speed=0.03, satellites=9, angle=216.7900, fixquality=1
$GPGGA,182833.400,4308.4698,N,07726.4403,W,1,09,1.00,153.6,M,-34.4,M,,*55
$GPRMC,182833.400,A,4308.4698,N,07726.4403,W,0.04,246.72,270319,,,A*7F
lng=-77.440673, lat=43.141162, altitude=153.60, speed=0.02, satellites=9, angle=109.6200, fixquality=1
$GPGGA,182833.600,4308.4698,N,07726.4403,W,1,09,1.00,153.6,M,-34.4,M,,*57
$GPRMC,182833.600,A,4308.4698,N,07726.4403,W,0.02,61.90,270319,,,A*40
lng=-77.440673, lat=43.141162, altitude=153.60, speed=0.04, satellites=9, angle=246.7200, fixquality=1
$GPGGA,182833.800,4308.4698,N,07726.4403,W,1,09,1.00,153.6,M,-34.4,M,,*59
$GPRMC,182833.800,A,4308.4698,N,07726.4403,W,0.04,214.39,270319,,,A*7B
lng=-77.440673, lat=43.141162, altitude=153.60, speed=0.02, satellites=9, angle=61.9000, fixquality=1
$GPGGA,182834.000,4308.4698,N,07726.4403,W,1,09,1.00,153.6,M,-34.4,M,,*56
$GPRMC,182834.000,A,4308.4698,N,07726.4403,W,0.04,75.06,270319,,,A*4D
lng=-77.440673, lat=43.141162, altitude=153.60, speed=0.04, satellites=9, angle=214.3900, fixquality=1
$GPGGA,182834.200,4308.4698,N,07726.4403,W,1,09,1.00,153.6,M,-34.4,M,,*54
$GPRMC,182834.200,A,4308.4698,N,07726.4403,W,0.02,220.34,270319,,,A*7A
lng=-77.440673, lat=43.141162, altitude=153.60, speed=0.04, satellites=9, angle=75.0600, fixquality=1
$GPGGA,182834.400,4308.4697,N,07726.4403,W,1,09,1.00,153.6,M,-34.4,M,,*5D
$GPRMC,182834.400,A,4308.4697,N,07726.4403,W,0.06,238.01,270319,,,A*78
lng=-77.440673, lat=43.141162, altitude=153.60, speed=0.02, satellites=9, angle=220.3400, fixquality=1
$GPGGA,182834.600,4308.4697,N,07726.4403,W,1,09,1.00,153.6,M,-34.4,M,,*5F
$GPRMC,182834.600,A,4308.4697,N,07726.4403,W,0.01,143.51,270319,,,A*77
lng=-77.440673, lat=43.141162, altitude=153.60, speed=0.06, satellites=9, angle=238.0100, fixquality=1
$GPGGA,182834.800,4308.4697,N,07726.4403,W,1,09,1.00,153.6,M,-34.4,M,,*51
$GPRMC,182834.800,A,4308.4697,N,07726.4403,W,0.01,58.16,270319,,,A*41
lng=-77.440673, lat=43.141162, altitude=153.60, speed=0.01, satellites=9, angle=143.5100, fixquality=1
$GPGGA,182835.000,4308.4697,N,07726.4403,W,1,09,1.00,153.6,M,-34.4,M,,*58
$GPRMC,182835.000,A,4308.4697,N,07726.4403,W,0.02,261.08,270319,,,A*7C
lng=-77.440673, lat=43.141162, altitude=153.60, speed=0.01, satellites=9, angle=58.1600, fixquality=1
$GPGGA,182835.200,4308.4697,N,07726.4403,W,1,09,1.00,153.6,M,-34.4,M,,*5A
$GPRMC,182835.200,A,4308.4697,N,07726.4403,W,0.05,107.74,270319,,,A*71
lng=-77.440673, lat=43.141162, altitude=153.60, speed=0.02, satellites=9, angle=261.0800, fixquality=1
$GPGGA,182835.400,4308.4697,N,07726.4403,W,1,09,1.00,153.6,M,-34.4,M,,*5C
$GPRMC,182835.400,A,4308.4697,N,07726.4403,W,0.03,92.02,270319,,,A*4D
lng=-77.440673, lat=43.141162, altitude=153.60, speed=0.05, satellites=9, angle=107.7400, fixquality=1
$GPGGA,182835.600,4308.4697,N,07726.4403,W,1,09,1.00,153.6,M,-34.4,M,,*5E
$GPRMC,182835.600,A,4308.4697,N,07726.4403,W,0.00,30.08,270319,,,A*4E
lng=-77.440673, lat=43.141162, altitude=153.60, speed=0.03, satellites=9, angle=92.0200, fixquality=1
$GPGGA,182835.800,4308.4697,N,07726.4403,W,1,09,1.00,153.6,M,-34.4,M,,*50
$GPRMC,182835.800,A,4308.4697,N,07726.4403,W,0.02,155.16,270319,,,A*7F
lng=-77.440673, lat=43.141162, altitude=153.60, speed=0.00, satellites=9, angle=30.0800, fixquality=1
$GPGGA,182836.000,4308.4696,N,07726.4403,W,1,09,1.00,153.6,M,-34.4,M,,*5A
$GPRMC,182836.000,A,4308.4696,N,07726.4403,W,0.00,27.65,270319,,,A*47
lng=-77.440673, lat=43.141162, altitude=153.60, speed=0.02, satellites=9, angle=155.1600, fixquality=1
$GPGGA,182836.200,4308.4696,N,07726.4403,W,1,09,1.00,153.6,M,-34.4,M,,*58
$GPRMC,182836.200,A,4308.4696,N,07726.4403,W,0.02,89.97,270319,,,A*4E
lng=-77.440673, lat=43.141162, altitude=153.60, speed=0.00, satellites=9, angle=27.6500, fixquality=1
$GPGGA,182836.400,4308.4696,N,07726.4403,W,1,09,1.00,153.6,M,-34.4,M,,*5E
$GPRMC,182836.400,A,4308.4696,N,07726.4403,W,0.03,269.39,270319,,,A*71
lng=-77.440673, lat=43.141162, altitude=153.60, speed=0.02, satellites=9, angle=89.9700, fixquality=1
$GPGGA,182836.600,4308.4696,N,07726.4403,W,1,09,1.00,153.6,M,-34.4,M,,*5C
$GPRMC,182836.600,A,4308.4696,N,07726.4403,W,0.01,291.45,270319,,,A*7D
lng=-77.440673, lat=43.141162, altitude=153.60, speed=0.03, satellites=9, angle=269.3900, fixquality=1
$GPGGA,182836.800,4308.4696,N,07726.4403,W,1,09,1.00,153.6,M,-34.4,M,,*52
$GPRMC,182836.800,A,4308.4696,N,07726.4403,W,0.03,120.61,270319,,,A*7E
lng=-77.440673, lat=43.141162, altitude=153.60, speed=0.01, satellites=9, angle=291.4500, fixquality=1
$GPGGA,182837.000,4308.4696,N,07726.4403,W,1,09,1.00,153.6,M,-34.4,M,,*5B
$GPRMC,182837.000,A,4308.4696,N,07726.4403,W,0.02,251.94,270319,,,A*79
lng=-77.440673, lat=43.141162, altitude=153.60, speed=0.03, satellites=9, angle=120.6100, fixquality=1
$GPGGA,182837.200,4308.4696,N,07726.4403,W,1,09,1.00,153.6,M,-34.4,M,,*59
$GPRMC,182837.200,A,4308.4696,N,07726.4403,W,0.03,272.13,270319,,,A*74
lng=-77.440673, lat=43.141162, altitude=153.60, speed=0.02, satellites=9, angle=251.9400, fixquality=1
$GPGGA,182837.400,4308.4695,N,07726.4403,W,1,09,1.00,153.6,M,-34.4,M,,*5C
$GPRMC,182837.400,A,4308.4695,N,07726.4403,W,0.03,194.76,270319,,,A*79
lng=-77.440673, lat=43.141162, altitude=153.60, speed=0.03, satellites=9, angle=272.1300, fixquality=1
$GPGGA,182837.600,4308.4695,N,07726.4403,W,1,09,1.00,153.6,M,-34.4,M,,*5E
$GPRMC,182837.600,A,4308.4695,N,07726.4403,W,0.02,28.26,270319
lng=-77.440673, lat=43.141162, altitude=153.60, speed=0.03, satellites=9, angle=194.7600, fixquality=1
$GPGGA,182837.800,4308.4695,N,07726.4403,W,1,09,1.00,153.6,M,-34.4,M,,*50
$GPRMC,182837.800,A,4308.4695,N,07726.4403,W,0.01,144.71,270319,,,A*7D
lng=-77.440673, lat=43.141162, altitude=153.60, speed=0.02, satellites=9, angle=28.2600, fixquality=1
$GPGGA,182838.000,4308.4695,N,07726.4403,W,1,09,1.00,153.6,M,-34.4,M,,*57
$GPRMC,182838.000,A,4308.4695,N,07726.4403,W,0.02,284.42,2703196
lng=-77.440673, lat=43.141162, altitude=153.60, speed=0.01, satellites=9, angle=144.7100, fixquality=1
$GPGGA,182838.200,4308.4695,N,07726.4402,W,1,09,1.00,153.6,M,-34.4,M,,*54
$GPRMC,182838.200,A,4308.4695,N,07726.4402,W,0.04,101.50,270319,,,A*7E
lng=-77.440673, lat=43.141162, altitude=153.60, speed=0.02, satellites=9, angle=284.4200, fixquality=1
$GPGGA,182838.400,4308.4694,N,07726.4402,W,1,09,1.00,153.6,M,-34.4,M,,*53
$GPRMC,182838.400,A,4308.4694,N,07726.4402,W,0.01,216.72,2703199
lng=-77.440673, lat=43.141155, altitude=153.60, speed=0.04, satellites=9, angle=101.5000, fixquality=1
$GPGGA,182838.600,4308.4694,N,07726.4402,W,1,09,1.00,153.6,M,-34.4,M,,*51
$GPRMC,182838.600,A,4308.4694,N,07726.4402,W,0.03,342.55,270319,,,A*7C
lng=-77.440673, lat=43.141155, altitude=153.60, speed=0.01, satellites=9, angle=216.7200, fixquality=1
$GPGGA,182838.800,4308.4694,N,07726.4402,W,1,09,1.00,153.6,M,-34.4,M,,*5F
$GPRMC,182838.800,A,4308.4694,N,07726.4402,W,0.03,128.06,270319,,,A*7A
lng=-77.440673, lat=43.141155, altitude=153.60, speed=0.03, satellites=9, angle=342.5500, fixquality=1
$GPGGA,182839.000,4308.4694,N,07726.4402,W,1,09,1.00,153.6,M,-34.4,M,,*56
$GPRMC,182839.000,A,4308.4694,N,07726.4402,W,0.01,258.22,270319,,,A*73
lng=-77.440673, lat=43.141155, altitude=153.60, speed=0.03, satellites=9, angle=128.0600, fixquality=1
$GPGGA,182839.200,4308.4694,N,07726.4402,W,1,09,1.00,153.6,M,-34.4,M,,*54
$GPRMC,182839.200,A,4308.4694,N,07726.4402,W,0.02,170.58,270319,,,A*76
lng=-77.440673, lat=43.141155, altitude=153.60, speed=0.01, satellites=9, angle=258.2200, fixquality=1
$GPGGA,182839.400,4308.4693,N,07726.4402,W,1,09,1.00,153.6,M,-34.4,M,,*55
$GPRMC,182839.400,A,4308.4693,N,07726.4402,W,0.01,48.79,270319,,,A*4D
lng=-77.440673, lat=43.141155, altitude=153.60, speed=0.02, satellites=9, angle=170.5800, fixquality=1
$GPGGA,182839.600,4308.4693,N,07726.4402,W,1,09,1.00,153.6,M,-34.4,M,,*57
$GPRMC,182839.600,A,4308.4693,N,07726.4402,W,0.01,148.88,270319,,,A*70
lng=-77.440673, lat=43.141155, altitude=153.60, speed=0.01, satellites=9, angle=48.7900, fixquality=1
$GPGGA,182839.800,4308.4693,N,07726.4402,W,1,09,1.00,153.6,M,-34.4,M,,*59
$GPRMC,182839.800,A,4308.4693,N,07726.4402,W,0.00,337.28,270319,,,A*7F
lng=-77.440673, lat=43.141155, altitude=153.60, speed=0.01, satellites=9, angle=148.8800, fixquality=1
$GPGGA,182840.000,4308.4693,N,07726.4402,W,1,09,1.00,153.6,M,-34.4,M,,*5F
$GPRMC,182840.000,A,4308.4693,N,07726.4402,W,0.04,296.28,270319,,,A*77
lng=-77.440673, lat=43.141155, altitude=153.60, speed=0.00, satellites=9, angle=337.2800, fixquality=1
$GPGGA,182840.200,4308.4692,N,07726.4401,W,1,09,1.00,153.6,M,-34.4,M,,*5F
$GPRMC,182840.200,A,4308.4692,N,07726.4401,W,0.05,113.33,270319,,,A*72
lng=-77.440666, lat=43.141155, altitude=153.60, speed=0.04, satellites=9, angle=296.2800, fixquality=1
$GPGGA,182840.400,4308.4692,N,07726.4401,W,1,09,1.00,153.6,M,-34.4,M,,*59
$GPRMC,182840.400,A,4308.4692,N,07726.4401,W,0.03,21.35,270319,,,A*44
lng=-77.440666, lat=43.141155, altitude=153.60, speed=0.05, satellites=9, angle=113.3300, fixquality=1
$GPGGA,182840.600,4308.4692,N,07726.4401,W,1,09,1.00,153.6,M,-34.4,M,,*5B
$GPRMC,182840.600,A,4308.4692,N,07726.4401,W,0.01,66.93,270319,,,A*4B
lng=-77.440666, lat=43.141155, altitude=153.60, speed=0.03, satellites=9, angle=21.3500, fixquality=1
$GPGGA,182840.800,4308.4691,N,07726.4401,W,1,09,1.00,153.6,M,-34.4,M,,*56
$GPRMC,182840.800,A,4308.4691,N,07726.4401,W,0.01,63.28,270319,,,A*43
lng=-77.440666, lat=43.141155, altitude=153.60, speed=0.01, satellites=9, angle=66.9300, fixquality=1
$GPGGA,182841.000,4308.4691,N,07726.4401,W,1,09,1.00,153.7,M,-34.4,M,,*5E
$GPRMC,182841.000,A,4308.4691,N,07726.4401,W,0.02,211.83,270319,,,A*7F
lng=-77.440666, lat=43.141155, altitude=153.70, speed=0.01, satellites=9, angle=63.2800, fixquality=1
$GPGGA,182841.200,4308.4691,N,07726.4401,W,1,09,1.00,153.6,M,-34.4,M,,*5D
$GPRMC,182841.200,A,4308.4691,N,07726.4401,W,0.01,281.20,270319,,,A*7E
lng=-77.440666, lat=43.141155, altitude=153.60, speed=0.02, satellites=9, angle=211.8300, fixquality=1
$GPGGA,182841.400,4308.4691,N,07726.4401,W,1,09,1.00,153.7,M,-34.4,M,,*5A
$GPRMC,182841.400,A,4308.4691,N,07726.4401,W,0.02,285.63,270319,,,A*78
lng=-77.440666, lat=43.141155, altitude=153.70, speed=0.01, satellites=9, angle=281.2000, fixquality=1
$GPGGA,182841.600,4308.4690,N,07726.4401,W,1,09,1.00,153.7,M,-34.4,M,,*59
$GPRMC,182841.600,A,4308.4690,N,07726.4401,W,0.02,314.84,270319,,,A*7B
lng=-77.440666, lat=43.141155, altitude=153.70, speed=0.02, satellites=9, angle=285.6300, fixquality=1
$GPGGA,182841.800,4308.4690,N,07726.4401,W,1,09,1.00,153.7,M,-34.4,M,,*57
$GPRMC,182841.800,A,4308.4690,N,07726.4401,W,0.01,60.30,270319,,,A*49
lng=-77.440666, lat=43.141155, altitude=153.70, speed=0.02, satellites=9, angle=314.8400, fixquality=1
$GPGGA,182842.000,4308.4690,N,07726.4401,W,1,09,1.00,153.7,M,-34.4,M,,*5C
$GPRMC,182842.000,A,4308.4690,N,07726.4401,W,0.03,101.84,270319,,,A*79
lng=-77.440666, lat=43.141155, altitude=153.70, speed=0.01, satellites=9, angle=60.3000, fixquality=1
$GPGGA,182842.200,4308.4690,N,07726.4401,W,1,09,1.00,153.7,M,-34.4,M,,*5E
$GPRMC,182842.200,A,4308.4690,N,07726.4401,W,0.02,10.64,270319,,,A*45
lng=-77.440666, lat=43.141155, altitude=153.70, speed=0.03, satellites=9, angle=101.8400, fixquality=1
$GPGGA,182842.400,4308.4690,N,07726.4400,W,1,09,1.14,153.7,M,-34.4,M,,*5C
$GPRMC,182842.400,A,4308.4690,N,07726.4400,W,0.00,54.75,270319,,,A*40
lng=-77.440666, lat=43.141155, altitude=153.70, speed=0.02, satellites=9, angle=10.6400, fixquality=1
$GPGGA,182842.600,4308.4689,N,07726.4400,W,1,09,1.00,153.7,M,-34.4,M,,*53
$GPRMC,182842.600,A,4308.4689,N,07726.4400,W,0.02,268.10,270319,,,A*76
lng=-77.440666, lat=43.141147, altitude=153.70, speed=0.00, satellites=9, angle=54.7500, fixquality=1
$GPGGA,182842.800,4308.4689,N,07726.4400,W,1,09,1.00,153.7,M,-34.4,M,,*5D
$GPRMC,182842.800,A,4308.4689,N,07726.4400,W,0.02,77.26,270319,,,A*41
lng=-77.440666, lat=43.141147, altitude=153.70, speed=0.02, satellites=9, angle=268.1000, fixquality=1
$GPGGA,182843.000,4308.4689,N,07726.4400,W,1,09,1.00,153.7,M,-34.4,M,,*54
$GPRMC,182843.000,A,4308.4689,N,07726.4400,W,0.01,306.54,270319
lng=-77.440666, lat=43.141147, altitude=153.70, speed=0.02, satellites=9, angle=77.2600, fixquality=1
$GPGGA,182843.200,4308.4689,N,07726.4400,W,1,09,1.00,153.7,M,-34.4,M,,*56
$GPRMC,182843.200,A,4308.4689,N,07726.4400,W,0.02,321.29,270319,,,A*75
lng=-77.440666, lat=43.141147, altitude=153.70, speed=0.01, satellites=9, angle=306.5400, fixquality=1
$GPGGA,182843.400,4308.4689,N,07726.4400,W,1,09,1.00,153.7,M,-34.4,M,,*50
$GPRMC,182843.400,A,4308.4689,N,07726.4400,W,0.02,207.15,2703199
lng=-77.440666, lat=43.141147, altitude=153.70, speed=0.02, satellites=9, angle=321.2900, fixquality=1
$GPGGA,182843.600,4308.4688,N,07726.4400,W,1,09,1.00,153.7,M,-34.4,M,,*53
$GPRMC,182843.600,A,4308.4688,N,07726.4400,W,0.02,18.36,270319,,,A*47
lng=-77.440666, lat=43.141147, altitude=153.70, speed=0.02, satellites=9, angle=207.1500, fixquality=1
$GPGGA,182843.800,4308.4688,N,07726.4400,W,1,09,1.00,153.7,M,-34.4,M,,*5D
$GPRMC,182843.800,A,4308.4688,N,07726.4400,W,0.01,92.90,270319,
lng=-77.440666, lat=43.141147, altitude=153.70, speed=0.02, satellites=9, angle=18.3600, fixquality=1
$GPGGA,182844.000,4308.4688,N,07726.4400,W,1,09,1.00,153.7,M,-34.4,M,,*52
$GPRMC,182844.000,A,4308.4688,N,07726.4400,W,0.03,253.49,270319,,,A*72
lng=-77.440666, lat=43.141147, altitude=153.70, speed=0.01, satellites=9, angle=92.9000, fixquality=1
$GPGGA,182844.200,4308.4688,N,07726.4400,W,1,09,1.00,153.7,M,-34.4,M,,*50
$GPRMC,182844.200,A,4308.4688,N,07726.4400,W,0.03,64.34,270319,,,A*4C
lng=-77.440666, lat=43.141147, altitude=153.70, speed=0.03, satellites=9, angle=253.4900, fixquality=1
$GPGGA,182844.400,4308.4687,N,07726.4400,W,1,09,1.00,153.7,M,-34.4,M,,*59
$GPRMC,182844.400,A,4308.4687,N,07726.4400,W,0.04,128.50,270319,,,A*79
lng=-77.440666, lat=43.141147, altitude=153.70, speed=0.03, satellites=9, angle=64.3400, fixquality=1
$GPGGA,182844.600,4308.4687,N,07726.4400,W,1,09,1.00,153.7,M,-34.4,M,,*5B
$GPRMC,182844.600,A,4308.4687,N,07726.4400,W,0.03,327.48,270319,,,A*78
lng=-77.440666, lat=43.141147, altitude=153.70, speed=0.04, satellites=9, angle=128.5000, fixquality=1
$GPGGA,182844.800,4308.4687,N,07726.4400,W,1,09,1.00,153.7,M,-34.4,M,,*55
$GPRMC,182844.800,A,4308.4687,N,07726.4400,W,0.01,192.42,270319,,,A*72
lng=-77.440666, lat=43.141147, altitude=153.70, speed=0.03, satellites=9, angle=327.4800, fixquality=1
$GPGGA,182845.000,4308.4687,N,07726.4400,W,1,09,1.00,153.7,M,-34.4,M,,*5C
$GPRMC,182845.000,A,4308.4687,N,07726.4400,W,0.04,49.91,270319,,,A*47
lng=-77.440666, lat=43.141147, altitude=153.70, speed=0.01, satellites=9, angle=192.4200, fixquality=1
$GPGGA,182845.200,4308.4687,N,07726.4400,W,1,09,1.00,153.7,M,-34.4,M,,*5E
$GPRMC,182845.200,A,4308.4687,N,07726.4400,W,0.05,285.46,270319,,,A*7C
lng=-77.440666, lat=43.141147, altitude=153.70, speed=0.04, satellites=9, angle=49.9100, fixquality=1
$GPGGA,182845.400,4308.4686,N,07726.4399,W,1,09,1.00,153.7,M,-34.4,M,,*5E
$GPRMC,182845.400,A,4308.4686,N,07726.4399,W,0.04,81.15,270319,,,A*4D
lng=-77.440666, lat=43.141147, altitude=153.70, speed=0.05, satellites=9, angle=285.4600, fixquality=1
$GPGGA,182845.600,4308.4686,N,07726.4399,W,1,09,1.00,153.7,M,-34.4,M,,*5C
$GPRMC,182845.600,A,4308.4686,N,07726.4399,W,0.03,234.29,270319,,,A*7B
lng=-77.440666, lat=43.141147, altitude=153.70, speed=0.04, satellites=9, angle=81.1500, fixquality=1
$GPGGA,182845.800,4308.4686,N,07726.4399,W,1,09,1.00,153.7,M,-34.4,M,,*52
$GPRMC,182845.800,A,4308.4686,N,07726.4399,W,0.06,48.16,270319,,,A*45
lng=-77.440666, lat=43.141147, altitude=153.70, speed=0.03, satellites=9, angle=234.2900, fixquality=1
$GPGGA,182846.000,4308.4686,N,07726.4399,W,1,09,1.00,153.7,M,-34.4,M,,*59
$GPRMC,182846.000,A,4308.4686,N,07726.4399,W,0.03,252.36,270319,,,A*70
lng=-77.440666, lat=43.141147, altitude=153.70, speed=0.06, satellites=9, angle=48.1600, fixquality=1
$GPGGA,182846.200,4308.4686,N,07726.4399,W,1,09,1.00,153.7,M,-34.4,M,,*5B
$GPRMC,182846.200,A,4308.4686,N,07726.4399,W,0.02,320.09,270319,,,A*7B
lng=-77.440666, lat=43.141147, altitude=153.70, speed=0.03, satellites=9, angle=252.3600, fixquality=1
$GPGGA,182846.400,4308.4686,N,07726.4399,W,1,09,1.00,153.7,M,-34.4,M,,*5D
$GPRMC,182846.400,A,4308.4686,N,07726.4399,W,0.01,65.79,270319,,,A*4B
lng=-77.440666, lat=43.141147, altitude=153.70, speed=0.02, satellites=9, angle=320.0900, fixquality=1
$GPGGA,182846.600,4308.4686,N,07726.4399,W,1,09,1.00,153.7,M,-34.4,M,,*5F
$GPRMC,182846.600,A,4308.4686,N,07726.4399,W,0.03,20.06,270319,,,A*42
lng=-77.440666, lat=43.141147, altitude=153.70, speed=0.01, satellites=9, angle=65.7900, fixquality=1
$GPGGA,182846.800,4308.4685,N,07726.4399,W,1,09,1.00,153.7,M,-34.4,M,,*52
$GPRMC,182846.800,A,4308.4685,N,07726.4399,W,0.02,232.67,270319,,,A*78
lng=-77.440666, lat=43.141136, altitude=153.70, speed=0.03, satellites=9, angle=20.0600, fixquality=1
$GPGGA,182847.000,4308.4685,N,07726.4399,W,1,09,1.00,153.7,M,-34.4,M,,*5B
$GPRMC,182847.000,A,4308.4685,N,07726.4399,W,0.01,43.15,270319,,,A*43
lng=-77.440666, lat=43.141136, altitude=153.70, speed=0.02, satellites=9, angle=232.6700, fixquality=1
$GPGGA,182847.200,4308.4685,N,07726.4399,W,1,09,1.00,153.7,M,-34.4,M,,*59
$GPRMC,182847.200,A,4308.4685,N,07726.4399,W,0.01,312.41,270319,,,A*77
lng=-77.440666, lat=43.141136, altitude=153.70, speed=0.01, satellites=9, angle=43.1500, fixquality=1
$GPGGA,182847.400,4308.4685,N,07726.4399,W,1,09,1.00,153.7,M,-34.4,M,,*5F
$GPRMC,182847.400,A,4308.4685,N,07726.4399,W,0.03,207.62,270319,,,A*77
lng=-77.440666, lat=43.141136, altitude=153.70, speed=0.01, satellites=9, angle=312.4100, fixquality=1
$GPGGA,182847.600,4308.4685,N,07726.4399,W,1,09,1.00,153.7,M,-34.4,M,,*5D
$GPRMC,182847.600,A,4308.4685,N,07726.4399,W,0.03,110.17,270319,,,A*72
lng=-77.440666, lat=43.141136, altitude=153.70, speed=0.03, satellites=9, angle=207.6200, fixquality=1
$GPGGA,182847.800,4308.4685,N,07726.4398,W,1,09,1.00,153.7,M,-34.4,M,,*52
$GPRMC,182847.800,A,4308.4685,N,07726.4398,W,0.03,228.34,270319,,,A*74
lng=-77.440666, lat=43.141136, altitude=153.70, speed=0.03, satellites=9, angle=110.1700, fixquality=1
$GPGGA,182848.000,4308.4685,N,07726.4398,W,1,09,1.00,153.8,M,-34.4,M,,*5A
$GPRMC,182848.000,A,4308.4685,N,07726.4398,W,0.06,79.50,270319,,,A*42
lng=-77.440666, lat=43.141136, altitude=153.80, speed=0.03, satellites=9, angle=228.3400, fixquality=1
$GPGGA,182848.200,4308.4685,N,07726.4398,W,1,08,1.16,153.8,M,-34.4,M,,*5E
$GPRMC,182848.200,A,4308.4685,N,07726.4398,W,0.03,191.25,270319,,,A*70
lng=-77.440666, lat=43.141136, altitude=153.80, speed=0.06, satellites=8, angle=79.5000, fixquality=1
$GPGGA,182848.400,4308.4685,N,07726.4398,W,1,09,1.00,153.8,M,-34.4,M,,*5E
$GPRMC,182848.400,A,4308.4685,N,07726.4398,W,0.03,313.50,270319
lng=-77.440666, lat=43.141136, altitude=153.80, speed=0.03, satellites=9, angle=191.2500, fixquality=1
$GPGGA,182848.600,4308.4685,N,07726.4398,W,1,09,1.00,153.8,M,-34.4,M,,*5C
$GPRMC,182848.600,A,4308.4685,N,07726.4398,W,0.03,212.38,270319,,,A*70
lng=-77.440666, lat=43.141136, altitude=153.80, speed=0.03, satellites=9, angle=313.5000, fixquality=1
$GPGGA,182848.800,4308.4684,N,07726.4398,W,1,09,1.00,153.8,M,-34.4,M,,*53
$GPRMC,182848.800,A,4308.4684,N,07726.4398,W,0.03,272.93,2703198
lng=-77.440666, lat=43.141136, altitude=153.80, speed=0.03, satellites=9, angle=212.3800, fixquality=1
$GPGGA,182849.000,4308.4684,N,07726.4398,W,1,09,1.00,153.8,M,-34.4,M,,*5A
$GPRMC,182849.000,A,4308.4684,N,07726.4398,W,0.04,274.16,270319,,,A*7D
lng=-77.440666, lat=43.141136, altitude=153.80, speed=0.03, satellites=9, angle=272.9300, fixquality=1
$GPGGA,182849.200,4308.4685,N,07726.4398,W,1,09,1.00,153.8,M,-34.4,M,,*59
$GPRMC,182849.200,A,4308.4685,N,07726.4398,W,0.04,69.76,270319,6
lng=-77.440666, lat=43.141136, altitude=153.80, speed=0.04, satellites=9, angle=274.1600, fixquality=1
$GPGGA,182849.400,4308.4684,N,07726.4398,W,1,09,1.00,153.8,M,-34.4,M,,*5E
$GPRMC,182849.400,A,4308.4684,N,07726.4398,W,0.01,162.74,270319,,,A*7C
lng=-77.440666, lat=43.141136, altitude=153.80, speed=0.04, satellites=9, angle=69.7600, fixquality=1
$GPGGA,182849.600,4308.4685,N,07726.4398,W,1,09,1.00,153.8,M,-34.4,M,,*5D
$GPRMC,182849.600,A,4308.4685,N,07726.4398,W,0.02,15.51,270319,,,A*4A
lng=-77.440666, lat=43.141136, altitude=153.80, speed=0.01, satellites=9, angle=162.7400, fixquality=1
$GPGGA,182849.800,4308.4685,N,07726.4398,W,1,09,1.00,153.8,M,-34.4,M,,*53
$GPRMC,182849.800,A,4308.4685,N,07726.4398,W,0.04,199.49,270319,,,A*7E
lng=-77.440666, lat=43.141136, altitude=153.80, speed=0.02, satellites=9, angle=15.5100, fixquality=1
$GPGGA,182850.000,4308.4685,N,07726.4397,W,1,09,1.00,153.8,M,-34.4,M,,*5C
$GPRMC,182850.000,A,4308.4685,N,07726.4397,W,0.02,9.62,270319,,,A*76
lng=-77.440658, lat=43.141136, altitude=153.80, speed=0.04, satellites=9, angle=199.4900, fixquality=1
$GPGGA,182850.200,4308.4685,N,07726.4397,W,1,09,1.14,153.8,M,-34.4,M,,*5B
$GPRMC,182850.200,A,4308.4685,N,07726.4397,W,0.01,238.00,270319,,,A*73
lng=-77.440658, lat=43.141136, altitude=153.80, speed=0.02, satellites=9, angle=9.6200, fixquality=1
$GPGGA,182850.400,4308.4685,N,07726.4397,W,1,09,1.00,153.8,M,-34.4,M,,*58
$GPRMC,182850.400,A,4308.4685,N,07726.4397,W,0.02,349.18,270319,,,A*78
lng=-77.440658, lat=43.141136, altitude=153.80, speed=0.01, satellites=9, angle=238.0000, fixquality=1
$GPGGA,182850.600,4308.4685,N,07726.4397,W,1,09,1.14,153.8,M,-34.4,M,,*5F
$GPRMC,182850.600,A,4308.4685,N,07726.4397,W,0.01,73.06,270319,,,A*4C
lng=-77.440658, lat=43.141136, altitude=153.80, speed=0.02, satellites=9, angle=349.1800, fixquality=1
$GPGGA,182850.800,4308.4685,N,07726.4397,W,1,08,1.16,153.9,M,-34.4,M,,*53
$GPRMC,182850.800,A,4308.4685,N,07726.4397,W,0.02,263.82,270319,,,A*7E
lng=-77.440658, lat=43.141136, altitude=153.90, speed=0.01, satellites=8, angle=73.0600, fixquality=1
$GPGGA,182851.000,4308.4685,N,07726.4397,W,1,08,1.16,153.9,M,-34.4,M,,*5A
$GPRMC,182851.000,A,4308.4685,N,07726.4397,W,0.03,46.96,270319,,,A*46
lng=-77.440658, lat=43.141136, altitude=153.90, speed=0.02, satellites=8, angle=263.8200, fixquality=1
$GPGGA,182851.200,4308.4685,N,07726.4397,W,1,09,1.00,153.9,M,-34.4,M,,*5E
$GPRMC,182851.200,A,4308.4685,N,07726.4397,W,0.02,191.92,270319,,,A*7A
lng=-77.440658, lat=43.141136, altitude=153.90, speed=0.03, satellites=9, angle=46.9600, fixquality=1
$GPGGA,182851.400,4308.4685,N,07726.4397,W,1,09,1.00,153.9,M,-34.4,M,,*58
$GPRMC,182851.400,A,4308.4685,N,07726.4397,W,0.04,228.71,270319,,,A*76
lng=-77.440658, lat=43.141136, altitude=153.90, speed=0.02, satellites=9, angle=191.9200, fixquality=1
$GPGGA,182851.600,4308.4685,N,07726.4397,W,1,09,1.00,153.9,M,-34.4,M,,*5A
$GPRMC,182851.600,A,4308.4685,N,07726.4397,W,0.01,331.77,270319,,,A*7E
lng=-77.440658, lat=43.141136, altitude=153.90, speed=0.04, satellites=9, angle=228.7100, fixquality=1
$GPGGA,182851.800,4308.4685,N,07726.4397,W,1,09,1.00,153.9,M,-34.4,M,,*54
$GPRMC,182851.800,A,4308.4685,N,07726.4397,W,0.01,348.58,270319,,,A*73
lng=-77.440658, lat=43.141136, altitude=153.90, speed=0.01, satellites=9, angle=331.7700, fixquality=1
$GPGGA,182852.000,4308.4685,N,07726.4397,W,1,09,1.14,153.9,M,-34.4,M,,*5A
$GPRMC,182852.000,A,4308.4685,N,07726.4397,W,0.04,26.72,270319,,,A*4E
lng=-77.440658, lat=43.141136, altitude=153.90, speed=0.01, satellites=9, angle=348.5800, fixquality=1
$GPGGA,182852.200,4308.4685,N,07726.4397,W,1,09,1.00,153.9,M,-34.4,M,,*5D
$GPRMC,182852.200,A,4308.4685,N,07726.4397,W,0.04,234.06,270319,,,A*7E
lng=-77.440658, lat=43.141136, altitude=153.90, speed=0.04, satellites=9, angle=26.7200, fixquality=1
$GPGGA,182852.400,4308.4685,N,07726.4397,W,1,09,1.00,153.9,M,-34.4,M,,*5B
$GPRMC,182852.400,A,4308.4685,N,07726.4397,W,0.05,145.44,270319,,,A*7A
lng=-77.440658, lat=43.141136, altitude=153.90, speed=0.04, satellites=9, angle=234.0600, fixquality=1
$GPGGA,182852.600,4308.4685,N,07726.4397,W,1,08,1.16,153.9,M,-34.4,M,,*5F
$GPRMC,182852.600,A,4308.4685,N,07726.4397,W,0.04,338.08,270319,,,A*79
lng=-77.440658, lat=43.141136, altitude=153.90, speed=0.05, satellites=8, angle=145.4400, fixquality=1
$GPGGA,182852.800,4308.4685,N,07726.4397,W,1,09,1.00,153.9,M,-34.4,M,,*57
$GPRMC,182852.800,A,4308.4685,N,07726.4397,W,0.02,285.82,270319,,,A*74
lng=-77.440658, lat=43.141136, altitude=153.90, speed=0.04, satellites=9, angle=338.0800, fixquality=1
$GPGGA,182853.000,4308.4685,N,07726.4397,W,1,09,1.00,153.9,M,-34.4,M,,*5E
$GPRMC,182853.000,A,4308.4685,N,07726.4397,W,0.03,4.93,270319,,,A*77
lng=-77.440658, lat=43.141136, altitude=153.90, speed=0.02, satellites=9, angle=285.8200, fixquality=1
$GPGGA,182853.200,4308.4685,N,07726.4397,W,1,09,1.14,153.9,M,-34.4,M,,*59
$GPRMC,182853.200,A,4308.4685,N,07726.4397,W,0.04,57.86,270319,,,A*40
lng=-77.440658, lat=43.141136, altitude=153.90, speed=0.03, satellites=9, angle=4.9300, fixquality=1
$GPGGA,182853.400,4308.4685,N,07726.4397,W,1,08,1.16,153.9,M,-34.4,M,,*5C
$GPRMC,182853.400,A,4308.4685,N,07726.4397,W,0.00,298.32,270319,,,A*7C
lng=-77.440658, lat=43.141136, altitude=153.90, speed=0.04, satellites=8, angle=57.8600, fixquality=1
$GPGGA,182853.600,4308.4685,N,07726.4397,W,1,09,1.00,153.9,M,-34.4,M,,*58
$GPRMC,182853.600,A,4308.4685,N,07726.4397,W,0.04,243.23,270319,,,A*7C
lng=-77.440658, lat=43.141136, altitude=153.90, speed=0.00, satellites=9, angle=298.3200, fixquality=1
$GPGGA,182853.800,4308.4685,N,07726.4397,W,1,09,1.00,153.9,M,-34.4,M,,*56
$GPRMC,182853.800,A,4308.4685,N,07726.4397,W,0.03,308.43,270319
lng=-77.440658, lat=43.141136, altitude=153.90, speed=0.04, satellites=9, angle=243.2300, fixquality=1
$GPGGA,182854.000,4308.4685,N,07726.4397,W,1,09,1.00,153.9,M,-34.4,M,,*59
$GPRMC,182854.000,A,4308.4685,N,07726.4397,W,0.01,336.19,270319,,,A*72
lng=-77.440658, lat=43.141136, altitude=153.90, speed=0.03, satellites=9, angle=308.4300, fixquality=1
$GPGGA,182854.200,4308.4685,N,07726.4397,W,1,09,1.00,153.9,M,-34.4,M,,*5B
$GPRMC,182854.200,A,4308.4685,N,07726.4397,W,0.05,71.99,270319,
lng=-77.440658, lat=43.141136, altitude=153.90, speed=0.01, satellites=9, angle=336.1900, fixquality=1
$GPGGA,182854.400,4308.4685,N,07726.4397,W,1,09,1.00,153.9,M,-34.4,M,,*5D
$GPRMC,182854.400,A,4308.4685,N,07726.4397,W,0.02,39.72,270319,,,A*44
lng=-77.440658, lat=43.141136, altitude=153.90, speed=0.05, satellites=9, angle=71.9900, fixquality=1
$GPGGA,182854.600,4308.4685,N,07726.4397,W,1,09,1.00,153.9,M,-34.4,M,,*5F
$GPRMC,182854.600,A,4308.4685,N,07726.4397,W,0.00,0.00,270319,,B
lng=-77.440658, lat=43.141136, altitude=153.90, speed=0.02, satellites=9, angle=39.7200, fixquality=1
$GPGGA,182854.800,4308.4685,N,07726.4397,W,1,09,1.14,153.9,M,-34.4,M,,*54
$GPRMC,182854.800,A,4308.4685,N,07726.4397,W,0.03,294.03,270319,,,A*7A
lng=-77.440658, lat=43.141136, altitude=153.90, speed=0.00, satellites=9, angle=0.0000, fixquality=1
$GPGGA,182855.000,4308.4685,N,07726.4397,W,1,09,1.00,153.9,M,-34.4,M,,*58
$GPRMC,182855.000,A,4308.4685,N,07726.4397,W,0.02,160.53,270319,,,A*7F
lng=-77.440658, lat=43.141136, altitude=153.90, speed=0.03, satellites=9, angle=294.0300, fixquality=1
$GPGGA,182855.200,4308.4685,N,07726.4397,W,1,09,1.00,153.9,M,-34.4,M,,*5A
$GPRMC,182855.200,A,4308.4685,N,07726.4397,W,0.05,337.63,270319,,,A*79
lng=-77.440658, lat=43.141136, altitude=153.90, speed=0.02, satellites=9, angle=160.5300, fixquality=1
$GPGGA,182855.400,4308.4685,N,07726.4397,W,1,09,1.00,153.9,M,-34.4,M,,*5C
$GPRMC,182855.400,A,4308.4685,N,07726.4397,W,0.02,295.77,270319,,,A*74
lng=-77.440658, lat=43.141136, altitude=153.90, speed=0.05, satellites=9, angle=337.6300, fixquality=1
$GPGGA,182855.600,4308.4685,N,07726.4397,W,1,09,1.00,153.9,M,-34.4,M,,*5E
$GPRMC,182855.600,A,4308.4685,N,07726.4397,W,0.02,112.75,270319,,,A*78
lng=-77.440658, lat=43.141136, altitude=153.90, speed=0.02, satellites=9, angle=295.7700, fixquality=1
$GPGGA,182855.800,4308.4685,N,07726.4397,W,1,09,1.00,153.9,M,-34.4,M,,*50
$GPRMC,182855.800,A,4308.4685,N,07726.4397,W,0.04,296.84,270319,,,A*71
lng=-77.440658, lat=43.141136, altitude=153.90, speed=0.02, satellites=9, angle=112.7500, fixquality=1
$GPGGA,182856.000,4308.4685,N,07726.4397,W,1,09,1.00,153.9,M,-34.4,M,,*5B
$GPRMC,182856.000,A,4308.4685,N,07726.4397,W,0.04,240.21,270319,,,A*7E
lng=-77.440658, lat=43.141136, altitude=153.90, speed=0.04, satellites=9, angle=296.8400, fixquality=1
$GPGGA,182856.200,4308.4685,N,07726.4397,W,1,09,1.00,153.9,M,-34.4,M,,*59
$GPRMC,182856.200,A,4308.4685,N,07726.4397,W,0.04,356.86,270319,,,A*77
lng=-77.440658, lat=43.141136, altitude=153.90, speed=0.04, satellites=9, angle=240.2100, fixquality=1
$GPGGA,182856.400,4308.4685,N,07726.4397,W,1,08,1.26,153.9,M,-34.4,M,,*5A
$GPRMC,182856.400,A,4308.4685,N,07726.4397,W,0.01,82.30,270319,,,A*43
lng=-77.440658, lat=43.141136, altitude=153.90, speed=0.04, satellites=8, angle=356.8600, fixquality=1
$GPGGA,182856.600,4308.4685,N,07726.4397,W,1,08,1.16,153.9,M,-34.4,M,,*5B
$GPRMC,182856.600,A,4308.4685,N,07726.4397,W,0.03,46.93,270319,,,A*42
lng=-77.440658, lat=43.141136, altitude=153.90, speed=0.01, satellites=8, angle=82.3000, fixquality=1
$GPGGA,182856.800,4308.4685,N,07726.4397,W,1,08,1.16,153.9,M,-34.4,M,,*55
$GPRMC,182856.800,A,4308.4685,N,07726.4397,W,0.00,181.76,270319,,,A*7E
lng=-77.440658, lat=43.141136, altitude=153.90, speed=0.03, satellites=8, angle=46.9300, fixquality=1
$GPGGA,182857.000,4308.4685,N,07726.4397,W,1,08,1.16,153.9,M,-34.4,M,,*5C
$GPRMC,182857.000,A,4308.4685,N,07726.4397,W,0.01,117.06,270319,,,A*7E
lng=-77.440658, lat=43.141136, altitude=153.90, speed=0.00, satellites=8, angle=181.7600, fixquality=1
$GPGGA,182857.200,4308.4685,N,07726.4397,W,1,09,1.00,153.9,M,-34.4,M,,*58
$GPRMC,182857.200,A,4308.4685,N,07726.4397,W,0.01,329.91,270319,,,A*7D
lng=-77.440658, lat=43.141136, altitude=153.90, speed=0.01, satellites=9, angle=117.0600, fixquality=1
$GPGGA,182857.400,4308.4685,N,07726.4397,W,1,09,1.00,153.9,M,-34.4,M,,*5E
$GPRMC,182857.400,A,4308.4685,N,07726.4397,W,0.02,257.30,270319,,,A*7B
lng=-77.440658, lat=43.141136, altitude=153.90, speed=0.01, satellites=9, angle=329.9100, fixquality=1
$GPGGA,182857.600,4308.4685,N,07726.4397,W,1,08,1.16,153.9,M,-34.4,M,,*5A
$GPRMC,182857.600,A,4308.4685,N,07726.4397,W,0.03,57.78,270319,,,A*46
lng=-77.440658, lat=43.141136, altitude=153.90, speed=0.02, satellites=8, angle=257.3000, fixquality=1
$GPGGA,182857.800,4308.4685,N,07726.4397,W,1,09,1.00,153.9,M,-34.4,M,,*52
$GPRMC,182857.800,A,4308.4685,N,07726.4397,W,0.01,317.71,270319,,,A*74
lng=-77.440658, lat=43.141136, altitude=153.90, speed=0.03, satellites=9, angle=57.7800, fixquality=1
$GPGGA,182858.000,4308.4685,N,07726.4397,W,1,09,1.00,153.9,M,-34.4,M,,*55
$GPRMC,182858.000,A,4308.4685,N,07726.4397,W,0.02,354.92,270319,,,A*7A
lng=-77.440658, lat=43.141136, altitude=153.90, speed=0.01, satellites=9, angle=317.7100, fixquality=1
$GPGGA,182858.200,4308.4685,N,07726.4397,W,1,09,1.14,153.9,M,-34.4,M,,*52
$GPRMC,182858.200,A,4308.4685,N,07726.4397,W,0.02,188.72,270319,,,A*75
lng=-77.440658, lat=43.141136, altitude=153.90, speed=0.02, satellites=9, angle=354.9200, fixquality=1
$GPGGA,182858.400,4308.4685,N,07726.4397,W,1,08,1.16,153.9,M,-34.4,M,,*57
$GPRMC,182858.400,A,4308.4685,N,07726.4397,W,0.01,99.63,270319,,,A*41
lng=-77.440658, lat=43.141136, altitude=153.90, speed=0.02, satellites=8, angle=188.7200, fixquality=1
$GPGGA,182858.600,4308.4685,N,07726.4397,W,1,09,1.00,153.9,M,-34.4,M,,*53
$GPRMC,182858.600,A,4308.4685,N,07726.4397,W,0.03,333.20,270319,,,A*75
lng=-77.440658, lat=43.141136, altitude=153.90, speed=0.01, satellites=9, angle=99.6300, fixquality=1
$GPGGA,182858.800,4308.4685,N,07726.4397,W,1,08,1.16,153.9,M,-34.4,M,,*5B
$GPRMC,182858.800,A,4308.4685,N,07726.4397,W,0.00,55.95,270319,,,A*45
lng=-77.440658, lat=43.141136, altitude=153.90, speed=0.03, satellites=8, angle=333.2000, fixquality=1
$GPGGA,182859.000,4308.4685,N,07726.4397,W,1,08,1.16,153.9,M,-34.4,M,,*52
$GPRMC,182859.000,A,4308.4685,N,07726.4397,W,0.01,175.67,270319,,,A*73
lng=-77.440658, lat=43.141136, altitude=153.90, speed=0.00, satellites=8, angle=55.9500, fixquality=1
$GPGGA,182859.200,4308.4685,N,07726.4397,W,1,08,1.16,153.9,M,-34.4,M,,*50
$GPRMC,182859.200,A,4308.4685,N,07726.4397,W,0.03,350.76,270319
lng=-77.440658, lat=43.141136, altitude=153.90, speed=0.01, satellites=8, angle=175.6700, fixquality=1
$GPGGA,182859.400,4308.4685,N,07726.4397,W,1,09,1.14,153.9,M,-34.4,M,,*55
$GPRMC,182859.400,A,4308.4685,N,07726.4397,W,0.02,149.54,270319,,,A*7B
lng=-77.440658, lat=43.141136, altitude=153.90, speed=0.03, satellites=9, angle=350.7600, fixquality=1
$GPGGA,182859.600,4308.4685,N,07726.4397,W,1,09,1.00,153.9,M,-34.4,M,,*52
$GPRMC,182859.600,A,4308.4685,N,07726.4397,W,0.02,282.31,270319E
lng=-77.440658, lat=43.141136, altitude=153.90, speed=0.02, satellites=9, angle=149.5400, fixquality=1
$GPGGA,182859.800,4308.4685,N,07726.4397,W,1,09,1.00,153.9,M,-34.4,M,,*5C
$GPRMC,182859.800,A,4308.4685,N,07726.4397,W,0.01,157.16,270319,,,A*7D
lng=-77.440658, lat=43.141136, altitude=153.90, speed=0.02, satellites=9, angle=282.3100, fixquality=1
$GPGGA,182900.000,4308.4685,N,07726.4397,W,1,09,1.14,153.9,M,-34.4,M,,*5C
$GPRMC,182900.000,A,4308.4685,N,07726.4397,W,0.00,141.34,270319E
lng=-77.440658, lat=43.141136, altitude=153.90, speed=0.01, satellites=9, angle=157.1600, fixquality=1
$GPGGA,182900.200,4308.4685,N,07726.4397,W,1,09,1.14,153.9,M,-34.4,M,,*5E
$GPRMC,182900.200,A,4308.4685,N,07726.4397,W,0.01,43.61,270319,,,A*4E
lng=-77.440658, lat=43.141136, altitude=153.90, speed=0.00, satellites=9, angle=141.3400, fixquality=1
$GPGGA,182900.400,4308.4685,N,07726.4397,W,1,09,1.14,153.9,M,-34.4,M,,*58
$GPRMC,182900.400,A,4308.4685,N,07726.4397,W,0.01,281.85,270319E
lng=-77.440658, lat=43.141136, altitude=153.90, speed=0.01, satellites=9, angle=43.6100, fixquality=1
$GPGGA,182900.600,4308.4685,N,07726.4397,W,1,09,1.14,153.9,M,-34.4,M,,*5A
$GPRMC,182900.600,A,4308.4685,N,07726.4397,W,0.01,78.50,270319,,,A*40
lng=-77.440658, lat=43.141136, altitude=153.90, speed=0.01, satellites=9, angle=281.8500, fixquality=1
$GPGGA,182900.800,4308.4685,N,07726.4397,W,1,09,1.14,153.9,M,-34.4,M,,*54
$GPRMC,182900.800,A,4308.4685,N,07726.4397,W,0.01,187.82,270319,,,A*70
lng=-77.440658, lat=43.141136, altitude=153.90, speed=0.01, satellites=9, angle=78.5000, fixquality=1
$GPGGA,182901.000,4308.4685,N,07726.4397,W,1,09,1.14,153.9,M,-34.4,M,,*5D
$GPRMC,182901.000,A,4308.4685,N,07726.4397,W,0.00,2.77,270319,,,A*7E
lng=-77.440658, lat=43.141136, altitude=153.90, speed=0.01, satellites=9, angle=187.8200, fixquality=1
$GPGGA,182901.200,4308.4685,N,07726.4397,W,1,09,1.14,153.9,M,-34.4,M,,*5F
$GPRMC,182901.200,A,4308.4685,N,07726.4397,W,0.00,63.28,270319,,,A*41
lng=-77.440658, lat=43.141136, altitude=153.90, speed=0.00, satellites=9, angle=2.7700, fixquality=1
$GPGGA,182901.400,4308.4685,N,07726.4397,W,1,09,1.14,153.9,M,-34.4,M,,*59
$GPRMC,182901.400,A,4308.4685,N,07726.4397,W,0.01,265.65,270319,,,A*7B
lng=-77.440658, lat=43.141136, altitude=153.90, speed=0.00, satellites=9, angle=63.2800, fixquality=1
$GPGGA,182901.600,4308.4685,N,07726.4397,W,1,09,1.14,153.9,M,-34.4,M,,*5B
$GPRMC,182901.600,A,4308.4685,N,07726.4397,W,0.00,307.46,270319,,,A*7C
lng=-77.440658, lat=43.141136, altitude=153.90, speed=0.01, satellites=9, angle=265.6500, fixquality=1
$GPGGA,182901.800,4308.4685,N,07726.4397,W,1,09,1.14,153.9,M,-34.4,M,,*55
$GPRMC,182901.800,A,4308.4685,N,07726.4397,W,0.01,109.14,270319,,,A*78
lng=-77.440658, lat=43.141136, altitude=153.90, speed=0.00, satellites=9, angle=307.4600, fixquality=1
$GPGGA,182902.000,4308.4685,N,07726.4397,W,1,09,1.14,153.9,M,-34.4,M,,*5E
$GPRMC,182902.000,A,4308.4685,N,07726.4397,W,0.00,337.99,270319,,,A*78
lng=-77.440658, lat=43.141136, altitude=153.90, speed=0.01, satellites=9, angle=109.1400, fixquality=1
$GPGGA,182902.200,4308.4685,N,07726.4397,W,1,09,1.14,153.9,M,-34.4,M,,*5C
$GPRMC,182902.200,A,4308.4685,N,07726.4397,W,0.01,316.15,270319,,,A*7C
lng=-77.440658, lat=43.141136, altitude=153.90, speed=0.00, satellites=9, angle=337.9900, fixquality=1
$GPGGA,182902.400,4308.4685,N,07726.4397,W,1,09,1.14,153.9,M,-34.4,M,,*5A
$GPRMC,182902.400,A,4308.4685,N,07726.4397,W,0.00,110.99,270319,,,A*7B
lng=-77.440658, lat=43.141136, altitude=153.90, speed=0.01, satellites=9, angle=316.1500, fixquality=1
$GPGGA,182902.600,4308.4685,N,07726.4397,W,1,09,1.14,153.9,M,-34.4,M,,*58
$GPRMC,182902.600,A,4308.4685,N,07726.4397,W,0.00,0.00,270319,,,A*79
lng=-77.440658, lat=43.141136, altitude=153.90, speed=0.00, satellites=9, angle=110.9900, fixquality=1
$GPGGA,182902.800,4308.4685,N,07726.4397,W,1,09,1.14,153.9,M,-34.4,M,,*56
$GPRMC,182902.800,A,4308.4685,N,07726.4397,W,0.01,69.92,270319,,,A*42
lng=-77.440658, lat=43.141136, altitude=153.90, speed=0.00, satellites=9, angle=0.0000, fixquality=1
$GPGGA,182903.000,4308.4685,N,07726.4397,W,1,09,1.14,153.9,M,-34.4,M,,*5F
$GPRMC,182903.000,A,4308.4685,N,07726.4397,W,0.02,285.39,270319,,,A*79
lng=-77.440658, lat=43.141136, altitude=153.90, speed=0.01, satellites=9, angle=69.9200, fixquality=1
$GPGGA,182903.200,4308.4685,N,07726.4397,W,1,09,1.14,153.9,M,-34.4,M,,*5D
$GPRMC,182903.200,A,4308.4685,N,07726.4397,W,0.01,155.09,270319,,,A*75
lng=-77.440658, lat=43.141136, altitude=153.90, speed=0.02, satellites=9, angle=285.3900, fixquality=1
$GPGGA,182903.400,4308.4685,N,07726.4397,W,1,09,1.14,153.9,M,-34.4,M,,*5B
$GPRMC,182903.400,A,4308.4685,N,07726.4397,W,0.01,80.30,270319,,,A*40
lng=-77.440658, lat=43.141136, altitude=153.90, speed=0.01, satellites=9, angle=155.0900, fixquality=1
$GPGGA,182903.600,4308.4685,N,07726.4397,W,1,09,1.14,153.9,M,-34.4,M,,*59
$GPRMC,182903.600,A,4308.4685,N,07726.4397,W,0.00,19.12,270319,,,A*43
lng=-77.440658, lat=43.141136, altitude=153.90, speed=0.01, satellites=9, angle=80.3000, fixquality=1
$GPGGA,182903.800,4308.4685,N,07726.4397,W,1,09,1.14,153.9,M,-34.4,M,,*57
$GPRMC,182903.800,A,4308.4685,N,07726.4397,W,0.00,0.00,270319,,,A*76
lng=-77.440658, lat=43.141136, altitude=153.90, speed=0.00, satellites=9, angle=19.1200, fixquality=1
$GPGGA,182904.000,4308.4685,N,07726.4397,W,1,09,1.14,153.9,M,-34.4,M,,*58
$GPRMC,182904.000,A,4308.4685,N,07726.4397,W,0.00,291.86,270319,,,A*7D
lng=-77.440658, lat=43.141136, altitude=153.90, speed=0.00, satellites=9, angle=0.0000, fixquality=1
$GPGGA,182904.200,4308.4685,N,07726.4397,W,1,09,1.14,153.9,M,-34.4,M,,*5A
$GPRMC,182904.200,A,4308.4685,N,07726.4397,W,0.01,186.15,270319,,,A*71
lng=-77.440658, lat=43.141136, altitude=153.90, speed=0.00, satellites=9, angle=291.8600, fixquality=1
$GPGGA,182904.400,4308.4685,N,07726.4397,W,1,09,1.14,153.9,M,-34.4,M,,*5C
$GPRMC,182904.400,A,4308.4685,N,07726.4397,W,0.01,41.82,270319,,,A*43
lng=-77.440658, lat=43.141136, altitude=153.90, speed=0.01, satellites=9, angle=186.1500, fixquality=1
$GPGGA,182904.600,4308.4685,N,07726.4397,W,1,09,1.14,153.9,M,-34.4,M,,*5E
$GPRMC,182904.600,A,4308.4685,N,07726.4397,W,0.01,243.92,270319
lng=-77.440658, lat=43.141136, altitude=153.90, speed=0.01, satellites=9, angle=41.8200, fixquality=1
$GPGGA,182904.800,4308.4685,N,07726.4397,W,1,09,1.14,153.9,M,-34.4,M,,*50
$GPRMC,182904.800,A,4308.4685,N,07726.4397,W,0.00,16.47,270319,,,A*45
lng=-77.440658, lat=43.141136, altitude=153.90, speed=0.01, satellites=9, angle=243.9200, fixquality=1
$GPGGA,182905.000,4308.4685,N,07726.4397,W,1,09,1.14,153.9,M,-34.4,M,,*59
$GPRMC,182905.000,A,4308.4685,N,07726.4397,W,0.01,139.86,270319C
lng=-77.440658, lat=43.141136, altitude=153.90, speed=0.00, satellites=9, angle=16.4700, fixquality=1
$GPGGA,182905.200,4308.4685,N,07726.4397,W,1,09,1.14,153.9,M,-34.4,M,,*5B
$GPRMC,182905.200,A,4308.4685,N,07726.4397,W,0.01,269.04,270319,,,A*72
lng=-77.440658, lat=43.141136, altitude=153.90, speed=0.01, satellites=9, angle=139.8600, fixquality=1
$GPGGA,182905.400,4308.4685,N,07726.4397,W,1,09,1.14,153.9,M,-34.4,M,,*5D
$GPRMC,182905.400,A,4308.4685,N,07726.4397,W,0.01,98.17,270319,
lng=-77.440658, lat=43.141136, altitude=153.90, speed=0.01, satellites=9, angle=269.0400, fixquality=1
$GPGGA,182905.600,4308.4685,N,07726.4397,W,1,09,1.14,153.9,M,-34.4,M,,*5F
$GPRMC,182905.600,A,4308.4685,N,07726.4397,W,0.01,310.46,270319,,,A*7F
lng=-77.440658, lat=43.141136, altitude=153.90, speed=0.01, satellites=9, angle=98.1700, fixquality=1
$GPGGA,182905.800,4308.4685,N,07726.4397,W,1,09,1.14,153.9,M,-34.4,M,,*51
$GPRMC,182905.800,A,4308.4685,N,07726.4397,W,0.00,162.03,270319,,,A*76
lng=-77.440658, lat=43.141136, altitude=153.90, speed=0.01, satellites=9, angle=310.4600, fixquality=1
$GPGGA,182906.000,4308.4685,N,07726.4397,W,1,09,1.14,153.9,M,-34.4,M,,*5A
$GPRMC,182906.000,A,4308.4685,N,07726.4397,W,0.00,231.63,270319,,,A*7E
lng=-77.440658, lat=43.141136, altitude=153.90, speed=0.00, satellites=9, angle=162.0300, fixquality=1
$GPGGA,182906.200,4308.4685,N,07726.4397,W,1,09,1.14,153.9,M,-34.4,M,,*58
$GPRMC,182906.200,A,4308.4685,N,07726.4397,W,0.00,104.46,270319,,,A*7E
lng=-77.440658, lat=43.141136, altitude=153.90, speed=0.00, satellites=9, angle=231.6300, fixquality=1
$GPGGA,182906.400,4308.4685,N,07726.4397,W,1,09,1.14,153.9,M,-34.4,M,,*5E
$GPRMC,182906.400,A,4308.4685,N,07726.4397,W,0.00,58.21,270319,,,A*41
lng=-77.440658, lat=43.141136, altitude=153.90, speed=0.00, satellites=9, angle=104.4600, fixquality=1
$GPGGA,182906.600,4308.4685,N,07726.4397,W,1,09,1.14,153.9,M,-34.4,M,,*5C
$GPRMC,182906.600,A,4308.4685,N,07726.4397,W,0.00,150.15,270319,,,A*7D
lng=-77.440658, lat=43.141136, altitude=153.90, speed=0.00, satellites=9, angle=58.2100, fixquality=1
$GPGGA,182906.800,4308.4685,N,07726.4397,W,1,09,1.14,153.9,M,-34.4,M,,*52
$GPRMC,182906.800,A,4308.4685,N,07726.4397,W,0.00,263.22,270319,,,A*74
lng=-77.440658, lat=43.141136, altitude=153.90, speed=0.00, satellites=9, angle=150.1500, fixquality=1
$GPGGA,182907.000,4308.4685,N,07726.4397,W,1,09,1.14,153.9,M,-34.4,M,,*5B
$GPRMC,182907.000,A,4308.4685,N,07726.4397,W,0.01,85.51,270319,,,A*42
lng=-77.440658, lat=43.141136, altitude=153.90, speed=0.00, satellites=9, angle=263.2200, fixquality=1
$GPGGA,182907.200,4308.4685,N,07726.4397,W,1,09,1.14,153.9,M,-34.4,M,,*59
$GPRMC,182907.200,A,4308.4685,N,07726.4397,W,0.01,291.25,270319,,,A*74
lng=-77.440658, lat=43.141136, altitude=153.90, speed=0.01, satellites=9, angle=85.5100, fixquality=1
$GPGGA,182907.400,4308.4685,N,07726.4397,W,1,09,1.14,153.9,M,-34.4,M,,*5F
$GPRMC,182907.400,A,4308.4685,N,07726.4397,W,0.00,127.42,270319,,,A*7C
lng=-77.440658, lat=43.141136, altitude=153.90, speed=0.01, satellites=9, angle=291.2500, fixquality=1
$GPGGA,182907.600,4308.4685,N,07726.4397,W,1,09,1.14,153.9,M,-34.4,M,,*5D
$GPRMC,182907.600,A,4308.4685,N,07726.4397,W,0.01,128.74,270319,,,A*75
lng=-77.440658, lat=43.141136, altitude=153.90, speed=0.00, satellites=9, angle=127.4200, fixquality=1
$GPGGA,182907.800,4308.4685,N,07726.4397,W,1,09,1.14,153.9,M,-34.4,M,,*53
$GPRMC,182907.800,A,4308.4685,N,07726.4397,W,0.01,328.53,270319,,,A*7C
lng=-77.440658, lat=43.141136, altitude=153.90, speed=0.01, satellites=9, angle=128.7400, fixquality=1
$GPGGA,182908.000,4308.4685,N,07726.4397,W,1,09,1.14,153.9,M,-34.4,M,,*54
$GPRMC,182908.000,A,4308.4685,N,07726.4397,W,0.00,38.76,270319,,,A*4F
lng=-77.440658, lat=43.141136, altitude=153.90, speed=0.01, satellites=9, angle=328.5300, fixquality=1
$GPGGA,182908.200,4308.4685,N,07726.4397,W,1,09,1.14,153.9,M,-34.4,M,,*56
$GPRMC,182908.200,A,4308.4685,N,07726.4397,W,0.01,232.98,270319,,,A*74
lng=-77.440658, lat=43.141136, altitude=153.90, speed=0.00, satellites=9, angle=38.7600, fixquality=1
$GPGGA,182908.400,4308.4685,N,07726.4397,W,1,09,1.14,153.9,M,-34.4,M,,*50
$GPRMC,182908.400,A,4308.4685,N,07726.4397,W,0.00,116.34,270319,,,A*70
lng=-77.440658, lat=43.141136, altitude=153.90, speed=0.01, satellites=9, angle=232.9800, fixquality=1
$GPGGA,182908.600,4308.4685,N,07726.4397,W,1,08,1.49,153.9,M,-34.4,M,,*5B
$GPRMC,182908.600,A,4308.4685,N,07726.4397,W,0.01,99.55,270319,,,A*42
lng=-77.440658, lat=43.141136, altitude=153.90, speed=0.00, satellites=8, angle=116.3400, fixquality=1
$GPGGA,182908.800,4308.4685,N,07726.4397,W,1,08,1.49,153.9,M,-34.4,M,,*55
$GPRMC,182908.800,A,4308.4685,N,07726.4397,W,0.01,244.54,270319,,,A*7F
lng=-77.440658, lat=43.141136, altitude=153.90, speed=0.01, satellites=8, angle=99.5500, fixquality=1
$GPGGA,182909.000,4308.4685,N,07726.4397,W,1,09,1.14,153.9,M,-34.4,M,,*55
$GPRMC,182909.000,A,4308.4685,N,07726.4397,W,0.01,13.08,270319,,,A*4F
lng=-77.440658, lat=43.141136, altitude=153.90, speed=0.01, satellites=9, angle=244.5400, fixquality=1
$GPGGA,182909.200,4308.4685,N,07726.4397,W,1,09,1.14,153.9,M,-34.4,M,,*57
$GPRMC,182909.200,A,4308.4685,N,07726.4397,W,0.01,245.11,270319,,,A*74
lng=-77.440658, lat=43.141136, altitude=153.90, speed=0.01, satellites=9, angle=13.0800, fixquality=1
$GPGGA,182909.400,4308.4685,N,07726.4397,W,1,09,1.14,153.9,M,-34.4,M,,*51
$GPRMC,182909.400,A,4308.4685,N,07726.4397,W,0.00,135.48,270319,,,A*7B
lng=-77.440658, lat=43.141136, altitude=153.90, speed=0.01, satellites=9, angle=245.1100, fixquality=1
$GPGGA,182909.600,4308.4685,N,07726.4397,W,1,09,1.14,153.9,M,-34.4,M,,*53
$GPRMC,182909.600,A,4308.4685,N,07726.4397,W,0.01,95.02,270319,,,A*4D
lng=-77.440658, lat=43.141136, altitude=153.90, speed=0.00, satellites=9, angle=135.4800, fixquality=1
$GPGGA,182909.800,4308.4685,N,07726.4397,W,1,09,1.14,153.9,M,-34.4,M,,*5D
$GPRMC,182909.800,A,4308.4685,N,07726.4397,W,0.01,359.58,270319,,,A*7F
lng=-77.440658, lat=43.141136, altitude=153.90, speed=0.01, satellites=9, angle=95.0200, fixquality=1
$GPGGA,182910.000,4308.4685,N,07726.4397,W,1,09,1.14,153.9,M,-34.4,M,,*5D
$GPRMC,182910.000,A,4308.4685,N,07726.4397,W,0.01,218.17,270319
lng=-77.440658, lat=43.141136, altitude=153.90, speed=0.01, satellites=9, angle=359.5800, fixquality=1
$GPGGA,182910.200,4308.4685,N,07726.4397,W,1,09,1.14,153.9,M,-34.4,M,,*5F
$GPRMC,182910.200,A,4308.4685,N,07726.4397,W,0.01,346.16,270319,,,A*79
lng=-77.440658, lat=43.141136, altitude=153.90, speed=0.01, satellites=9, angle=218.1700, fixquality=1
$GPGGA,182910.400,4308.4685,N,07726.4397,W,1,09,1.14,153.9,M,-34.4,M,,*59
$GPRMC,182910.400,A,4308.4685,N,07726.4397,W,0.01,38.31,270319
lng=-77.440658, lat=43.141136, altitude=153.90, speed=0.01, satellites=9, angle=346.1600, fixquality=1
$GPGGA,182910.600,4308.4685,N,07726.4397,W,1,09,1.14,153.9,M,-34.4,M,,*5B
$GPRMC,182910.600,A,4308.4685,N,07726.4397,W,0.00,122.97,270319,,,A*75
lng=-77.440658, lat=43.141136, altitude=153.90, speed=0.01, satellites=9, angle=38.3100, fixquality=1
$GPGGA,182910.800,4308.4685,N,07726.4397,W,1,09,1.14,153.9,M,-34.4,M,,*55
$GPRMC,182910.800,A,4308.4685,N,07726.4397,W,0.00,230.09,270319C
lng=-77.440658, lat=43.141136, altitude=153.90, speed=0.00, satellites=9, angle=122.9700, fixquality=1
$GPGGA,182911.000,4308.4685,N,07726.4397,W,1,09,1.14,153.9,M,-34.4,M,,*5C
$GPRMC,182911.000,A,4308.4685,N,07726.4397,W,0.01,79.96,270319,,,A*4D
lng=-77.440658, lat=43.141136, altitude=153.90, speed=0.00, satellites=9, angle=230.0900, fixquality=1
$GPGGA,182911.200,4308.4685,N,07726.4397,W,1,09,1.14,153.9,M,-34.4,M,,*5E
$GPRMC,182911.200,A,4308.4685,N,07726.4397,W,0.00,0.00,270319,,,A*7F
lng=-77.440658, lat=43.141136, altitude=153.90, speed=0.01, satellites=9, angle=79.9600, fixquality=1
$GPGGA,182911.400,4308.4685,N,07726.4397,W,1,09,1.14,153.9,M,-34.4,M,,*58
$GPRMC,182911.400,A,4308.4685,N,07726.4397,W,0.01,256.36,270319,,,A*7C
lng=-77.440658, lat=43.141136, altitude=153.90, speed=0.00, satellites=9, angle=0.0000, fixquality=1
$GPGGA,182911.600,4308.4685,N,07726.4397,W,1,08,1.49,153.9,M,-34.4,M,,*53
$GPRMC,182911.600,A,4308.4685,N,07726.4397,W,0.01,65.48,270319,,,A*45
