Vers 57
USE_SERIAL_FEEDBACK=false
DEVELOPMENT_MODE=false
USE_RMC_ONLY=false

$GPRMC,142511.200,A,4308.3046,N,07726.2557,W,0.55,275.44,280319,,,A*72
$GPGGA,142511.400,4308.3044,N,07726.2555,W,1,08,1.13,169.9,M,-34.4,M,,*55
lng=-77.437599, lat=43.138412, altitude=169.90, speed=0.55, satellites=6, angle=275.4400, fixquality=1
$GPRMC,142511.600,A,4308.3042,N,07726.2552,W,0.51,274.82,280319,,,A*78
$GPGGA,142511.800,4308.3038,N,07726.2547,W,1,08,1.13,169.9,M,-34.4,M,,*51
lng=-77.437591, lat=43.138404, altitude=169.90, speed=0.51, satellites=8, angle=274.8200, fixquality=1
$GPRMC,142512.000,A,4308.3035,N,07726.2545,W,0.31,282.54,280319,,,A*7F
$GPGGA,142512.200,4308.3033,N,07726.2543,W,1,08,1.13,169.8,M,-34.4,M,,*56
lng=-77.437576, lat=43.138393, altitude=169.90, speed=0.31, satellites=8, angle=282.5400, fixquality=1
$GPRMC,142512.400,A,4308.3032,N,07726.2542,W,0.33,285.27,280319,,,A*7A
$GPGGA,142512.600,4308.3029,N,07726.2539,W,1,08,1.13,169.8,M,-34.4,M,,*54
lng=-77.437576, lat=43.138385, altitude=169.80, speed=0.33, satellites=8, angle=285.2700, fixquality=1
$GPRMC,142512.800,A,4308.3026,N,07726.2537,W,0.29,292.56,280319,,,A*7A
$GPGGA,142513.000,4308.3025,N,07726.2535,W,1,08,1.13,169.8,M,-34.4,M,,*53
lng=-77.437568, lat=43.138378, altitude=169.80, speed=0.29, satellites=8, angle=292.5600, fixquality=1
$GPRMC,142513.200,A,4308.3021,N,07726.2532,W,0.31,297.06,280319,,,A*7A
$GPGGA,142513.400,4308.3018,N,07726.2530,W,1,08,1.13,169.8,M,-34.4,M,,*5C
lng=-77.437553, lat=43.138370, altitude=169.80, speed=0.31, satellites=8, angle=297.0600, fixquality=1
$GPRMC,142513.600,A,4308.3017,N,07726.2530,W,0.31,296.39,280319,,,A*74
$GPGGA,142513.800,4308.3013,N,07726.2528,W,1,08,1.13,169.8,M,-34.4,M,,*52
lng=-77.437545, lat=43.138362, altitude=169.80, speed=0.31, satellites=8, angle=296.3900, fixquality=1
$GPRMC,142514.000,A,4308.3011,N,07726.2527,W,0.21,296.84,280319,,,A*72
$GPGGA,142514.200,4308.3010,N,07726.2526,W,1,08,1.13,169.8,M,-34.4,M,,*52
lng=-77.437545, lat=43.138355, altitude=169.80, speed=0.21, satellites=8, angle=296.8400, fixquality=1
$GPRMC,142514.400,A,4308.3010,N,07726.2528,W,0.12,310.70,280319,,,A*7C
$GPGGA,142514.600,4308.3010,N,07726.2529,W,1,08,1.13,169.8,M,-34.4,M,,*59
lng=-77.437545, lat=43.138347, altitude=169.80, speed=0.12, satellites=8, angle=310.7000, fixquality=1
$GPRMC,142514.800,A,4308.3009,N,07726.2532,W,0.08,342.34,280319,,,A*7F
$GPGGA,142515.000,4308.3008,N,07726.2532,W,1,08,1.13,169.8,M,-34.4,M,,*5D
lng=-77.437553, lat=43.138347, altitude=169.80, speed=0.08, satellites=8, angle=342.3400, fixquality=1
$GPRMC,142515.200,A,4308.3007,N,07726.2532,W,0.08,35.24,280319,,,A*48
$GPGGA,142515.400,4308.3006,N,07726.2533,W,1,08,1.13,169.8,M,-34.4,M,,*56
lng=-77.437553, lat=43.138347, altitude=169.80, speed=0.08, satellites=8, angle=35.2400, fixquality=1
$GPRMC,142515.600,A,4308.3005,N,07726.2532,W,0.09,80.28,280319,,,A*4D
$GPGGA,142515.800,4308.3004,N,07726.2532,W,1,08,1.13,169.8,M,-34.4,M,,*59
lng=-77.437553, lat=43.138339, altitude=169.80, speed=0.09, satellites=8, angle=80.2800, fixquality=1
$GPRMC,142516.000,A,4308.3004,N,07726.2533,W,0.06,104.09,280319,,,A*79
$GPGGA,142516.200,4308.3003,N,07726.2533,W,1,08,1.13,169.8,M,-34.4,M,,*56
lng=-77.437553, lat=43.138339, altitude=169.80, speed=0.06, satellites=8, angle=104.0900, fixquality=1
$GPRMC,142516.400,A,4308.3002,N,07726.2534,W,0.03,184.86,280319,,,A*76
$GPGGA,142516.600,4308.3002,N,07726.2534,W,1,08,1.13,169.8,M,-34.4,M,,*54
lng=-77.437553, lat=43.138339, altitude=169.80, speed=0.03, satellites=8, angle=184.8600, fixquality=1
$GPRMC,142516.800,A,4308.3001,N,07726.2533,W,0.05,204.72,280319,,,A*78
$GPGGA,142517.000,4308.3000,N,07726.2533,W,1,08,1.13,169.8,M,-34.4,M,,*56
lng=-77.437553, lat=43.138339, altitude=169.80, speed=0.05, satellites=8, angle=204.7200, fixquality=1
$GPRMC,142517.200,A,4308.3000,N,07726.2533,W,0.10,198.51,280319,,,A*71
$GPGGA,142517.400,4308.3000,N,07726.2532,W,1,08,1.13,169.8,M,-34.4,M,,*53
lng=-77.437553, lat=43.138328, altitude=169.80, speed=0.10, satellites=8, angle=198.5100, fixquality=1
$GPRMC,142517.600,A,4308.2999,N,07726.2531,W,0.15,187.18,280319,,,A*79
$GPGGA,142517.800,4308.2999,N,07726.2531,W,1,08,1.13,169.8,M,-34.4,M,,*54
lng=-77.437545, lat=43.138328, altitude=169.80, speed=0.15, satellites=8, angle=187.1800, fixquality=1
$GPRMC,142518.000,A,4308.2999,N,07726.2531,W,0.18,190.19,280319,,,A*7A
$GPGGA,142518.200,4308.3000,N,07726.2532,W,1,08,1.13,169.8,M,-34.4,M,,*5A
lng=-77.437545, lat=43.138328, altitude=169.80, speed=0.18, satellites=8, angle=190.1900, fixquality=1
$GPRMC,142518.400,A,4308.3000,N,07726.2532,W,0.21,189.02,280319,,,A*7D
$GPGGA,142518.600,4308.3000,N,07726.2532,W,1,08,1.13,169.8,M,-34.4,M,,*5E
lng=-77.437553, lat=43.138328, altitude=169.80, speed=0.21, satellites=8, angle=189.0200, fixquality=1
$GPRMC,142518.800,A,4308.3000,N,07726.2531,W,0.22,178.76,280319,,,A*7C
$GPGGA,142519.000,4308.3000,N,07726.2531,W,1,08,1.13,169.8,M,-34.4,M,,*5A
lng=-77.437545, lat=43.138328, altitude=169.80, speed=0.22, satellites=8, angle=178.7600, fixquality=1
$GPRMC,142519.200,A,4308.3000,N,07726.2531,W,0.17,190.17,280319,,,A*70
$GPGGA,142519.400,4308.3000,N,07726.2531,W,1,08,1.13,169.7,M,-34.4,M,,*51
lng=-77.437545, lat=43.138328, altitude=169.80, speed=0.17, satellites=8, angle=190.1700, fixquality=1
$GPRMC,142519.600,A,4308.3000,N,07726.2531,W,0.18,196.23,280319,,,A*7A
$GPGGA,142519.800,4308.3000,N,07726.2531,W,1,08,1.13,169.7,M,-34.4,M,,*5D
lng=-77.437545, lat=43.138328, altitude=169.70, speed=0.18, satellites=8, angle=196.2300, fixquality=1
$GPRMC,142520.000,A,4308.3000,N,07726.2531,W,0.19,191.31,280319,,,A*73
$GPGGA,142520.200,4308.2999,N,07726.2531,W,1,08,1.13,169.7,M,-34.4,M,,*55
lng=-77.437545, lat=43.138328, altitude=169.70, speed=0.19, satellites=8, angle=191.3100, fixquality=1
$GPRMC,142520.400,A,4308.2998,N,07726.2531,W,0.27,179.96,280319,,,A*78
$GPGGA,142520.600,4308.2998,N,07726.2530,W,1,08,1.13,169.7,M,-34.4,M,,*51
lng=-77.437545, lat=43.138328, altitude=169.70, speed=0.27, satellites=8, angle=179.9600, fixquality=1
$GPRMC,142520.800,A,4308.2997,N,07726.2530,W,0.31,177.15,280319,,,A*78
$GPGGA,142521.000,4308.2997,N,07726.2530,W,1,08,1.13,169.7,M,-34.4,M,,*59
lng=-77.437545, lat=43.138328, altitude=169.70, speed=0.31, satellites=8, angle=177.1500, fixquality=1
$GPRMC,142521.200,A,4308.2998,N,07726.2530,W,0.35,176.46,280319,,,A*7F
$GPGGA,142521.400,4308.2998,N,07726.2531,W,1,08,1.13,169.7,M,-34.4,M,,*53
lng=-77.437545, lat=43.138328, altitude=169.70, speed=0.35, satellites=8, angle=176.4600, fixquality=1
$GPRMC,142521.600,A,4308.2998,N,07726.2531,W,0.32,185.87,280319,,,A*7C
$GPGGA,142521.800,4308.2999,N,07726.2531,W,1,08,1.13,169.7,M,-34.4,M,,*5E
lng=-77.437545, lat=43.138328, altitude=169.70, speed=0.32, satellites=8, angle=185.8700, fixquality=1
$GPRMC,142522.000,A,4308.3000,N,07726.2531,W,0.26,197.17,280319,,,A*7F
$GPGGA,142522.200,4308.3000,N,07726.2530,W,1,08,1.13,169.7,M,-34.4,M,,*5E
lng=-77.437545, lat=43.138328, altitude=169.70, speed=0.26, satellites=8, angle=197.1700, fixquality=1
$GPRMC,142522.400,A,4308.3001,N,07726.2530,W,0.22,202.23,280319,,,A*77
$GPGGA,142522.600,4308.3001,N,07726.2530,W,1,08,1.13,169.7,M,-34.4,M,,*5B
lng=-77.437545, lat=43.138339, altitude=169.70, speed=0.22, satellites=8, angle=202.2300, fixquality=1
$GPRMC,142522.800,A,4308.3001,N,07726.2529,W,0.21,191.52,280319,,,A*7F
$GPGGA,142523.000,4308.3001,N,07726.2529,W,1,08,1.13,169.7,M,-34.4,M,,*54
lng=-77.437545, lat=43.138339, altitude=169.70, speed=0.21, satellites=8, angle=191.5200, fixquality=1
$GPRMC,142523.200,A,4308.3002,N,07726.2528,W,0.18,190.64,280319,,,A*78
$GPGGA,142523.400,4308.3002,N,07726.2528,W,1,08,1.13,169.7,M,-34.4,M,,*52
lng=-77.437545, lat=43.138339, altitude=169.70, speed=0.18, satellites=8, angle=190.6400, fixquality=1
$GPRMC,142523.600,A,4308.3002,N,07726.2528,W,0.17,186.20,280319,,,A*74
$GPGGA,142523.800,4308.3003,N,07726.2528,W,1,08,1.13,169.7,M,-34.4,M,,*5F
lng=-77.437545, lat=43.138339, altitude=169.70, speed=0.17, satellites=8, angle=186.2000, fixquality=1
$GPRMC,142524.000,A,4308.3004,N,07726.2528,W,0.13,184.34,280319,,,A*70
$GPGGA,142524.200,4308.3004,N,07726.2528,W,1,08,1.13,169.7,M,-34.4,M,,*55
lng=-77.437545, lat=43.138339, altitude=169.70, speed=0.13, satellites=8, angle=184.3400, fixquality=1
$GPRMC,142524.400,A,4308.3004,N,07726.2528,W,0.11,209.63,280319,,,A*72
$GPGGA,142524.600,4308.3003,N,07726.2528,W,1,08,1.13,169.7,M,-34.4,M,,*56
lng=-77.437545, lat=43.138339, altitude=169.70, speed=0.11, satellites=8, angle=209.6300, fixquality=1
$GPRMC,142524.800,A,4308.3003,N,07726.2528,W,0.11,212.69,280319,,,A*79
$GPGGA,142525.000,4308.3003,N,07726.2527,W,1,08,1.13,169.6,M,-34.4,M,,*5F
lng=-77.437545, lat=43.138339, altitude=169.70, speed=0.11, satellites=8, angle=212.6900, fixquality=1
$GPRMC,142525.200,A,4308.3003,N,07726.2527,W,0.15,195.56,280319,,,A*79
$GPGGA,142525.400,4308.3003,N,07726.2526,W,1,08,1.13,169.6,M,-34.4,M,,*5A
lng=-77.437545, lat=43.138339, altitude=169.60, speed=0.15, satellites=8, angle=195.5600, fixquality=1
$GPRMC,142525.600,A,4308.3003,N,07726.2526,W,0.16,189.78,280319,,,A*7E
$GPGGA,142525.800,4308.3003,N,07726.2526,W,1,08,1.13,169.6,M,-34.4,M,,*56
lng=-77.437538, lat=43.138339, altitude=169.60, speed=0.16, satellites=8, angle=189.7800, fixquality=1
$GPRMC,142526.000,A,4308.3003,N,07726.2525,W,0.17,194.20,280319,,,A*78
$GPGGA,142526.200,4308.3003,N,07726.2525,W,1,08,1.13,169.6,M,-34.4,M,,*5C
lng=-77.437538, lat=43.138339, altitude=169.60, speed=0.17, satellites=8, angle=194.2000, fixquality=1
$GPRMC,142526.400,A,4308.3004,N,07726.2524,W,0.17,193.65,280319,,,A*7C
$GPGGA,142526.600,4308.3003,N,07726.2524,W,1,08,1.13,169.6,M,-34.4,M,,*59
lng=-77.437538, lat=43.138339, altitude=169.60, speed=0.17, satellites=8, angle=193.6500, fixquality=1
$GPRMC,142526.800,A,4308.3004,N,07726.2524,W,0.16,196.01,280319,,,A*76
$GPGGA,142527.000,4308.3004,N,07726.2524,W,1,08,1.13,169.6,M,-34.4,M,,*59
lng=-77.437538, lat=43.138339, altitude=169.60, speed=0.16, satellites=8, angle=196.0100, fixquality=1
$GPRMC,142527.200,A,4308.3005,N,07726.2524,W,0.13,199.40,280319,,,A*73
$GPGGA,142527.400,4308.3005,N,07726.2524,W,1,08,1.13,169.6,M,-34.4,M,,*5C
lng=-77.437538, lat=43.138339, altitude=169.60, speed=0.13, satellites=8, angle=199.4000, fixquality=1
$GPRMC,142527.600,A,4308.3005,N,07726.2523,W,0.09,214.92,280319,,,A*72
$GPGGA,142527.800,4308.3005,N,07726.2523,W,1,08,1.13,169.6,M,-34.4,M,,*57
lng=-77.437538, lat=43.138339, altitude=169.60, speed=0.09, satellites=8, angle=214.9200, fixquality=1
$GPRMC,142528.000,A,4308.3005,N,07726.2523,W,0.09,211.25,280319,,,A*72
$GPGGA,142528.200,4308.3005,N,07726.2523,W,1,08,1.13,169.5,M,-34.4,M,,*51
lng=-77.437538, lat=43.138339, altitude=169.60, speed=0.09, satellites=8, angle=211.2500, fixquality=1
$GPRMC,142528.400,A,4308.3006,N,07726.2523,W,0.05,249.08,280319,,,A*7B
$GPGGA,142528.600,4308.3006,N,07726.2523,W,1,08,1.13,169.5,M,-34.4,M,,*56
lng=-77.437538, lat=43.138347, altitude=169.50, speed=0.05, satellites=8, angle=249.0800, fixquality=1
$GPRMC,142528.800,A,4308.3006,N,07726.2523,W,0.08,284.15,280319,,,A*77
$GPGGA,142529.000,4308.3007,N,07726.2523,W,1,08,1.13,169.5,M,-34.4,M,,*50
lng=-77.437538, lat=43.138347, altitude=169.50, speed=0.08, satellites=8, angle=284.1500, fixquality=1
$GPRMC,142529.200,A,4308.3007,N,07726.2523,W,0.08,278.65,280319,,,A*79
$GPGGA,142529.400,4308.3007,N,07726.2522,W,1,08,1.13,169.5,M,-34.4,M,,*55
lng=-77.437538, lat=43.138347, altitude=169.50, speed=0.08, satellites=8, angle=278.6500, fixquality=1
$GPRMC,142529.600,A,4308.3007,N,07726.2522,W,0.08,279.76,280319,,,A*7F
$GPGGA,142529.800,4308.3007,N,07726.2522,W,1,08,1.13,169.5,M,-34.4,M,,*59
lng=-77.437530, lat=43.138347, altitude=169.50, speed=0.08, satellites=8, angle=279.7600, fixquality=1
$GPRMC,142530.000,A,4308.3007,N,07726.2522,W,0.08,290.46,280319,,,A*75
$GPGGA,142530.200,4308.3007,N,07726.2522,W,1,08,1.13,169.5,M,-34.4,M,,*5B
lng=-77.437530, lat=43.138347, altitude=169.50, speed=0.08, satellites=8, angle=290.4600, fixquality=1
$GPRMC,142530.400,A,4308.3008,N,07726.2522,W,0.10,328.81,280319,,,A*7E
$GPGGA,142530.600,4308.3008,N,07726.2521,W,1,08,1.13,169.5,M,-34.4,M,,*53
lng=-77.437530, lat=43.138347, altitude=169.50, speed=0.10, satellites=8, angle=328.8100, fixquality=1
$GPRMC,142530.800,A,4308.3007,N,07726.2521,W,0.06,331.62,280319,,,A*7C
$GPGGA,142531.000,4308.3008,N,07726.2521,W,1,08,1.13,169.5,M,-34.4,M,,*54
lng=-77.437530, lat=43.138347, altitude=169.50, speed=0.06, satellites=8, angle=331.6200, fixquality=1
$GPRMC,142531.200,A,4308.3008,N,07726.2521,W,0.10,343.55,280319,,,A*7E
$GPGGA,142531.400,4308.3008,N,07726.2522,W,1,08,1.13,169.4,M,-34.4,M,,*52
lng=-77.437530, lat=43.138347, altitude=169.50, speed=0.10, satellites=8, angle=343.5500, fixquality=1
$GPRMC,142531.600,A,4308.3008,N,07726.2522,W,0.13,335.55,280319,,,A*7B
$GPGGA,142531.800,4308.3008,N,07726.2522,W,1,08,1.13,169.4,M,-34.4,M,,*5E
lng=-77.437530, lat=43.138347, altitude=169.40, speed=0.13, satellites=8, angle=335.5500, fixquality=1
$GPRMC,142532.000,A,4308.3008,N,07726.2522,W,0.13,329.95,280319,,,A*7F
$GPGGA,142532.200,4308.3008,N,07726.2521,W,1,08,1.13,169.4,M,-34.4,M,,*54
lng=-77.437530, lat=43.138347, altitude=169.40, speed=0.13, satellites=8, angle=329.9500, fixquality=1
$GPRMC,142532.400,A,4308.3009,N,07726.2520,W,0.11,332.75,280319,,,A*7E
$GPGGA,142532.600,4308.3010,N,07726.2519,W,1,08,1.13,169.4,M,-34.4,M,,*52
lng=-77.437530, lat=43.138347, altitude=169.40, speed=0.11, satellites=8, angle=332.7500, fixquality=1
$GPRMC,142532.800,A,4308.3012,N,07726.2518,W,0.16,345.62,280319,,,A*72
$GPGGA,142533.000,4308.3014,N,07726.2517,W,1,08,1.21,169.4,M,-34.4,M,,*5E
lng=-77.437530, lat=43.138355, altitude=169.40, speed=0.16, satellites=8, angle=345.6200, fixquality=1
$GPRMC,142533.200,A,4308.3016,N,07726.2516,W,0.29,6.21,280319,,,A*7C
$GPGGA,142533.400,4308.3016,N,07726.2515,W,1,08,1.21,169.4,M,-34.4,M,,*5A
lng=-77.437522, lat=43.138362, altitude=169.40, speed=0.29, satellites=8, angle=6.2100, fixquality=1
$GPRMC,142533.600,A,4308.3017,N,07726.2513,W,0.36,20.39,280319,,,A*4F
$GPGGA,142533.800,4308.3018,N,07726.2512,W,1,08,1.13,169.4,M,-34.4,M,,*5E
lng=-77.437522, lat=43.138362, altitude=169.40, speed=0.36, satellites=8, angle=20.3900, fixquality=1
$GPRMC,142534.000,A,4308.3018,N,07726.2510,W,0.36,36.64,280319,,,A*4D
$GPGGA,142534.200,4308.3017,N,07726.2510,W,1,08,1.13,169.3,M,-34.4,M,,*59
lng=-77.437515, lat=43.138362, altitude=169.40, speed=0.36, satellites=8, angle=36.6400, fixquality=1
$GPRMC,142534.400,A,4308.3017,N,07726.2510,W,0.29,39.56,280319,,,A*46
$GPGGA,142534.600,4308.3019,N,07726.2508,W,1,08,1.13,169.3,M,-34.4,M,,*5A
lng=-77.437515, lat=43.138362, altitude=169.30, speed=0.29, satellites=8, angle=39.5600, fixquality=1
$GPRMC,142534.800,A,4308.3019,N,07726.2505,W,0.46,46.15,280319,,,A*46
$GPGGA,142535.000,4308.3020,N,07726.2505,W,1,08,1.13,169.3,M,-34.4,M,,*5A
lng=-77.437507, lat=43.138362, altitude=169.30, speed=0.46, satellites=8, angle=46.1500, fixquality=1
$GPRMC,142535.200,A,4308.3022,N,07726.2504,W,0.58,38.24,280319,,,A*40
$GPGGA,142535.400,4308.3023,N,07726.2505,W,1,08,1.13,169.2,M,-34.4,M,,*5C
lng=-77.437507, lat=43.138370, altitude=169.30, speed=0.58, satellites=8, angle=38.2400, fixquality=1
$GPRMC,142535.600,A,4308.3024,N,07726.2504,W,0.65,31.32,280319,,,A*42
$GPGGA,142535.800,4308.3026,N,07726.2503,W,1,08,1.13,169.2,M,-34.4,M,,*53
lng=-77.437507, lat=43.138370, altitude=169.20, speed=0.65, satellites=8, angle=31.3200, fixquality=1
$GPRMC,142536.000,A,4308.3028,N,07726.2504,W,0.89,24.98,280319,,,A*4D
$GPGGA,142536.200,4308.3030,N,07726.2504,W,1,08,1.13,169.2,M,-34.4,M,,*5A
lng=-77.437507, lat=43.138378, altitude=169.20, speed=0.89, satellites=8, angle=24.9800, fixquality=1
$GPRMC,142536.400,A,4308.3032,N,07726.2504,W,1.10,15.71,280319,,,A*46
$GPGGA,142536.600,4308.3033,N,07726.2502,W,1,08,1.13,169.2,M,-34.4,M,,*5B
lng=-77.437507, lat=43.138385, altitude=169.20, speed=1.10, satellites=8, angle=15.7100, fixquality=1
$GPRMC,142536.800,A,4308.3036,N,07726.2501,W,1.21,13.44,280319,,,A*49
$GPGGA,142537.000,4308.3037,N,07726.2501,W,1,08,1.21,169.4,M,-34.4,M,,*5C
lng=-77.437500, lat=43.138393, altitude=169.20, speed=1.21, satellites=8, angle=13.4400, fixquality=1
$GPRMC,142537.200,A,4308.3038,N,07726.2503,W,1.31,10.63,280319,,,A*49
$GPGGA,142537.400,4308.3041,N,07726.2505,W,1,08,1.21,169.7,M,-34.4,M,,*5E
lng=-77.437507, lat=43.138393, altitude=169.40, speed=1.31, satellites=8, angle=10.6300, fixquality=1
$GPRMC,142537.600,A,4308.3044,N,07726.2506,W,1.46,8.36,280319,,,A*7A
$GPGGA,142537.800,4308.3047,N,07726.2507,W,1,08,1.21,170.0,M,-34.4,M,,*59
lng=-77.437507, lat=43.138404, altitude=169.70, speed=1.46, satellites=8, angle=8.3600, fixquality=1
$GPRMC,142538.000,A,4308.3050,N,07726.2508,W,1.74,8.29,280319,,,A*77
$GPGGA,142538.200,4308.3054,N,07726.2511,W,1,08,1.21,170.3,M,-34.4,M,,*5A
lng=-77.437515, lat=43.138420, altitude=170.00, speed=1.74, satellites=8, angle=8.2900, fixquality=1
$GPRMC,142538.400,A,4308.3055,N,07726.2513,W,2.29,17.16,280319,,,A*45
$GPGGA,142538.600,4308.3056,N,07726.2514,W,1,08,1.13,170.9,M,-34.4,M,,*52
lng=-77.437522, lat=43.138427, altitude=170.30, speed=2.29, satellites=8, angle=17.1600, fixquality=1
$GPRMC,142538.800,A,4308.3058,N,07726.2515,W,2.50,15.27,280319,,,A*4C
$GPGGA,142539.000,4308.3061,N,07726.2516,W,1,08,1.13,171.1,M,-34.4,M,,*5A
lng=-77.437522, lat=43.138427, altitude=170.90, speed=2.50, satellites=8, angle=15.2700, fixquality=1
$GPRMC,142539.200,A,4308.3064,N,07726.2517,W,3.12,8.96,280319,,,A*7B
$GPGGA,142539.400,4308.3066,N,07726.2518,W,1,08,1.21,171.3,M,-34.4,M,,*54
lng=-77.437522, lat=43.138442, altitude=171.10, speed=3.12, satellites=8, angle=8.9600, fixquality=1
$GPRMC,142539.600,A,4308.3069,N,07726.2519,W,3.59,10.44,280319,,,A*45
$GPGGA,142539.800,4308.3071,N,07726.2519,W,1,08,1.21,171.4,M,-34.4,M,,*58
lng=-77.437530, lat=43.138450, altitude=171.30, speed=3.59, satellites=8, angle=10.4400, fixquality=1
$GPRMC,142540.000,A,4308.3074,N,07726.2520,W,3.96,6.41,280319,,,A*7A
$GPGGA,142540.200,4308.3077,N,07726.2521,W,1,08,1.21,171.4,M,-34.4,M,,*51
lng=-77.437530, lat=43.138462, altitude=171.40, speed=3.96, satellites=8, angle=6.4100, fixquality=1
$GPRMC,142540.400,A,4308.3079,N,07726.2521,W,4.54,6.03,280319,,,A*7D
$GPGGA,142540.600,4308.3081,N,07726.2521,W,1,08,1.21,171.4,M,-34.4,M,,*5C
lng=-77.437530, lat=43.138469, altitude=171.40, speed=4.54, satellites=8, angle=6.0300, fixquality=1
$GPRMC,142540.800,A,4308.3083,N,07726.2521,W,4.97,6.82,280319,,,A*72
$GPGGA,142541.000,4308.3086,N,07726.2522,W,1,08,1.21,171.5,M,-34.4,M,,*5E
lng=-77.437530, lat=43.138469, altitude=171.40, speed=4.97, satellites=8, angle=6.8200, fixquality=1
$GPRMC,142541.200,A,4308.3090,N,07726.2524,W,5.36,5.36,280319,,,A*78
$GPGGA,142541.400,4308.3092,N,07726.2523,W,1,08,1.21,171.4,M,-34.4,M,,*5F
lng=-77.437538, lat=43.138484, altitude=171.50, speed=5.36, satellites=8, angle=5.3600, fixquality=1
$GPRMC,142541.600,A,4308.3095,N,07726.2523,W,5.53,4.99,280319,,,A*79
$GPGGA,142541.800,4308.3097,N,07726.2524,W,1,08,1.21,171.4,M,-34.4,M,,*51
lng=-77.437538, lat=43.138492, altitude=171.40, speed=5.53, satellites=8, angle=4.9900, fixquality=1
$GPRMC,142542.000,A,4308.3100,N,07726.2524,W,5.68,6.13,280319,,,A*7E
$GPGGA,142542.200,4308.3102,N,07726.2525,W,1,08,1.21,171.5,M,-34.4,M,,*55
lng=-77.437538, lat=43.138500, altitude=171.40, speed=5.68, satellites=8, angle=6.1300, fixquality=1
$GPRMC,142542.400,A,4308.3105,N,07726.2527,W,6.07,6.35,280319,,,A*72
$GPGGA,142542.600,4308.3108,N,07726.2529,W,1,08,1.21,171.6,M,-34.4,M,,*54
lng=-77.437545, lat=43.138507, altitude=171.50, speed=6.07, satellites=8, angle=6.3500, fixquality=1
$GPRMC,142542.800,A,4308.3111,N,07726.2530,W,6.08,8.66,280319,,,A*7A
$GPGGA,142543.000,4308.3114,N,07726.2531,W,1,08,1.21,171.5,M,-34.4,M,,*54
lng=-77.437545, lat=43.138515, altitude=171.60, speed=6.08, satellites=8, angle=8.6600, fixquality=1
$GPRMC,142543.200,A,4308.3117,N,07726.2531,W,5.79,12.56,280319,,,A*4B
$GPGGA,142543.400,4308.3121,N,07726.2534,W,1,08,1.21,171.3,M,-34.4,M,,*55
lng=-77.437545, lat=43.138526, altitude=171.50, speed=5.79, satellites=8, angle=12.5600, fixquality=1
$GPRMC,142543.600,A,4308.3124,N,07726.2536,W,6.29,13.03,280319,,,A*4F
$GPGGA,142543.800,4308.3128,N,07726.2538,W,1,08,1.21,171.1,M,-34.4,M,,*5E
lng=-77.437553, lat=43.138542, altitude=171.30, speed=6.29, satellites=8, angle=13.0300, fixquality=1
$GPRMC,142544.000,A,4308.3131,N,07726.2539,W,6.24,15.78,280319,,,A*42
$GPGGA,142544.200,4308.3135,N,07726.2540,W,1,08,1.21,171.0,M,-34.4,M,,*51
lng=-77.437568, lat=43.138549, altitude=171.10, speed=6.24, satellites=8, angle=15.7800, fixquality=1
$GPRMC,142544.400,A,4308.3138,N,07726.2542,W,5.83,17.77,280319,,,A*40
$GPGGA,142544.600,4308.3141,N,07726.2543,W,1,08,1.21,170.9,M,-34.4,M,,*5D
lng=-77.437576, lat=43.138565, altitude=171.00, speed=5.83, satellites=8, angle=17.7700, fixquality=1
$GPRMC,142544.800,A,4308.3143,N,07726.2543,W,5.02,19.94,280319,,,A*4B
$GPGGA,142545.000,4308.3145,N,07726.2542,W,1,08,1.21,170.6,M,-34.4,M,,*50
lng=-77.437576, lat=43.138572, altitude=170.90, speed=5.02, satellites=8, angle=19.9400, fixquality=1
$GPRMC,142545.200,A,4308.3147,N,07726.2541,W,4.40,24.21,280319,,,A*41
$GPGGA,142545.400,4308.3149,N,07726.2541,W,1,08,1.21,170.5,M,-34.4,M,,*58
lng=-77.437568, lat=43.138584, altitude=170.60, speed=4.40, satellites=8, angle=24.2100, fixquality=1
$GPRMC,142545.600,A,4308.3151,N,07726.2541,W,3.40,29.16,280319,,,A*4C
$GPGGA,142545.800,4308.3154,N,07726.2544,W,1,08,1.13,170.3,M,-34.4,M,,*5A
lng=-77.437568, lat=43.138584, altitude=170.50, speed=3.40, satellites=8, angle=29.1600, fixquality=1
$GPRMC,142546.000,A,4308.3156,N,07726.2547,W,2.42,24.87,280319,,,A*4E
$GPGGA,142546.200,4308.3158,N,07726.2549,W,1,08,1.13,170.1,M,-34.4,M,,*50
lng=-77.437583, lat=43.138591, altitude=170.30, speed=2.42, satellites=8, angle=24.8700, fixquality=1
$GPRMC,142546.400,A,4308.3159,N,07726.2550,W,2.07,37.78,280319,,,A*40
$GPGGA,142546.600,4308.3161,N,07726.2552,W,1,08,1.13,169.9,M,-34.4,M,,*54
lng=-77.437583, lat=43.138599, altitude=170.10, speed=2.07, satellites=8, angle=37.7800, fixquality=1
$GPRMC,142546.800,A,4308.3163,N,07726.2552,W,2.62,37.02,280319,,,A*49
$GPGGA,142547.000,4308.3165,N,07726.2552,W,1,08,1.13,169.6,M,-34.4,M,,*58
lng=-77.437591, lat=43.138607, altitude=169.90, speed=2.62, satellites=8, angle=37.0200, fixquality=1
$GPRMC,142547.200,A,4308.3167,N,07726.2552,W,3.15,46.19,280319,,,A*4B
$GPGGA,142547.400,4308.3168,N,07726.2551,W,1,08,1.13,169.4,M,-34.4,M,,*50
lng=-77.437591, lat=43.138614, altitude=169.60, speed=3.15, satellites=8, angle=46.1900, fixquality=1
$GPRMC,142547.600,A,4308.3169,N,07726.2549,W,3.23,52.22,280319,,,A*43
$GPGGA,142547.800,4308.3171,N,07726.2546,W,1,08,1.13,169.0,M,-34.4,M,,*56
lng=-77.437583, lat=43.138614, altitude=169.40, speed=3.23, satellites=8, angle=52.2200, fixquality=1
$GPRMC,142548.000,A,4308.3172,N,07726.2543,W,3.20,50.05,280319,,,A*4E
$GPGGA,142548.200,4308.3173,N,07726.2542,W,1,08,1.13,168.6,M,-34.4,M,,*52
lng=-77.437576, lat=43.138622, altitude=169.00, speed=3.20, satellites=8, angle=50.0500, fixquality=1
$GPRMC,142548.400,A,4308.3174,N,07726.2540,W,2.97,59.24,280319,,,A*48
$GPGGA,142548.600,4308.3175,N,07726.2538,W,1,08,1.13,168.3,M,-34.4,M,,*58
lng=-77.437568, lat=43.138622, altitude=168.60, speed=2.97, satellites=8, angle=59.2400, fixquality=1
$GPRMC,142548.800,A,4308.3176,N,07726.2536,W,2.77,62.24,280319,,,A*41
$GPGGA,142549.000,4308.3176,N,07726.2534,W,1,08,1.13,168.0,M,-34.4,M,,*53
lng=-77.437553, lat=43.138622, altitude=168.30, speed=2.77, satellites=8, angle=62.2400, fixquality=1
$GPRMC,142549.200,A,4308.3176,N,07726.2532,W,2.21,70.57,280319,,,A*4A
$GPGGA,142549.400,4308.3175,N,07726.2531,W,1,08,1.13,167.8,M,-34.4,M,,*56
lng=-77.437553, lat=43.138622, altitude=168.00, speed=2.21, satellites=8, angle=70.5700, fixquality=1
$GPRMC,142549.600,A,4308.3174,N,07726.2530,W,1.98,76.93,280319,,,A*41
$GPGGA,142549.800,4308.3174,N,07726.2528,W,1,08,1.13,167.6,M,-34.4,M,,*5D
lng=-77.437545, lat=43.138622, altitude=167.80, speed=1.98, satellites=8, angle=76.9300, fixquality=1
$GPRMC,142550.000,A,4308.3173,N,07726.2526,W,2.10,78.17,280319,,,A*4E
$GPGGA,142550.200,4308.3173,N,07726.2524,W,1,08,1.13,167.4,M,-34.4,M,,*56
lng=-77.437538, lat=43.138622, altitude=167.60, speed=2.10, satellites=8, angle=78.1700, fixquality=1
$GPRMC,142550.400,A,4308.3173,N,07726.2523,W,2.05,85.83,280319,,,A*44
$GPGGA,142550.600,4308.3173,N,07726.2521,W,1,08,1.13,167.1,M,-34.4,M,,*52
lng=-77.437538, lat=43.138622, altitude=167.40, speed=2.05, satellites=8, angle=85.8300, fixquality=1
$GPRMC,142550.800,A,4308.3173,N,07726.2519,W,2.29,89.98,280319,,,A*49
$GPGGA,142551.000,4308.3173,N,07726.2517,W,1,08,1.13,167.0,M,-34.4,M,,*51
lng=-77.437530, lat=43.138622, altitude=167.10, speed=2.29, satellites=8, angle=89.9800, fixquality=1
$GPRMC,142551.200,A,4308.3172,N,07726.2515,W,2.51,99.97,280319,,,A*4E
$GPGGA,142551.400,4308.3172,N,07726.2513,W,1,08,1.13,166.8,M,-34.4,M,,*59
lng=-77.437522, lat=43.138622, altitude=167.00, speed=2.51, satellites=8, angle=99.9700, fixquality=1
$GPRMC,142551.600,A,4308.3172,N,07726.2511,W,2.81,101.08,280319,,,A*75
$GPGGA,142551.800,4308.3171,N,07726.2510,W,1,08,1.13,166.7,M,-34.4,M,,*5A
lng=-77.437515, lat=43.138622, altitude=166.80, speed=2.81, satellites=8, angle=101.0800, fixquality=1
$GPRMC,142552.000,A,4308.3171,N,07726.2508,W,2.93,104.08,280319,,,A*7D
$GPGGA,142552.200,4308.3170,N,07726.2505,W,1,08,1.13,166.6,M,-34.4,M,,*57
lng=-77.437515, lat=43.138614, altitude=166.70, speed=2.93, satellites=8, angle=104.0800, fixquality=1
$GPRMC,142552.400,A,4308.3170,N,07726.2503,W,3.51,114.63,280319,,,A*70
$GPGGA,142552.600,4308.3169,N,07726.2501,W,1,08,1.13,166.4,M,-34.4,M,,*5D
lng=-77.437507, lat=43.138614, altitude=166.60, speed=3.51, satellites=8, angle=114.6300, fixquality=1
$GPRMC,142552.800,A,4308.3168,N,07726.2499,W,3.64,117.13,280319,,,A*75
$GPGGA,142553.000,4308.3168,N,07726.2496,W,1,08,1.13,166.3,M,-34.4,M,,*53
lng=-77.437500, lat=43.138614, altitude=166.40, speed=3.64, satellites=8, angle=117.1300, fixquality=1
$GPRMC,142553.200,A,4308.3167,N,07726.2494,W,3.46,107.79,280319,,,A*71
$GPGGA,142553.400,4308.3167,N,07726.2491,W,1,08,1.13,166.2,M,-34.4,M,,*5E
lng=-77.437492, lat=43.138614, altitude=166.30, speed=3.46, satellites=8, angle=107.7900, fixquality=1
$GPRMC,142553.600,A,4308.3166,N,07726.2489,W,3.23,108.27,280319,,,A*7F
$GPGGA,142553.800,4308.3165,N,07726.2487,W,1,08,1.13,166.1,M,-34.4,M,,*54
lng=-77.437484, lat=43.138607, altitude=166.20, speed=3.23, satellites=8, angle=108.2700, fixquality=1
$GPRMC,142554.000,A,4308.3165,N,07726.2485,W,2.51,111.49,280319,,,A*75
$GPGGA,142554.200,4308.3165,N,07726.2483,W,1,08,1.13,166.0,M,-34.4,M,,*5C
lng=-77.437477, lat=43.138607, altitude=166.10, speed=2.51, satellites=8, angle=111.4900, fixquality=1
$GPRMC,142554.400,A,4308.3165,N,07726.2482,W,1.89,107.38,280319,,,A*71
$GPGGA,142554.600,4308.3165,N,07726.2481,W,1,08,1.13,165.8,M,-34.4,M,,*51
lng=-77.437469, lat=43.138607, altitude=166.00, speed=1.89, satellites=8, angle=107.3800, fixquality=1
$GPRMC,142554.800,A,4308.3165,N,07726.2480,W,1.13,102.90,280319,,,A*7B
$GPGGA,142555.000,4308.3165,N,07726.2479,W,1,07,1.34,165.7,M,-34.4,M,,*54
lng=-77.437469, lat=43.138607, altitude=165.80, speed=1.13, satellites=8, angle=102.9000, fixquality=1
$GPRMC,142555.200,A,4308.3165,N,07726.2479,W,0.76,103.71,280319,,,A*7A
$GPGGA,142555.400,4308.3165,N,07726.2479,W,1,07,1.34,165.6,M,-34.4,M,,*51
lng=-77.437469, lat=43.138607, altitude=165.70, speed=0.76, satellites=7, angle=103.7100, fixquality=1
$GPRMC,142555.600,A,4308.3166,N,07726.2479,W,0.44,46.83,280319,,,A*41
$GPGGA,142555.800,4308.3168,N,07726.2479,W,1,07,1.34,165.6,M,-34.4,M,,*50
lng=-77.437469, lat=43.138607, altitude=165.60, speed=0.44, satellites=7, angle=46.8300, fixquality=1
$GPRMC,142556.000,A,4308.3167,N,07726.2484,W,1.15,289.34,280319,,,A*7F
$GPGGA,142556.200,4308.3167,N,07726.2485,W,1,08,1.13,165.4,M,-34.4,M,,*5D
lng=-77.437477, lat=43.138614, altitude=165.60, speed=1.15, satellites=7, angle=289.3400, fixquality=1
$GPRMC,142556.400,A,4308.3168,N,07726.2487,W,1.89,282.75,280319,,,A*7C
$GPGGA,142556.600,4308.3168,N,07726.2488,W,1,08,1.13,165.3,M,-34.4,M,,*5C
lng=-77.437477, lat=43.138614, altitude=165.40, speed=1.89, satellites=8, angle=282.7500, fixquality=1
$GPRMC,142556.800,A,4308.3168,N,07726.2490,W,2.09,275.51,280319,,,A*73
$GPGGA,142557.000,4308.3168,N,07726.2491,W,1,08,1.13,165.1,M,-34.4,M,,*51
lng=-77.437484, lat=43.138614, altitude=165.30, speed=2.09, satellites=8, angle=275.5100, fixquality=1
$GPRMC,142557.200,A,4308.3168,N,07726.2493,W,2.20,281.82,280319,,,A*75
$GPGGA,142557.400,4308.3169,N,07726.2495,W,1,07,1.34,165.0,M,-34.4,M,,*5B
lng=-77.437492, lat=43.138614, altitude=165.10, speed=2.20, satellites=8, angle=281.8200, fixquality=1
$GPRMC,142557.600,A,4308.3169,N,07726.2496,W,2.06,274.13,280319,,,A*73
$GPGGA,142557.800,4308.3169,N,07726.2498,W,1,07,1.34,164.9,M,-34.4,M,,*52
lng=-77.437492, lat=43.138614, altitude=165.00, speed=2.06, satellites=7, angle=274.1300, fixquality=1
$GPRMC,142558.000,A,4308.3169,N,07726.2500,W,2.00,271.20,280319,,,A*77
$GPGGA,142558.200,4308.3169,N,07726.2501,W,1,07,1.34,164.7,M,-34.4,M,,*58
lng=-77.437500, lat=43.138614, altitude=164.90, speed=2.00, satellites=7, angle=271.2000, fixquality=1
$GPRMC,142558.400,A,4308.3170,N,07726.2503,W,1.91,274.08,280319,,,A*7C
$GPGGA,142558.600,4308.3170,N,07726.2504,W,1,07,1.34,164.6,M,-34.4,M,,*50
lng=-77.437507, lat=43.138614, altitude=164.70, speed=1.91, satellites=7, angle=274.0800, fixquality=1
$GPRMC,142558.800,A,4308.3170,N,07726.2505,W,1.56,277.80,280319,,,A*7E
$GPGGA,142559.000,4308.3170,N,07726.2507,W,1,07,1.34,164.4,M,-34.4,M,,*56
lng=-77.437507, lat=43.138614, altitude=164.60, speed=1.56, satellites=7, angle=277.8000, fixquality=1
$GPRMC,142559.200,A,4308.3170,N,07726.2508,W,1.19,275.50,280319,,,A*7C
$GPGGA,142559.400,4308.3169,N,07726.2509,W,1,08,1.13,164.4,M,-34.4,M,,*5E
lng=-77.437515, lat=43.138614, altitude=164.40, speed=1.19, satellites=7, angle=275.5000, fixquality=1
$GPRMC,142559.600,A,4308.3169,N,07726.2509,W,0.83,269.70,280319,,,A*7C
$GPGGA,142559.800,4308.3169,N,07726.2510,W,1,08,1.13,164.2,M,-34.4,M,,*5C
lng=-77.437515, lat=43.138614, altitude=164.40, speed=0.83, satellites=8, angle=269.7000, fixquality=1
$GPRMC,142600.000,A,4308.3169,N,07726.2511,W,0.29,283.44,280319,,,A*7F
$GPGGA,142600.200,4308.3169,N,07726.2511,W,1,08,1.13,164.2,M,-34.4,M,,*58
lng=-77.437515, lat=43.138614, altitude=164.20, speed=0.29, satellites=8, angle=283.4400, fixquality=1
$GPRMC,142600.400,A,4308.3169,N,07726.2511,W,0.10,275.49,280319,,,A*75
$GPGGA,142600.600,4308.3169,N,07726.2512,W,1,08,1.13,164.1,M,-34.4,M,,*5C
lng=-77.437515, lat=43.138614, altitude=164.20, speed=0.10, satellites=8, angle=275.4900, fixquality=1
$GPRMC,142600.800,A,4308.3169,N,07726.2512,W,0.05,292.10,280319,,,A*7B
$GPGGA,142601.000,4308.3169,N,07726.2513,W,1,08,1.13,164.0,M,-34.4,M,,*5B
lng=-77.437515, lat=43.138614, altitude=164.10, speed=0.05, satellites=8, angle=292.1000, fixquality=1
$GPRMC,142601.200,A,4308.3169,N,07726.2513,W,0.02,15.22,280319,,,A*4A
$GPGGA,142601.400,4308.3169,N,07726.2513,W,1,08,1.13,164.0,M,-34.4,M,,*5F
lng=-77.437522, lat=43.138614, altitude=164.00, speed=0.02, satellites=8, angle=15.2200, fixquality=1
$GPRMC,142601.600,A,4308.3169,N,07726.2513,W,0.03,343.14,280319,,,A*7A
$GPGGA,142601.800,4308.3169,N,07726.2514,W,1,08,1.13,164.0,M,-34.4,M,,*54
lng=-77.437522, lat=43.138614, altitude=164.00, speed=0.03, satellites=8, angle=343.1400, fixquality=1
$GPRMC,142602.000,A,4308.3169,N,07726.2515,W,0.01,217.02,280319,,,A*7C
$GPGGA,142602.200,4308.3169,N,07726.2515,W,1,08,1.13,163.9,M,-34.4,M,,*52
lng=-77.437522, lat=43.138614, altitude=164.00, speed=0.01, satellites=8, angle=217.0200, fixquality=1
$GPRMC,142602.400,A,4308.3169,N,07726.2516,W,0.03,186.43,280319,,,A*77
$GPGGA,142602.600,4308.3168,N,07726.2517,W,1,08,1.13,163.8,M,-34.4,M,,*54
lng=-77.437522, lat=43.138614, altitude=163.90, speed=0.03, satellites=8, angle=186.4300, fixquality=1
$GPRMC,142602.800,A,4308.3168,N,07726.2518,W,0.02,347.39,280319,,,A*77
$GPGGA,142603.000,4308.3168,N,07726.2519,W,1,08,1.21,163.7,M,-34.4,M,,*53
lng=-77.437530, lat=43.138614, altitude=163.80, speed=0.02, satellites=8, angle=347.3900, fixquality=1
$GPRMC,142603.200,A,4308.3169,N,07726.2519,W,0.03,39.14,280319,,,A*48
$GPGGA,142603.400,4308.3169,N,07726.2519,W,1,08,1.13,163.7,M,-34.4,M,,*57
lng=-77.437530, lat=43.138614, altitude=163.70, speed=0.03, satellites=8, angle=39.1400, fixquality=1
$GPRMC,142603.600,A,4308.3169,N,07726.2519,W,0.04,178.51,280319,,,A*7E
$GPGGA,142603.800,4308.3168,N,07726.2519,W,1,08,1.13,163.7,M,-34.4,M,,*5A
lng=-77.437530, lat=43.138614, altitude=163.70, speed=0.04, satellites=8, angle=178.5100, fixquality=1
$GPRMC,142604.000,A,4308.3168,N,07726.2519,W,0.46,271.67,280319,,,A*77
$GPGGA,142604.200,4308.3168,N,07726.2520,W,1,08,1.13,163.7,M,-34.4,M,,*5D
lng=-77.437530, lat=43.138614, altitude=163.70, speed=0.46, satellites=8, angle=271.6700, fixquality=1
$GPRMC,142604.400,A,4308.3169,N,07726.2520,W,1.60,268.69,280319,,,A*7B
$GPGGA,142604.600,4308.3169,N,07726.2522,W,1,08,1.13,163.7,M,-34.4,M,,*5A
lng=-77.437530, lat=43.138614, altitude=163.70, speed=1.60, satellites=8, angle=268.6900, fixquality=1
$GPRMC,142604.800,A,4308.3169,N,07726.2524,W,2.48,273.65,280319,,,A*7C
$GPGGA,142605.000,4308.3169,N,07726.2527,W,1,07,1.34,163.6,M,-34.4,M,,*53
lng=-77.437538, lat=43.138614, altitude=163.70, speed=2.48, satellites=8, angle=273.6500, fixquality=1
$GPRMC,142605.200,A,4308.3169,N,07726.2530,W,3.70,274.28,280319,,,A*76
$GPGGA,142605.400,4308.3170,N,07726.2533,W,1,08,1.13,163.5,M,-34.4,M,,*53
lng=-77.437545, lat=43.138614, altitude=163.60, speed=3.70, satellites=7, angle=274.2800, fixquality=1
$GPRMC,142605.600,A,4308.3170,N,07726.2537,W,4.62,278.52,280319,,,A*78
$GPGGA,142605.800,4308.3171,N,07726.2541,W,1,08,1.21,163.4,M,-34.4,M,,*5B
lng=-77.437568, lat=43.138614, altitude=163.50, speed=4.62, satellites=8, angle=278.5200, fixquality=1
$GPRMC,142606.000,A,4308.3171,N,07726.2546,W,5.32,282.30,280319,,,A*7F
$GPGGA,142606.200,4308.3172,N,07726.2551,W,1,08,1.21,163.3,M,-34.4,M,,*57
lng=-77.437576, lat=43.138614, altitude=163.40, speed=5.32, satellites=8, angle=282.3000, fixquality=1
$GPRMC,142606.400,A,4308.3172,N,07726.2556,W,6.36,278.90,280319,,,A*71
$GPGGA,142606.600,4308.3173,N,07726.2561,W,1,08,1.21,163.2,M,-34.4,M,,*50
lng=-77.437591, lat=43.138622, altitude=163.30, speed=6.36, satellites=8, angle=278.9000, fixquality=1
$GPRMC,142606.800,A,4308.3173,N,07726.2567,W,6.81,280.33,280319,,,A*7C
$GPGGA,142607.000,4308.3174,N,07726.2573,W,1,08,1.21,163.1,M,-34.4,M,,*50
lng=-77.437614, lat=43.138622, altitude=163.20, speed=6.81, satellites=8, angle=280.3300, fixquality=1
$GPRMC,142607.200,A,4308.3176,N,07726.2579,W,8.05,283.46,280319,,,A*7E
$GPGGA,142607.400,4308.3177,N,07726.2586,W,1,08,1.22,163.0,M,-34.4,M,,*5F
lng=-77.437629, lat=43.138622, altitude=163.10, speed=8.05, satellites=8, angle=283.4600, fixquality=1
$GPRMC,142607.600,A,4308.3179,N,07726.2593,W,8.83,283.81,280319,,,A*74
$GPGGA,142607.800,4308.3180,N,07726.2601,W,1,08,1.22,162.9,M,-34.4,M,,*5F
lng=-77.437652, lat=43.138629, altitude=163.00, speed=8.83, satellites=8, angle=283.8100, fixquality=1
$GPRMC,142608.000,A,4308.3182,N,07726.2608,W,9.94,283.79,280319,,,A*78
$GPGGA,142608.200,4308.3183,N,07726.2616,W,1,08,1.13,162.8,M,-34.4,M,,*5C
lng=-77.437675, lat=43.138637, altitude=162.90, speed=9.94, satellites=8, angle=283.7900, fixquality=1
$GPRMC,142608.400,A,4308.3185,N,07726.2624,W,10.89,282.19,280319,,,A*46
$GPGGA,142608.600,4308.3187,N,07726.2632,W,1,08,1.13,162.7,M,-34.4,M,,*55
lng=-77.437705, lat=43.138637, altitude=162.80, speed=10.89, satellites=8, angle=282.1900, fixquality=1
$GPRMC,142608.800,A,4308.3189,N,07726.2642,W,11.82,282.16,280319,,,A*43
$GPGGA,142609.000,4308.3191,N,07726.2651,W,1,08,1.13,162.7,M,-34.4,M,,*50
lng=-77.437736, lat=43.138648, altitude=162.70, speed=11.82, satellites=8, angle=282.1600, fixquality=1
$GPRMC,142609.200,A,4308.3193,N,07726.2661,W,12.87,281.78,280319,,,A*4F
$GPGGA,142609.400,4308.3195,N,07726.2671,W,1,08,1.13,162.6,M,-34.4,M,,*53
lng=-77.437767, lat=43.138656, altitude=162.70, speed=12.87, satellites=8, angle=281.7800, fixquality=1
$GPRMC,142609.600,A,4308.3197,N,07726.2682,W,13.60,282.13,280319,,,A*44
$GPGGA,142609.800,4308.3200,N,07726.2693,W,1,08,1.13,162.6,M,-34.4,M,,*5C
lng=-77.437797, lat=43.138664, altitude=162.60, speed=13.60, satellites=8, angle=282.1300, fixquality=1
$GPRMC,142610.000,A,4308.3202,N,07726.2705,W,14.75,281.60,280319,,,A*4F
$GPGGA,142610.200,4308.3204,N,07726.2717,W,1,08,1.13,162.5,M,-34.4,M,,*54
lng=-77.437843, lat=43.138671, altitude=162.60, speed=14.75, satellites=8, angle=281.6000, fixquality=1
$GPRMC,142610.400,A,4308.3207,N,07726.2729,W,15.79,282.25,280319,,,A*4F
$GPGGA,142610.600,4308.3210,N,07726.2741,W,1,08,1.13,162.4,M,-34.4,M,,*57
lng=-77.437881, lat=43.138679, altitude=162.50, speed=15.79, satellites=8, angle=282.2500, fixquality=1
$GPRMC,142610.800,A,4308.3213,N,07726.2754,W,16.43,283.16,280319,,,A*47
$GPGGA,142611.000,4308.3216,N,07726.2767,W,1,08,1.13,162.3,M,-34.4,M,,*55
lng=-77.437919, lat=43.138687, altitude=162.40, speed=16.43, satellites=8, angle=283.1600, fixquality=1
$GPRMC,142611.200,A,4308.3220,N,07726.2780,W,17.32,284.52,280319,,,A*45
$GPGGA,142611.400,4308.3224,N,07726.2794,W,1,08,1.13,162.3,M,-34.4,M,,*5C
lng=-77.437965, lat=43.138694, altitude=162.30, speed=17.32, satellites=8, angle=284.5200, fixquality=1
$GPRMC,142611.600,A,4308.3227,N,07726.2808,W,17.95,285.51,280319,,,A*46
$GPGGA,142611.800,4308.3231,N,07726.2822,W,1,08,1.13,162.3,M,-34.4,M,,*56
lng=-77.438011, lat=43.138713, altitude=162.30, speed=17.95, satellites=8, angle=285.5100, fixquality=1
$GPRMC,142612.000,A,4308.3234,N,07726.2836,W,18.36,286.84,280319,,,A*41
$GPGGA,142612.200,4308.3237,N,07726.2850,W,1,08,1.13,162.2,M,-34.4,M,,*5D
lng=-77.438064, lat=43.138721, altitude=162.30, speed=18.36, satellites=8, angle=286.8400, fixquality=1
$GPRMC,142612.400,A,4308.3239,N,07726.2865,W,18.85,288.43,280319,,,A*43
$GPGGA,142612.600,4308.3242,N,07726.2880,W,1,08,1.13,162.1,M,-34.4,M,,*55
lng=-77.438110, lat=43.138729, altitude=162.20, speed=18.85, satellites=8, angle=288.4300, fixquality=1
$GPRMC,142612.800,A,4308.3246,N,07726.2896,W,19.34,289.68,280319,,,A*48
$GPGGA,142613.000,4308.3249,N,07726.2911,W,1,08,1.13,162.0,M,-34.4,M,,*51
lng=-77.438156, lat=43.138744, altitude=162.10, speed=19.34, satellites=8, angle=289.6800, fixquality=1
$GPRMC,142613.200,A,4308.3253,N,07726.2926,W,19.79,291.63,280319,,,A*46
$GPGGA,142613.400,4308.3258,N,07726.2942,W,1,08,1.13,161.9,M,-34.4,M,,*59
lng=-77.438209, lat=43.138751, altitude=162.00, speed=19.79, satellites=8, angle=291.6300, fixquality=1
$GPRMC,142613.600,A,4308.3263,N,07726.2957,W,20.21,293.40,280319,,,A*43
$GPGGA,142613.800,4308.3268,N,07726.2972,W,1,08,1.13,161.8,M,-34.4,M,,*54
lng=-77.438262, lat=43.138771, altitude=161.90, speed=20.21, satellites=8, angle=293.4000, fixquality=1
$GPRMC,142614.000,A,4308.3274,N,07726.2988,W,21.18,294.56,280319,,,A*4D
$GPGGA,142614.200,4308.3278,N,07726.3004,W,1,08,1.13,161.8,M,-34.4,M,,*51
lng=-77.438316, lat=43.138793, altitude=161.80, speed=21.18, satellites=8, angle=294.5600, fixquality=1
$GPRMC,142614.400,A,4308.3283,N,07726.3020,W,21.66,295.19,280319,,,A*48
$GPGGA,142614.600,4308.3289,N,07726.3036,W,1,08,1.13,161.7,M,-34.4,M,,*55
lng=-77.438362, lat=43.138801, altitude=161.80, speed=21.66, satellites=8, angle=295.1900, fixquality=1
$GPRMC,142614.800,A,4308.3293,N,07726.3053,W,22.34,296.22,280319,,,A*4E
$GPGGA,142615.000,4308.3299,N,07726.3070,W,1,08,1.13,161.6,M,-34.4,M,,*50
lng=-77.438423, lat=43.138816, altitude=161.70, speed=22.34, satellites=8, angle=296.2200, fixquality=1
$GPRMC,142615.200,A,4308.3305,N,07726.3087,W,23.28,297.45,280319,,,A*4E
$GPGGA,142615.400,4308.3311,N,07726.3104,W,1,08,1.13,161.5,M,-34.4,M,,*54
lng=-77.438476, lat=43.138843, altitude=161.60, speed=23.28, satellites=8, angle=297.4500, fixquality=1
$GPRMC,142615.600,A,4308.3318,N,07726.3121,W,23.97,298.85,280319,,,A*4C
$GPGGA,142615.800,4308.3325,N,07726.3138,W,1,08,1.13,161.5,M,-34.4,M,,*50
lng=-77.438529, lat=43.138866, altitude=161.50, speed=23.97, satellites=8, angle=298.8500, fixquality=1
$GPRMC,142616.000,A,4308.3331,N,07726.3156,W,24.61,298.93,280319,,,A*4B
$GPGGA,142616.200,4308.3339,N,07726.3173,W,1,08,1.13,161.4,M,-34.4,M,,*5A
lng=-77.438591, lat=43.138881, altitude=161.50, speed=24.61, satellites=8, angle=298.9300, fixquality=1
$GPRMC,142616.400,A,4308.3346,N,07726.3191,W,25.19,299.58,280319,,,A*4C
$GPGGA,142616.600,4308.3354,N,07726.3209,W,1,08,1.13,161.3,M,-34.4,M,,*5C
lng=-77.438652, lat=43.138908, altitude=161.40, speed=25.19, satellites=8, angle=299.5800, fixquality=1
$GPRMC,142616.800,A,4308.3362,N,07726.3227,W,25.98,300.20,280319,,,A*4F
$GPGGA,142617.000,4308.3371,N,07726.3244,W,1,08,1.13,161.3,M,-34.4,M,,*55
lng=-77.438713, lat=43.138938, altitude=161.30, speed=25.98, satellites=8, angle=300.2000, fixquality=1
$GPRMC,142617.200,A,4308.3380,N,07726.3261,W,26.79,302.09,280319,,,A*4F
$GPGGA,142617.400,4308.3388,N,07726.3279,W,1,08,1.13,161.5,M,-34.4,M,,*5F
lng=-77.438766, lat=43.138965, altitude=161.30, speed=26.79, satellites=8, angle=302.0900, fixquality=1
$GPRMC,142617.600,A,4308.3397,N,07726.3297,W,27.05,302.42,280319,,,A*41
$GPGGA,142617.800,4308.3405,N,07726.3315,W,1,08,1.13,161.6,M,-34.4,M,,*59
lng=-77.438827, lat=43.138996, altitude=161.50, speed=27.05, satellites=8, angle=302.4200, fixquality=1
$GPRMC,142618.000,A,4308.3414,N,07726.3334,W,27.43,303.08,280319,,,A*41
$GPGGA,142618.200,4308.3423,N,07726.3351,W,1,08,1.22,161.6,M,-34.4,M,,*5A
lng=-77.438888, lat=43.139022, altitude=161.60, speed=27.43, satellites=8, angle=303.0800, fixquality=1
$GPRMC,142618.400,A,4308.3432,N,07726.3369,W,27.45,303.27,280319,,,A*42
$GPGGA,142618.600,4308.3441,N,07726.3387,W,1,08,1.22,161.6,M,-34.4,M,,*51
lng=-77.438949, lat=43.139053, altitude=161.60, speed=27.45, satellites=8, angle=303.2700, fixquality=1
$GPRMC,142618.800,A,4308.3449,N,07726.3405,W,27.19,304.21,280319,,,A*47
$GPGGA,142619.000,4308.3458,N,07726.3423,W,1,08,1.22,161.7,M,-34.4,M,,*56
lng=-77.439002, lat=43.139080, altitude=161.60, speed=27.19, satellites=8, angle=304.2100, fixquality=1
$GPRMC,142619.200,A,4308.3467,N,07726.3440,W,27.07,305.69,280319,,,A*43
$GPGGA,142619.400,4308.3476,N,07726.3458,W,1,08,1.22,161.7,M,-34.4,M,,*52
lng=-77.439071, lat=43.139110, altitude=161.70, speed=27.07, satellites=8, angle=305.6900, fixquality=1
$GPRMC,142619.600,A,4308.3485,N,07726.3475,W,26.47,307.31,280319,,,A*47
$GPGGA,142619.800,4308.3494,N,07726.3491,W,1,08,1.22,161.7,M,-34.4,M,,*57
lng=-77.439125, lat=43.139144, altitude=161.70, speed=26.47, satellites=8, angle=307.3100, fixquality=1
$GPRMC,142620.000,A,4308.3503,N,07726.3507,W,26.27,308.43,280319,,,A*4C
$GPGGA,142620.200,4308.3513,N,07726.3523,W,1,08,1.22,161.7,M,-34.4,M,,*51
lng=-77.439178, lat=43.139167, altitude=161.70, speed=26.27, satellites=8, angle=308.4300, fixquality=1
$GPRMC,142620.400,A,4308.3523,N,07726.3539,W,26.50,311.75,280319,,,A*4A
$GPGGA,142620.600,4308.3533,N,07726.3554,W,1,08,1.13,161.8,M,-34.4,M,,*5A
lng=-77.439231, lat=43.139209, altitude=161.70, speed=26.50, satellites=8, angle=311.7500, fixquality=1
$GPRMC,142620.800,A,4308.3543,N,07726.3569,W,26.62,313.97,280319,,,A*4A
$GPGGA,142621.000,4308.3554,N,07726.3584,W,1,08,1.13,161.8,M,-34.4,M,,*51
lng=-77.439285, lat=43.139240, altitude=161.80, speed=26.62, satellites=8, angle=313.9700, fixquality=1
$GPRMC,142621.200,A,4308.3565,N,07726.3599,W,26.78,316.19,280319,,,A*42
$GPGGA,142621.400,4308.3576,N,07726.3612,W,1,08,1.22,161.9,M,-34.4,M,,*5A
lng=-77.439331, lat=43.139274, altitude=161.80, speed=26.78, satellites=8, angle=316.1900, fixquality=1
$GPRMC,142621.600,A,4308.3587,N,07726.3625,W,26.88,320.65,280319,,,A*4F
$GPGGA,142621.800,4308.3599,N,07726.3638,W,1,08,1.13,162.0,M,-34.4,M,,*57
lng=-77.439369, lat=43.139316, altitude=161.90, speed=26.88, satellites=8, angle=320.6500, fixquality=1
$GPRMC,142622.000,A,4308.3611,N,07726.3650,W,26.99,321.94,280319,,,A*4B
$GPGGA,142622.200,4308.3623,N,07726.3663,W,1,08,1.13,162.1,M,-34.4,M,,*53
lng=-77.439422, lat=43.139354, altitude=162.00, speed=26.99, satellites=8, angle=321.9400, fixquality=1
$GPRMC,142622.400,A,4308.3635,N,07726.3675,W,27.07,324.06,280319,,,A*46
$GPGGA,142622.600,4308.3647,N,07726.3686,W,1,08,1.13,162.2,M,-34.4,M,,*5D
lng=-77.439460, lat=43.139389, altitude=162.10, speed=27.07, satellites=8, angle=324.0600, fixquality=1
$GPRMC,142622.800,A,4308.3660,N,07726.3697,W,26.85,326.73,280319,,,A*4D
$GPGGA,142623.000,4308.3673,N,07726.3708,W,1,08,1.13,162.3,M,-34.4,M,,*5B
lng=-77.439491, lat=43.139438, altitude=162.20, speed=26.85, satellites=8, angle=326.7300, fixquality=1
$GPRMC,142623.200,A,4308.3686,N,07726.3717,W,26.50,330.40,280319,,,A*48
$GPGGA,142623.400,4308.3699,N,07726.3726,W,1,08,1.13,162.4,M,-34.4,M,,*50
lng=-77.439529, lat=43.139476, altitude=162.30, speed=26.50, satellites=8, angle=330.4000, fixquality=1
$GPRMC,142623.600,A,4308.3712,N,07726.3735,W,26.43,332.86,280319,,,A*4A
$GPGGA,142623.800,4308.3726,N,07726.3743,W,1,08,1.13,162.5,M,-34.4,M,,*5B
lng=-77.439559, lat=43.139518, altitude=162.40, speed=26.43, satellites=8, angle=332.8600, fixquality=1
$GPRMC,142624.000,A,4308.3740,N,07726.3751,W,26.40,337.36,280319,,,A*43
$GPGGA,142624.200,4308.3754,N,07726.3757,W,1,08,1.13,162.7,M,-34.4,M,,*54
lng=-77.439582, lat=43.139568, altitude=162.50, speed=26.40, satellites=8, angle=337.3600, fixquality=1
$GPRMC,142624.400,A,4308.3768,N,07726.3763,W,26.62,341.71,280319,,,A*4E
$GPGGA,142624.600,4308.3782,N,07726.3768,W,1,08,1.13,162.8,M,-34.4,M,,*58
lng=-77.439605, lat=43.139614, altitude=162.70, speed=26.62, satellites=8, angle=341.7100, fixquality=1
$GPRMC,142624.800,A,4308.3796,N,07726.3772,W,26.22,345.29,280319,,,A*4E
$GPGGA,142625.000,4308.3810,N,07726.3776,W,1,08,1.13,162.9,M,-34.4,M,,*55
lng=-77.439620, lat=43.139656, altitude=162.80, speed=26.22, satellites=8, angle=345.2900, fixquality=1
$GPRMC,142625.200,A,4308.3824,N,07726.3779,W,25.47,348.81,280319,,,A*47
$GPGGA,142625.400,4308.3838,N,07726.3781,W,1,08,1.13,163.0,M,-34.4,M,,*5B
lng=-77.439628, lat=43.139705, altitude=162.90, speed=25.47, satellites=8, angle=348.8100, fixquality=1
$GPRMC,142625.600,A,4308.3852,N,07726.3783,W,25.20,351.73,280319,,,A*43
$GPGGA,142625.800,4308.3866,N,07726.3784,W,1,08,1.22,163.1,M,-34.4,M,,*5A
lng=-77.439643, lat=43.139755, altitude=163.00, speed=25.20, satellites=8, angle=351.7300, fixquality=1
$GPRMC,142626.000,A,4308.3880,N,07726.3785,W,25.35,353.78,280319,,,A*42
$GPGGA,142626.200,4308.3895,N,07726.3785,W,1,08,1.13,163.3,M,-34.4,M,,*5E
lng=-77.439643, lat=43.139804, altitude=163.10, speed=25.35, satellites=8, angle=353.7800, fixquality=1
$GPRMC,142626.400,A,4308.3910,N,07726.3784,W,26.01,357.86,280319,,,A*4E
$GPGGA,142626.600,4308.3925,N,07726.3783,W,1,08,1.13,163.4,M,-34.4,M,,*51
lng=-77.439643, lat=43.139850, altitude=163.30, speed=26.01, satellites=8, angle=357.8600, fixquality=1
$GPRMC,142626.800,A,4308.3941,N,07726.3781,W,27.03,1.13,280319,,,A*4C
$GPGGA,142627.000,4308.3956,N,07726.3779,W,1,08,1.13,163.6,M,-34.4,M,,*55
lng=-77.439628, lat=43.139900, altitude=163.40, speed=27.03, satellites=8, angle=1.1300, fixquality=1
$GPRMC,142627.200,A,4308.3971,N,07726.3776,W,27.09,3.79,280319,,,A*48
$GPGGA,142627.400,4308.3986,N,07726.3774,W,1,08,1.13,163.7,M,-34.4,M,,*50
lng=-77.439620, lat=43.139949, altitude=163.60, speed=27.09, satellites=8, angle=3.7900, fixquality=1
$GPRMC,142627.600,A,4308.4001,N,07726.3771,W,27.14,5.82,280319,,,A*4C
$GPGGA,142627.800,4308.4016,N,07726.3768,W,1,08,1.13,163.9,M,-34.4,M,,*58
lng=-77.439613, lat=43.139999, altitude=163.70, speed=27.14, satellites=8, angle=5.8200, fixquality=1
$GPRMC,142628.000,A,4308.4032,N,07726.3764,W,27.30,8.13,280319,,,A*42
$GPGGA,142628.200,4308.4048,N,07726.3760,W,1,08,1.13,164.1,M,-34.4,M,,*51
lng=-77.439605, lat=43.140056, altitude=163.90, speed=27.30, satellites=8, angle=8.1300, fixquality=1
$GPRMC,142628.400,A,4308.4064,N,07726.3756,W,28.42,8.85,280319,,,A*41
$GPGGA,142628.600,4308.4080,N,07726.3752,W,1,08,1.13,164.3,M,-34.4,M,,*52
lng=-77.439590, lat=43.140102, altitude=164.10, speed=28.42, satellites=8, angle=8.8500, fixquality=1
$GPRMC,142628.800,A,4308.4095,N,07726.3748,W,28.41,8.96,280319,,,A*4D
$GPGGA,142629.000,4308.4111,N,07726.3744,W,1,08,1.13,164.4,M,-34.4,M,,*5C
lng=-77.439582, lat=43.140159, altitude=164.30, speed=28.41, satellites=8, angle=8.9600, fixquality=1
$GPRMC,142629.200,A,4308.4126,N,07726.3740,W,28.18,9.01,280319,,,A*44
$GPGGA,142629.400,4308.4142,N,07726.3736,W,1,08,1.13,164.6,M,-34.4,M,,*59
lng=-77.439567, lat=43.140209, altitude=164.40, speed=28.18, satellites=8, angle=9.0100, fixquality=1
$GPRMC,142629.600,A,4308.4157,N,07726.3732,W,28.04,9.36,280319,,,A*4A
$GPGGA,142629.800,4308.4172,N,07726.3728,W,1,08,1.13,164.8,M,-34.4,M,,*57
lng=-77.439552, lat=43.140258, altitude=164.60, speed=28.04, satellites=8, angle=9.3600, fixquality=1
$GPRMC,142630.000,A,4308.4186,N,07726.3723,W,27.39,9.56,280319,,,A*4F
$GPGGA,142630.200,4308.4201,N,07726.3719,W,1,08,1.13,164.9,M,-34.4,M,,*51
lng=-77.439537, lat=43.140308, altitude=164.80, speed=27.39, satellites=8, angle=9.5600, fixquality=1
$GPRMC,142630.400,A,4308.4216,N,07726.3715,W,27.31,9.22,280319,,,A*4F
$GPGGA,142630.600,4308.4230,N,07726.3712,W,1,08,1.13,165.0,M,-34.4,M,,*54
lng=-77.439529, lat=43.140357, altitude=164.90, speed=27.31, satellites=8, angle=9.2200, fixquality=1
$GPRMC,142630.800,A,4308.4244,N,07726.3708,W,26.08,9.53,280319,,,A*45
$GPGGA,142631.000,4308.4258,N,07726.3704,W,1,08,1.13,165.1,M,-34.4,M,,*5B
lng=-77.439506, lat=43.140403, altitude=165.00, speed=26.08, satellites=8, angle=9.5300, fixquality=1
$GPRMC,142631.200,A,4308.4272,N,07726.3700,W,26.02,10.01,280319,,,A*76
$GPGGA,142631.400,4308.4286,N,07726.3696,W,1,08,1.13,165.2,M,-34.4,M,,*55
lng=-77.439498, lat=43.140453, altitude=165.10, speed=26.02, satellites=8, angle=10.0100, fixquality=1
$GPRMC,142631.600,A,4308.4300,N,07726.3692,W,25.83,10.22,280319,,,A*77
$GPGGA,142631.800,4308.4313,N,07726.3688,W,1,08,1.13,165.4,M,-34.4,M,,*5D
lng=-77.439483, lat=43.140502, altitude=165.20, speed=25.83, satellites=8, angle=10.2200, fixquality=1
$GPRMC,142632.000,A,4308.4326,N,07726.3684,W,24.65,10.19,280319,,,A*70
$GPGGA,142632.200,4308.4340,N,07726.3681,W,1,08,1.22,165.5,M,-34.4,M,,*58
lng=-77.439468, lat=43.140544, altitude=165.40, speed=24.65, satellites=8, angle=10.1900, fixquality=1
$GPRMC,142632.400,A,4308.4353,N,07726.3677,W,24.37,10.27,280319,,,A*70
$GPGGA,142632.600,4308.4366,N,07726.3674,W,1,08,1.22,165.6,M,-34.4,M,,*51
lng=-77.439460, lat=43.140583, altitude=165.50, speed=24.37, satellites=8, angle=10.2700, fixquality=1
$GPRMC,142632.800,A,4308.4379,N,07726.3670,W,23.64,10.10,280319,,,A*76
$GPGGA,142633.000,4308.4392,N,07726.3667,W,1,08,1.22,165.7,M,-34.4,M,,*5E
lng=-77.439453, lat=43.140632, altitude=165.60, speed=23.64, satellites=8, angle=10.1000, fixquality=1
$GPRMC,142633.200,A,4308.4405,N,07726.3663,W,23.09,9.58,280319,,,A*4C
$GPGGA,142633.400,4308.4418,N,07726.3660,W,1,08,1.22,165.9,M,-34.4,M,,*56
lng=-77.439437, lat=43.140674, altitude=165.70, speed=23.09, satellites=8, angle=9.5800, fixquality=1
$GPRMC,142633.600,A,4308.4429,N,07726.3656,W,21.61,10.73,280319,,,A*7D
$GPGGA,142633.800,4308.4441,N,07726.3653,W,1,08,1.22,166.0,M,-34.4,M,,*5C
lng=-77.439430, lat=43.140712, altitude=165.90, speed=21.61, satellites=8, angle=10.7300, fixquality=1
$GPRMC,142634.000,A,4308.4452,N,07726.3650,W,19.97,10.60,280319,,,A*76
$GPGGA,142634.200,4308.4463,N,07726.3647,W,1,08,1.22,166.1,M,-34.4,M,,*55
lng=-77.439422, lat=43.140754, altitude=166.00, speed=19.97, satellites=8, angle=10.6000, fixquality=1
$GPRMC,142634.400,A,4308.4473,N,07726.3644,W,18.08,10.94,280319,,,A*78
$GPGGA,142634.600,4308.4482,N,07726.3642,W,1,08,1.22,166.2,M,-34.4,M,,*58
lng=-77.439407, lat=43.140789, altitude=166.10, speed=18.08, satellites=8, angle=10.9400, fixquality=1
$GPRMC,142634.800,A,4308.4492,N,07726.3640,W,16.12,8.59,280319,,,A*42
$GPGGA,142635.000,4308.4502,N,07726.3637,W,1,08,1.22,166.2,M,-34.4,M,,*54
lng=-77.439399, lat=43.140819, altitude=166.20, speed=16.12, satellites=8, angle=8.5900, fixquality=1
$GPRMC,142635.200,A,4308.4512,N,07726.3634,W,13.94,8.73,280319,,,A*40
$GPGGA,142635.400,4308.4520,N,07726.3631,W,1,08,1.22,166.1,M,-34.4,M,,*55
lng=-77.439384, lat=43.140853, altitude=166.20, speed=13.94, satellites=8, angle=8.7300, fixquality=1
$GPRMC,142635.600,A,4308.4528,N,07726.3628,W,11.93,8.47,280319,,,A*42
$GPGGA,142635.800,4308.4534,N,07726.3625,W,1,08,1.22,166.2,M,-34.4,M,,*5A
lng=-77.439376, lat=43.140876, altitude=166.10, speed=11.93, satellites=8, angle=8.4700, fixquality=1
$GPRMC,142636.000,A,4308.4540,N,07726.3622,W,9.53,9.19,280319,,,A*7C
$GPGGA,142636.200,4308.4545,N,07726.3619,W,1,08,1.22,166.1,M,-34.4,M,,*59
lng=-77.439369, lat=43.140903, altitude=166.20, speed=9.53, satellites=8, angle=9.1900, fixquality=1
$GPRMC,142636.400,A,4308.4550,N,07726.3617,W,7.21,8.95,280319,,,A*71
$GPGGA,142636.600,4308.4554,N,07726.3614,W,1,08,1.22,166.1,M,-34.4,M,,*50
lng=-77.439361, lat=43.140918, altitude=166.10, speed=7.21, satellites=8, angle=8.9500, fixquality=1
$GPRMC,142636.800,A,4308.4557,N,07726.3612,W,5.59,7.83,280319,,,A*7A
$GPGGA,142637.000,4308.4560,N,07726.3611,W,1,08,1.22,166.1,M,-34.4,M,,*55
lng=-77.439353, lat=43.140926, altitude=166.10, speed=5.59, satellites=8, angle=7.8300, fixquality=1
$GPRMC,142637.200,A,4308.4562,N,07726.3609,W,3.84,7.84,280319,,,A*7C
$GPGGA,142637.400,4308.4564,N,07726.3608,W,1,08,1.22,166.2,M,-34.4,M,,*5E
lng=-77.439346, lat=43.140933, altitude=166.10, speed=3.84, satellites=8, angle=7.8400, fixquality=1
$GPRMC,142637.600,A,4308.4565,N,07726.3607,W,2.53,8.17,280319,,,A*7F
$GPGGA,142637.800,4308.4566,N,07726.3606,W,1,08,1.22,166.2,M,-34.4,M,,*5E
lng=-77.439346, lat=43.140941, altitude=166.20, speed=2.53, satellites=8, angle=8.1700, fixquality=1
$GPRMC,142638.000,A,4308.4566,N,07726.3605,W,1.84,8.17,280319,,,A*7E
$GPGGA,142638.200,4308.4567,N,07726.3604,W,1,08,1.22,166.2,M,-34.4,M,,*58
lng=-77.439338, lat=43.140941, altitude=166.20, speed=1.84, satellites=8, angle=8.1700, fixquality=1
$GPRMC,142638.400,A,4308.4567,N,07726.3604,W,2.37,8.17,280319,,,A*71
$GPGGA,142638.600,4308.4569,N,07726.3603,W,1,08,1.22,166.2,M,-34.4,M,,*55
lng=-77.439338, lat=43.140941, altitude=166.20, speed=2.37, satellites=8, angle=8.1700, fixquality=1
$GPRMC,142638.800,A,4308.4571,N,07726.3603,W,3.64,3.65,280319,,,A*74
$GPGGA,142639.000,4308.4574,N,07726.3603,W,1,08,1.22,166.3,M,-34.4,M,,*5F
lng=-77.439338, lat=43.140949, altitude=166.20, speed=3.64, satellites=8, angle=3.6500, fixquality=1
$GPRMC,142639.200,A,4308.4577,N,07726.3604,W,3.67,4.10,280319,,,A*78
$GPGGA,142639.400,4308.4581,N,07726.3605,W,1,08,1.22,166.4,M,-34.4,M,,*50
lng=-77.439338, lat=43.140956, altitude=166.30, speed=3.67, satellites=8, angle=4.1000, fixquality=1
$GPRMC,142639.600,A,4308.4585,N,07726.3606,W,3.73,2.26,280319,,,A*75
$GPGGA,142639.800,4308.4589,N,07726.3606,W,1,08,1.22,166.5,M,-34.4,M,,*56
lng=-77.439346, lat=43.140975, altitude=166.40, speed=3.73, satellites=8, angle=2.2600, fixquality=1
$GPRMC,142640.000,A,4308.4592,N,07726.3606,W,4.48,358.49,280319,,,A*71
$GPGGA,142640.200,4308.4596,N,07726.3607,W,1,08,1.22,166.6,M,-34.4,M,,*5E
lng=-77.439346, lat=43.140983, altitude=166.50, speed=4.48, satellites=8, angle=358.4900, fixquality=1
$GPRMC,142640.400,A,4308.4601,N,07726.3609,W,6.73,348.25,280319,,,A*72
$GPGGA,142640.600,4308.4606,N,07726.3610,W,1,08,1.22,166.7,M,-34.4,M,,*57
lng=-77.439346, lat=43.140998, altitude=166.60, speed=6.73, satellites=8, angle=348.2500, fixquality=1
$GPRMC,142640.800,A,4308.4610,N,07726.3613,W,7.72,341.61,280319,,,A*7C
$GPGGA,142641.000,4308.4616,N,07726.3618,W,1,08,1.13,166.8,M,-34.4,M,,*54
lng=-77.439353, lat=43.141014, altitude=166.70, speed=7.72, satellites=8, angle=341.6100, fixquality=1
$GPRMC,142641.200,A,4308.4622,N,07726.3622,W,9.25,335.25,280319,,,A*7B
$GPGGA,142641.400,4308.4628,N,07726.3628,W,1,08,1.13,166.8,M,-34.4,M,,*5E
lng=-77.439369, lat=43.141040, altitude=166.80, speed=9.25, satellites=8, angle=335.2500, fixquality=1
$GPRMC,142641.600,A,4308.4633,N,07726.3631,W,10.79,320.79,280319,,,A*41
$GPGGA,142641.800,4308.4638,N,07726.3637,W,1,08,1.13,166.7,M,-34.4,M,,*52
lng=-77.439384, lat=43.141056, altitude=166.80, speed=10.79, satellites=8, angle=320.7900, fixquality=1
$GPRMC,142642.000,A,4308.4644,N,07726.3646,W,12.36,312.75,280319,,,A*40
$GPGGA,142642.200,4308.4652,N,07726.3656,W,1,08,1.22,166.6,M,-34.4,M,,*53
lng=-77.439414, lat=43.141071, altitude=166.70, speed=12.36, satellites=8, angle=312.7500, fixquality=1
$GPRMC,142642.400,A,4308.4657,N,07726.3666,W,15.17,309.09,280319,,,A*41
$GPGGA,142642.600,4308.4663,N,07726.3677,W,1,08,1.13,166.5,M,-34.4,M,,*57
lng=-77.439445, lat=43.141098, altitude=166.60, speed=15.17, satellites=8, angle=309.0900, fixquality=1
$GPRMC,142642.800,A,4308.4669,N,07726.3688,W,16.50,306.34,280319,,,A*41
$GPGGA,142643.000,4308.4674,N,07726.3700,W,1,08,1.13,166.5,M,-34.4,M,,*57
lng=-77.439476, lat=43.141113, altitude=166.50, speed=16.50, satellites=8, angle=306.3400, fixquality=1
$GPRMC,142643.200,A,4308.4679,N,07726.3714,W,18.39,302.07,280319,,,A*4A
$GPGGA,142643.400,4308.4683,N,07726.3728,W,1,08,1.13,166.4,M,-34.4,M,,*50
lng=-77.439529, lat=43.141128, altitude=166.50, speed=18.39, satellites=8, angle=302.0700, fixquality=1
$GPRMC,142643.600,A,4308.4687,N,07726.3741,W,19.20,298.04,280319,,,A*47
$GPGGA,142643.800,4308.4690,N,07726.3756,W,1,08,1.13,166.3,M,-34.4,M,,*50
lng=-77.439567, lat=43.141147, altitude=166.40, speed=19.20, satellites=8, angle=298.0400, fixquality=1
$GPRMC,142644.000,A,4308.4692,N,07726.3773,W,20.33,293.08,280319,,,A*4C
$GPGGA,142644.200,4308.4692,N,07726.3790,W,1,08,1.13,166.3,M,-34.4,M,,*55
lng=-77.439620, lat=43.141155, altitude=166.30, speed=20.33, satellites=8, angle=293.0800, fixquality=1
$GPRMC,142644.400,A,4308.4694,N,07726.3807,W,21.28,288.14,280319,,,A*4E
$GPGGA,142644.600,4308.4696,N,07726.3823,W,1,08,1.13,166.2,M,-34.4,M,,*53
lng=-77.439682, lat=43.141155, altitude=166.30, speed=21.28, satellites=8, angle=288.1400, fixquality=1
$GPRMC,142644.800,A,4308.4697,N,07726.3841,W,21.80,284.70,280319,,,A*4F
$GPGGA,142645.000,4308.4699,N,07726.3858,W,1,08,1.13,166.1,M,-34.4,M,,*54
lng=-77.439735, lat=43.141162, altitude=166.20, speed=21.80, satellites=8, angle=284.7000, fixquality=1
$GPRMC,142645.200,A,4308.4699,N,07726.3876,W,21.88,281.43,280319,,,A*43
$GPGGA,142645.400,4308.4700,N,07726.3893,W,1,08,1.13,166.0,M,-34.4,M,,*57
lng=-77.439796, lat=43.141162, altitude=166.10, speed=21.88, satellites=8, angle=281.4300, fixquality=1
$GPRMC,142645.600,A,4308.4701,N,07726.3911,W,22.21,279.53,280319,,,A*41
$GPGGA,142645.800,4308.4702,N,07726.3928,W,1,08,1.13,165.9,M,-34.4,M,,*52
lng=-77.439849, lat=43.141170, altitude=166.00, speed=22.21, satellites=8, angle=279.5300, fixquality=1
$GPRMC,142646.000,A,4308.4703,N,07726.3945,W,22.33,278.60,280319,,,A*45
$GPGGA,142646.200,4308.4702,N,07726.3963,W,1,08,1.13,165.8,M,-34.4,M,,*55
lng=-77.439910, lat=43.141170, altitude=165.90, speed=22.33, satellites=8, angle=278.6000, fixquality=1
$GPRMC,142646.400,A,4308.4703,N,07726.3981,W,22.65,276.92,280319,,,A*49
$GPGGA,142646.600,4308.4703,N,07726.3998,W,1,08,1.22,165.7,M,-34.4,M,,*59
lng=-77.439964, lat=43.141170, altitude=165.80, speed=22.65, satellites=8, angle=276.9200, fixquality=1
$GPRMC,142646.800,A,4308.4704,N,07726.4016,W,22.21,276.80,280319,,,A*41
$GPGGA,142647.000,4308.4704,N,07726.4033,W,1,08,1.22,165.6,M,-34.4,M,,*57
lng=-77.440025, lat=43.141170, altitude=165.70, speed=22.21, satellites=8, angle=276.8000, fixquality=1
$GPRMC,142647.200,A,4308.4704,N,07726.4051,W,21.74,276.90,280319,,,A*4B
$GPGGA,142647.400,4308.4705,N,07726.4068,W,1,08,1.22,165.4,M,-34.4,M,,*5E
lng=-77.440086, lat=43.141170, altitude=165.60, speed=21.74, satellites=8, angle=276.9000, fixquality=1
$GPRMC,142647.600,A,4308.4705,N,07726.4084,W,20.70,276.33,280319,,,A*4A
$GPGGA,142647.800,4308.4706,N,07726.4100,W,1,08,1.22,165.2,M,-34.4,M,,*58
