Vers 57
USE_SERIAL_FEEDBACK=false
DEVELOPMENT_MODE=false
USE_RMC_ONLY=false

$GPRMC,190631.400,A,4305.1654,N,07740.8324,W,0.08,328.40,220319,,,A*77
$GPGGA,190631.600,4305.1654,N,07740.8324,W,1,07,1.30,160.4,M,-34.4,M,,*51
lng=-77.680541, lat=43.086093, altitude=160.10, speed=0.08, satellites=7, angle=328.4000, fixquality=1
$GPRMC,190631.800,A,4305.1654,N,07740.8324,W,0.02,286.43,220319,,,A*77
$GPGGA,190632.000,4305.1654,N,07740.8324,W,1,07,1.30,160.6,M,-34.4,M,,*56
lng=-77.680541, lat=43.086093, altitude=160.40, speed=0.02, satellites=7, angle=286.4300, fixquality=1
$GPRMC,190632.200,A,4305.1655,N,07740.8325,W,0.02,112.36,220319,,,A*72
$GPGGA,190632.400,4305.1656,N,07740.8326,W,1,07,1.30,161.0,M,-34.4,M,,*55
lng=-77.680541, lat=43.086093, altitude=160.60, speed=0.02, satellites=7, angle=112.3600, fixquality=1
$GPRMC,190632.600,A,4305.1658,N,07740.8327,W,0.03,352.82,220319,,,A*71
$GPGGA,190632.800,4305.1658,N,07740.8327,W,1,07,1.81,161.3,M,-34.4,M,,*5F
lng=-77.680541, lat=43.086101, altitude=161.00, speed=0.03, satellites=7, angle=352.8200, fixquality=1
$GPRMC,190633.000,A,4305.1666,N,07740.8332,W,0.03,131.05,220319,,,A*77
$GPGGA,190633.200,4305.1670,N,07740.8334,W,1,07,1.30,163.6,M,-34.4,M,,*51
lng=-77.680549, lat=43.086109, altitude=161.30, speed=0.03, satellites=7, angle=131.0500, fixquality=1
$GPRMC,190633.400,A,4305.1673,N,07740.8336,W,0.02,254.30,220319,,,A*74
$GPGGA,190633.600,4305.1675,N,07740.8337,W,1,07,1.30,164.1,M,-34.4,M,,*53
lng=-77.680557, lat=43.086124, altitude=163.60, speed=0.02, satellites=7, angle=254.3000, fixquality=1
$GPRMC,190633.800,A,4305.1677,N,07740.8339,W,0.06,204.80,220319,,,A*79
$GPGGA,190634.000,4305.1678,N,07740.8340,W,1,07,1.30,164.5,M,-34.4,M,,*5B
lng=-77.680564, lat=43.086124, altitude=164.10, speed=0.06, satellites=7, angle=204.8000, fixquality=1
$GPRMC,190634.200,A,4305.1679,N,07740.8340,W,0.01,219.04,220319,,,A*73
$GPGGA,190634.400,4305.1680,N,07740.8341,W,1,07,1.30,164.6,M,-34.4,M,,*5A
lng=-77.680564, lat=43.086132, altitude=164.50, speed=0.01, satellites=7, angle=219.0400, fixquality=1
$GPRMC,190634.600,A,4305.1681,N,07740.8341,W,0.02,177.24,220319,,,A*7B
$GPGGA,190634.800,4305.1681,N,07740.8342,W,1,07,1.30,164.6,M,-34.4,M,,*54
lng=-77.680564, lat=43.086132, altitude=164.60, speed=0.02, satellites=7, angle=177.2400, fixquality=1
$GPRMC,190635.000,A,4305.1682,N,07740.8342,W,0.03,274.63,220319,,,A*7E
$GPGGA,190635.200,4305.1682,N,07740.8343,W,1,07,1.30,164.6,M,-34.4,M,,*5D
lng=-77.680564, lat=43.086132, altitude=164.60, speed=0.03, satellites=7, angle=274.6300, fixquality=1
$GPRMC,190635.400,A,4305.1683,N,07740.8343,W,0.02,161.41,220319,,,A*7C
$GPGGA,190635.600,4305.1683,N,07740.8343,W,1,07,1.30,164.6,M,-34.4,M,,*58
lng=-77.680572, lat=43.086139, altitude=164.60, speed=0.02, satellites=7, angle=161.4100, fixquality=1
$GPRMC,190635.800,A,4305.1683,N,07740.8344,W,0.02,47.42,220319,,,A*41
$GPGGA,190636.000,4305.1684,N,07740.8344,W,1,07,1.30,164.8,M,-34.4,M,,*53
lng=-77.680572, lat=43.086139, altitude=164.60, speed=0.02, satellites=7, angle=47.4200, fixquality=1
$GPRMC,190636.200,A,4305.1684,N,07740.8344,W,0.02,3.26,220319,,,A*7D
$GPGGA,190636.400,4305.1684,N,07740.8345,W,1,07,1.80,164.8,M,-34.4,M,,*5D
lng=-77.680572, lat=43.086139, altitude=164.80, speed=0.02, satellites=7, angle=3.2600, fixquality=1
$GPRMC,190636.600,A,4305.1684,N,07740.8345,W,0.02,79.58,220319,,,A*4C
$GPGGA,190636.800,4305.1685,N,07740.8345,W,1,07,1.30,164.8,M,-34.4,M,,*5B
lng=-77.680572, lat=43.086139, altitude=164.80, speed=0.02, satellites=7, angle=79.5800, fixquality=1
$GPRMC,190637.000,A,4305.1684,N,07740.8345,W,0.03,217.39,220319,,,A*77
$GPGGA,190637.200,4305.1684,N,07740.8345,W,1,07,1.30,164.9,M,-34.4,M,,*50
lng=-77.680572, lat=43.086139, altitude=164.80, speed=0.03, satellites=7, angle=217.3900, fixquality=1
$GPRMC,190637.400,A,4305.1684,N,07740.8346,W,0.02,247.04,220319,,,A*7A
$GPGGA,190637.600,4305.1684,N,07740.8346,W,1,07,1.30,164.9,M,-34.4,M,,*57
lng=-77.680572, lat=43.086139, altitude=164.90, speed=0.02, satellites=7, angle=247.0400, fixquality=1
$GPRMC,190637.800,A,4305.1684,N,07740.8346,W,0.04,302.16,220319,,,A*73
$GPGGA,190638.000,4305.1684,N,07740.8346,W,1,07,1.30,165.0,M,-34.4,M,,*56
lng=-77.680572, lat=43.086139, altitude=164.90, speed=0.04, satellites=7, angle=302.1600, fixquality=1
$GPRMC,190638.200,A,4305.1684,N,07740.8346,W,0.01,180.23,220319,,,A*7D
$GPGGA,190638.400,4305.1684,N,07740.8346,W,1,07,1.30,165.0,M,-34.4,M,,*52
lng=-77.680572, lat=43.086139, altitude=165.00, speed=0.01, satellites=7, angle=180.2300, fixquality=1
$GPRMC,190638.600,A,4305.1684,N,07740.8346,W,0.01,128.28,220319,,,A*70
$GPGGA,190638.800,4305.1684,N,07740.8346,W,1,07,1.30,165.0,M,-34.4,M,,*5E
lng=-77.680572, lat=43.086139, altitude=165.00, speed=0.01, satellites=7, angle=128.2800, fixquality=1
$GPRMC,190639.000,A,4305.1684,N,07740.8346,W,0.06,162.90,220319,,,A*7D
$GPGGA,190639.200,4305.1684,N,07740.8346,W,1,07,1.30,165.1,M,-34.4,M,,*54
lng=-77.680572, lat=43.086139, altitude=165.00, speed=0.06, satellites=7, angle=162.9000, fixquality=1
$GPRMC,190639.400,A,4305.1684,N,07740.8346,W,0.02,32.66,220319,,,A*40
$GPGGA,190639.600,4305.1684,N,07740.8346,W,1,07,1.30,165.1,M,-34.4,M,,*50
lng=-77.680572, lat=43.086139, altitude=165.10, speed=0.02, satellites=7, angle=32.6600, fixquality=1
$GPRMC,190639.800,A,4305.1684,N,07740.8346,W,0.04,196.66,220319,,,A*75
$GPGGA,190640.000,4305.1684,N,07740.8347,W,1,07,1.30,165.2,M,-34.4,M,,*5A
lng=-77.680572, lat=43.086139, altitude=165.10, speed=0.04, satellites=7, angle=196.6600, fixquality=1
$GPRMC,190640.200,A,4305.1684,N,07740.8347,W,0.02,53.19,220319,,,A*46
$GPGGA,190640.400,4305.1684,N,07740.8347,W,1,07,1.30,165.2,M,-34.4,M,,*5E
lng=-77.680572, lat=43.086139, altitude=165.20, speed=0.02, satellites=7, angle=53.1900, fixquality=1
$GPRMC,190640.600,A,4305.1684,N,07740.8347,W,0.03,242.29,220319,,,A*72
$GPGGA,190640.800,4305.1684,N,07740.8347,W,1,07,1.30,165.2,M,-34.4,M,,*52
lng=-77.680572, lat=43.086139, altitude=165.20, speed=0.03, satellites=7, angle=242.2900, fixquality=1
$GPRMC,190641.000,A,4305.1684,N,07740.8347,W,0.05,140.41,220319,,,A*7C
$GPGGA,190641.200,4305.1684,N,07740.8347,W,1,07,1.30,165.2,M,-34.4,M,,*59
lng=-77.680572, lat=43.086139, altitude=165.20, speed=0.05, satellites=7, angle=140.4100, fixquality=1
$GPRMC,190641.400,A,4305.1684,N,07740.8347,W,0.02,160.80,220319,,,A*70
$GPGGA,190641.600,4305.1684,N,07740.8347,W,1,07,1.30,165.2,M,-34.4,M,,*5D
lng=-77.680572, lat=43.086139, altitude=165.20, speed=0.02, satellites=7, angle=160.8000, fixquality=1
$GPRMC,190641.800,A,4305.1684,N,07740.8347,W,0.03,334.50,220319,,,A*73
$GPGGA,190642.000,4305.1684,N,07740.8347,W,1,07,1.30,165.2,M,-34.4,M,,*58
lng=-77.680572, lat=43.086139, altitude=165.20, speed=0.03, satellites=7, angle=334.5000, fixquality=1
$GPRMC,190642.200,A,4305.1684,N,07740.8347,W,0.04,161.81,220319,,,A*73
$GPGGA,190642.400,4305.1684,N,07740.8347,W,1,07,1.30,165.2,M,-34.4,M,,*5C
lng=-77.680572, lat=43.086139, altitude=165.20, speed=0.04, satellites=7, angle=161.8100, fixquality=1
$GPRMC,190642.600,A,4305.1684,N,07740.8347,W,0.03,214.83,220319,,,A*73
$GPGGA,190642.800,4305.1684,N,07740.8347,W,1,07,1.30,165.2,M,-34.4,M,,*50
lng=-77.680572, lat=43.086139, altitude=165.20, speed=0.03, satellites=7, angle=214.8300, fixquality=1
$GPRMC,190643.000,A,4305.1684,N,07740.8347,W,0.03,83.50,220319,,,A*46
$GPGGA,190643.200,4305.1684,N,07740.8347,W,1,07,1.30,165.2,M,-34.4,M,,*5B
lng=-77.680572, lat=43.086139, altitude=165.20, speed=0.03, satellites=7, angle=83.5000, fixquality=1
$GPRMC,190643.400,A,4305.1684,N,07740.8347,W,0.02,296.98,220319,,,A*71
$GPGGA,190643.600,4305.1684,N,07740.8347,W,1,07,1.30,165.1,M,-34.4,M,,*5C
lng=-77.680572, lat=43.086139, altitude=165.20, speed=0.02, satellites=7, angle=296.9800, fixquality=1
$GPRMC,190643.800,A,4305.1684,N,07740.8347,W,0.01,162.59,220319,,,A*7B
$GPGGA,190644.000,4305.1684,N,07740.8347,W,1,07,1.30,165.1,M,-34.4,M,,*5D
lng=-77.680572, lat=43.086139, altitude=165.10, speed=0.01, satellites=7, angle=162.5900, fixquality=1
$GPRMC,190644.200,A,4305.1685,N,07740.8347,W,0.01,262.85,220319,,,A*75
$GPGGA,190644.400,4305.1685,N,07740.8347,W,1,07,1.30,165.1,M,-34.4,M,,*58
lng=-77.680572, lat=43.086139, altitude=165.10, speed=0.01, satellites=7, angle=262.8500, fixquality=1
$GPRMC,190644.600,A,4305.1685,N,07740.8347,W,0.02,209.11,220319,,,A*72
$GPGGA,190644.800,4305.1685,N,07740.8347,W,1,07,1.30,165.1,M,-34.4,M,,*54
lng=-77.680572, lat=43.086139, altitude=165.10, speed=0.02, satellites=7, angle=209.1100, fixquality=1
$GPRMC,190645.000,A,4305.1685,N,07740.8348,W,0.03,7.96,220319,,,A*78
$GPGGA,190645.200,4305.1685,N,07740.8348,W,1,07,1.80,165.1,M,-34.4,M,,*5B
lng=-77.680580, lat=43.086139, altitude=165.10, speed=0.03, satellites=7, angle=7.9600, fixquality=1
$GPRMC,190645.400,A,4305.1686,N,07740.8348,W,0.01,122.35,220319,,,A*72
$GPGGA,190645.600,4305.1686,N,07740.8348,W,1,07,1.30,165.2,M,-34.4,M,,*54
lng=-77.680580, lat=43.086139, altitude=165.10, speed=0.01, satellites=7, angle=122.3500, fixquality=1
$GPRMC,190645.800,A,4305.1686,N,07740.8348,W,0.02,209.41,220319,,,A*74
$GPGGA,190646.000,4305.1687,N,07740.8348,W,1,07,1.30,165.2,M,-34.4,M,,*50
lng=-77.680580, lat=43.086139, altitude=165.20, speed=0.02, satellites=7, angle=209.4100, fixquality=1
$GPRMC,190646.200,A,4305.1687,N,07740.8348,W,0.02,13.18,220319,,,A*49
$GPGGA,190646.400,4305.1687,N,07740.8348,W,1,07,1.80,165.3,M,-34.4,M,,*5E
lng=-77.680580, lat=43.086139, altitude=165.20, speed=0.02, satellites=7, angle=13.1800, fixquality=1
$GPRMC,190646.600,A,4305.1687,N,07740.8348,W,0.02,29.95,220319,,,A*41
$GPGGA,190646.800,4305.1688,N,07740.8348,W,1,07,1.30,165.3,M,-34.4,M,,*56
lng=-77.680580, lat=43.086139, altitude=165.30, speed=0.02, satellites=7, angle=29.9500, fixquality=1
$GPRMC,190647.000,A,4305.1688,N,07740.8348,W,0.04,198.16,220319,,,A*7F
$GPGGA,190647.200,4305.1688,N,07740.8348,W,1,07,1.30,165.4,M,-34.4,M,,*5A
lng=-77.680580, lat=43.086147, altitude=165.30, speed=0.04, satellites=7, angle=198.1600, fixquality=1
$GPRMC,190647.400,A,4305.1689,N,07740.8348,W,0.02,9.35,220319,,,A*74
$GPGGA,190647.600,4305.1689,N,07740.8348,W,1,07,1.80,165.4,M,-34.4,M,,*54
lng=-77.680580, lat=43.086147, altitude=165.40, speed=0.02, satellites=7, angle=9.3500, fixquality=1
$GPRMC,190647.800,A,4305.1689,N,07740.8348,W,0.03,33.74,220319,,,A*45
$GPGGA,190648.000,4305.1690,N,07740.8348,W,1,07,1.30,165.5,M,-34.4,M,,*5F
lng=-77.680580, lat=43.086147, altitude=165.40, speed=0.03, satellites=7, angle=33.7400, fixquality=1
$GPRMC,190648.200,A,4305.1690,N,07740.8348,W,0.03,245.72,220319,,,A*7D
$GPGGA,190648.400,4305.1690,N,07740.8348,W,1,07,1.30,165.5,M,-34.4,M,,*5B
lng=-77.680580, lat=43.086147, altitude=165.50, speed=0.03, satellites=7, angle=245.7200, fixquality=1
$GPRMC,190648.600,A,4305.1691,N,07740.8348,W,0.02,296.77,220319,,,A*72
$GPGGA,190648.800,4305.1691,N,07740.8348,W,1,07,1.30,165.5,M,-34.4,M,,*56
lng=-77.680580, lat=43.086147, altitude=165.50, speed=0.02, satellites=7, angle=296.7700, fixquality=1
$GPRMC,190649.000,A,4305.1691,N,07740.8349,W,0.01,272.43,220319,,,A*7A
$GPGGA,190649.200,4305.1691,N,07740.8349,W,1,07,1.30,165.5,M,-34.4,M,,*5C
lng=-77.680580, lat=43.086147, altitude=165.50, speed=0.01, satellites=7, angle=272.4300, fixquality=1
$GPRMC,190649.400,A,4305.1692,N,07740.8349,W,0.03,186.11,220319,,,A*70
$GPGGA,190649.600,4305.1692,N,07740.8349,W,1,07,1.30,165.5,M,-34.4,M,,*5B
lng=-77.680580, lat=43.086158, altitude=165.50, speed=0.03, satellites=7, angle=186.1100, fixquality=1
$GPRMC,190649.800,A,4305.1692,N,07740.8349,W,0.02,3.37,220319,,,A*75
$GPGGA,190650.000,4305.1692,N,07740.8349,W,1,07,1.80,165.5,M,-34.4,M,,*5E
lng=-77.680580, lat=43.086158, altitude=165.50, speed=0.02, satellites=7, angle=3.3700, fixquality=1
$GPRMC,190650.200,A,4305.1692,N,07740.8349,W,0.01,116.49,220319,,,A*78
$GPGGA,190650.400,4305.1693,N,07740.8349,W,1,07,1.30,165.5,M,-34.4,M,,*50
lng=-77.680580, lat=43.086158, altitude=165.50, speed=0.01, satellites=7, angle=116.4900, fixquality=1
$GPRMC,190650.600,A,4305.1693,N,07740.8349,W,0.03,304.85,220319,,,A*7E
$GPGGA,190650.800,4305.1693,N,07740.8349,W,1,07,1.30,165.5,M,-34.4,M,,*5C
lng=-77.680580, lat=43.086158, altitude=165.50, speed=0.03, satellites=7, angle=304.8500, fixquality=1
$GPRMC,190651.000,A,4305.1693,N,07740.8349,W,0.03,247.37,220319,,,A*76
$GPGGA,190651.200,4305.1693,N,07740.8349,W,1,07,1.30,165.5,M,-34.4,M,,*57
lng=-77.680580, lat=43.086158, altitude=165.50, speed=0.03, satellites=7, angle=247.3700, fixquality=1
$GPRMC,190651.400,A,4305.1694,N,07740.8349,W,0.04,37.39,220319,,,A*49
$GPGGA,190651.600,4305.1694,N,07740.8349,W,1,07,1.30,165.5,M,-34.4,M,,*54
lng=-77.680580, lat=43.086158, altitude=165.50, speed=0.04, satellites=7, angle=37.3900, fixquality=1
$GPRMC,190651.800,A,4305.1694,N,07740.8349,W,0.01,328.97,220319,,,A*79
$GPGGA,190652.000,4305.1694,N,07740.8349,W,1,07,1.30,165.5,M,-34.4,M,,*51
lng=-77.680580, lat=43.086158, altitude=165.50, speed=0.01, satellites=7, angle=328.9700, fixquality=1
$GPRMC,190652.200,A,4305.1694,N,07740.8349,W,0.04,144.04,220319,,,A*77
$GPGGA,190652.400,4305.1694,N,07740.8349,W,1,07,1.30,165.5,M,-34.4,M,,*55
lng=-77.680580, lat=43.086158, altitude=165.50, speed=0.04, satellites=7, angle=144.0400, fixquality=1
$GPRMC,190652.600,A,4305.1694,N,07740.8349,W,0.02,120.87,220319,,,A*7C
$GPGGA,190652.800,4305.1694,N,07740.8349,W,1,07,1.30,165.4,M,-34.4,M,,*58
lng=-77.680580, lat=43.086158, altitude=165.50, speed=0.02, satellites=7, angle=120.8700, fixquality=1
$GPRMC,190653.000,A,4305.1694,N,07740.8349,W,0.03,147.67,220319,,,A*75
$GPGGA,190653.200,4305.1694,N,07740.8349,W,1,07,1.30,165.4,M,-34.4,M,,*53
lng=-77.680580, lat=43.086158, altitude=165.40, speed=0.03, satellites=7, angle=147.6700, fixquality=1
$GPRMC,190653.400,A,4305.1694,N,07740.8349,W,0.02,321.96,220319,,,A*7C
$GPGGA,190653.600,4305.1694,N,07740.8349,W,1,07,1.30,165.4,M,-34.4,M,,*57
lng=-77.680580, lat=43.086158, altitude=165.40, speed=0.02, satellites=7, angle=321.9600, fixquality=1
$GPRMC,190653.800,A,4305.1693,N,07740.8349,W,0.02,88.78,220319,,,A*47
$GPGGA,190654.000,4305.1693,N,07740.8349,W,1,07,1.30,165.3,M,-34.4,M,,*56
lng=-77.680580, lat=43.086158, altitude=165.40, speed=0.02, satellites=7, angle=88.7800, fixquality=1
$GPRMC,190654.200,A,4305.1693,N,07740.8349,W,0.03,151.45,220319,,,A*70
$GPGGA,190654.400,4305.1693,N,07740.8349,W,1,07,1.30,165.3,M,-34.4,M,,*52
lng=-77.680580, lat=43.086158, altitude=165.30, speed=0.03, satellites=7, angle=151.4500, fixquality=1
$GPRMC,190654.600,A,4305.1693,N,07740.8348,W,0.03,141.14,220319,,,A*70
$GPGGA,190654.800,4305.1693,N,07740.8348,W,1,07,1.30,165.3,M,-34.4,M,,*5F
lng=-77.680580, lat=43.086158, altitude=165.30, speed=0.03, satellites=7, angle=141.1400, fixquality=1
$GPRMC,190655.000,A,4305.1692,N,07740.8348,W,0.01,93.65,220319,,,A*4C
$GPGGA,190655.200,4305.1692,N,07740.8348,W,1,07,1.30,165.3,M,-34.4,M,,*55
lng=-77.680580, lat=43.086158, altitude=165.30, speed=0.01, satellites=7, angle=93.6500, fixquality=1
$GPRMC,190655.400,A,4305.1692,N,07740.8348,W,0.01,114.83,220319,,,A*7E
$GPGGA,190655.600,4305.1692,N,07740.8348,W,1,07,1.30,165.2,M,-34.4,M,,*50
lng=-77.680580, lat=43.086158, altitude=165.30, speed=0.01, satellites=7, angle=114.8300, fixquality=1
$GPRMC,190655.800,A,4305.1692,N,07740.8348,W,0.01,115.27,220319,,,A*7D
$GPGGA,190656.000,4305.1691,N,07740.8348,W,1,07,1.30,165.2,M,-34.4,M,,*56
lng=-77.680580, lat=43.086158, altitude=165.20, speed=0.01, satellites=7, angle=115.2700, fixquality=1
$GPRMC,190656.200,A,4305.1691,N,07740.8348,W,0.03,146.04,220319,,,A*72
$GPGGA,190656.400,4305.1691,N,07740.8348,W,1,07,1.30,165.1,M,-34.4,M,,*51
lng=-77.680580, lat=43.086147, altitude=165.20, speed=0.03, satellites=7, angle=146.0400, fixquality=1
$GPRMC,190656.600,A,4305.1691,N,07740.8348,W,0.03,216.09,220319,,,A*7D
$GPGGA,190656.800,4305.1691,N,07740.8347,W,1,07,1.30,165.1,M,-34.4,M,,*52
lng=-77.680580, lat=43.086147, altitude=165.10, speed=0.03, satellites=7, angle=216.0900, fixquality=1
$GPRMC,190657.000,A,4305.1691,N,07740.8347,W,0.03,258.70,220319,,,A*71
$GPGGA,190657.200,4305.1691,N,07740.8347,W,1,07,1.30,165.1,M,-34.4,M,,*59
lng=-77.680572, lat=43.086147, altitude=165.10, speed=0.03, satellites=7, angle=258.7000, fixquality=1
$GPRMC,190657.400,A,4305.1690,N,07740.8347,W,0.01,31.83,220319,,,A*47
$GPGGA,190657.600,4305.1690,N,07740.8347,W,1,07,1.30,165.1,M,-34.4,M,,*5C
lng=-77.680572, lat=43.086147, altitude=165.10, speed=0.01, satellites=7, angle=31.8300, fixquality=1
$GPRMC,190657.800,A,4305.1690,N,07740.8347,W,0.02,227.94,220319,,,A*7B
$GPGGA,190658.000,4305.1690,N,07740.8347,W,1,07,1.30,165.1,M,-34.4,M,,*55
lng=-77.680572, lat=43.086147, altitude=165.10, speed=0.02, satellites=7, angle=227.9400, fixquality=1
$GPRMC,190658.200,A,4305.1690,N,07740.8347,W,0.02,310.11,220319,,,A*76
$GPGGA,190658.400,4305.1689,N,07740.8346,W,1,07,1.30,165.1,M,-34.4,M,,*58
lng=-77.680572, lat=43.086147, altitude=165.10, speed=0.02, satellites=7, angle=310.1100, fixquality=1
$GPRMC,190658.600,A,4305.1689,N,07740.8346,W,0.02,145.03,220319,,,A*7A
$GPGGA,190658.800,4305.1689,N,07740.8346,W,1,07,1.30,165.1,M,-34.4,M,,*54
lng=-77.680572, lat=43.086147, altitude=165.10, speed=0.02, satellites=7, angle=145.0300, fixquality=1
$GPRMC,190659.000,A,4305.1688,N,07740.8346,W,0.03,159.29,220319,,,A*78
$GPGGA,190659.200,4305.1688,N,07740.8346,W,1,07,1.30,165.0,M,-34.4,M,,*5F
lng=-77.680572, lat=43.086147, altitude=165.10, speed=0.03, satellites=7, angle=159.2900, fixquality=1
$GPRMC,190659.400,A,4305.1688,N,07740.8345,W,0.03,110.47,220319,,,A*7A
$GPGGA,190659.600,4305.1688,N,07740.8345,W,1,07,1.30,165.0,M,-34.4,M,,*58
lng=-77.680572, lat=43.086147, altitude=165.00, speed=0.03, satellites=7, angle=110.4700, fixquality=1
$GPRMC,190659.800,A,4305.1687,N,07740.8345,W,0.01,286.64,220319,,,A*76
$GPGGA,190700.000,4305.1687,N,07740.8345,W,1,07,1.30,165.0,M,-34.4,M,,*5C
lng=-77.680572, lat=43.086139, altitude=165.00, speed=0.01, satellites=7, angle=286.6400, fixquality=1
$GPRMC,190700.200,A,4305.1687,N,07740.8345,W,0.02,151.27,220319,,,A*7C
$GPGGA,190700.400,4305.1687,N,07740.8345,W,1,08,1.21,164.9,M,-34.4,M,,*5F
lng=-77.680572, lat=43.086139, altitude=165.00, speed=0.02, satellites=7, angle=151.2700, fixquality=1
$GPRMC,190700.600,A,4305.1686,N,07740.8345,W,0.03,146.42,220319,,,A*7D
$GPGGA,190700.800,4305.1686,N,07740.8344,W,1,08,1.21,164.9,M,-34.4,M,,*53
lng=-77.680572, lat=43.086139, altitude=164.90, speed=0.03, satellites=8, angle=146.4200, fixquality=1
$GPRMC,190701.000,A,4305.1686,N,07740.8344,W,0.03,347.71,220319,,,A*78
$GPGGA,190701.200,4305.1686,N,07740.8344,W,1,08,1.49,164.9,M,-34.4,M,,*56
lng=-77.680572, lat=43.086139, altitude=164.90, speed=0.03, satellites=8, angle=347.7100, fixquality=1
$GPRMC,190701.400,A,4305.1685,N,07740.8344,W,0.02,180.58,220319,,,A*7C
$GPGGA,190701.600,4305.1685,N,07740.8344,W,1,08,1.21,164.9,M,-34.4,M,,*5F
lng=-77.680572, lat=43.086139, altitude=164.90, speed=0.02, satellites=8, angle=180.5800, fixquality=1
$GPRMC,190701.800,A,4305.1685,N,07740.8344,W,0.03,188.28,220319,,,A*7E
$GPGGA,190702.000,4305.1685,N,07740.8344,W,1,08,1.21,164.9,M,-34.4,M,,*5A
lng=-77.680572, lat=43.086139, altitude=164.90, speed=0.03, satellites=8, angle=188.2800, fixquality=1
$GPRMC,190702.200,A,4305.1684,N,07740.8343,W,0.02,58.77,220319,,,A*46
$GPGGA,190702.400,4305.1684,N,07740.8343,W,1,08,1.21,164.9,M,-34.4,M,,*58
lng=-77.680572, lat=43.086139, altitude=164.90, speed=0.02, satellites=8, angle=58.7700, fixquality=1
$GPRMC,190702.600,A,4305.1684,N,07740.8343,W,0.01,173.97,220319,,,A*77
$GPGGA,190702.800,4305.1684,N,07740.8343,W,1,08,1.21,164.8,M,-34.4,M,,*55
lng=-77.680572, lat=43.086139, altitude=164.90, speed=0.01, satellites=8, angle=173.9700, fixquality=1
$GPRMC,190703.000,A,4305.1683,N,07740.8343,W,0.03,280.33,220319,,,A*74
$GPGGA,190703.200,4305.1683,N,07740.8342,W,1,08,1.21,164.8,M,-34.4,M,,*58
lng=-77.680572, lat=43.086139, altitude=164.80, speed=0.03, satellites=8, angle=280.3300, fixquality=1
$GPRMC,190703.400,A,4305.1683,N,07740.8342,W,0.01,69.14,220319,,,A*43
$GPGGA,190703.600,4305.1682,N,07740.8342,W,1,08,1.21,164.8,M,-34.4,M,,*5D
lng=-77.680564, lat=43.086139, altitude=164.80, speed=0.01, satellites=8, angle=69.1400, fixquality=1
$GPRMC,190703.800,A,4305.1682,N,07740.8342,W,0.01,211.80,220319,,,A*7E
$GPGGA,190704.000,4305.1682,N,07740.8342,W,1,08,1.21,164.8,M,-34.4,M,,*5C
lng=-77.680564, lat=43.086132, altitude=164.80, speed=0.01, satellites=8, angle=211.8000, fixquality=1
$GPRMC,190704.200,A,4305.1682,N,07740.8342,W,0.02,242.02,220319,,,A*7C
$GPGGA,190704.400,4305.1682,N,07740.8342,W,1,08,1.21,164.8,M,-34.4,M,,*58
lng=-77.680564, lat=43.086132, altitude=164.80, speed=0.02, satellites=8, angle=242.0200, fixquality=1
$GPRMC,190704.600,A,4305.1682,N,07740.8342,W,0.03,340.88,220319,,,A*78
$GPGGA,190704.800,4305.1682,N,07740.8342,W,1,08,1.21,164.8,M,-34.4,M,,*54
lng=-77.680564, lat=43.086132, altitude=164.80, speed=0.03, satellites=8, angle=340.8800, fixquality=1
$GPRMC,190705.000,A,4305.1682,N,07740.8342,W,0.04,317.45,220319,,,A*7B
$GPGGA,190705.200,4305.1682,N,07740.8342,W,1,08,1.21,164.8,M,-34.4,M,,*5F
lng=-77.680564, lat=43.086132, altitude=164.80, speed=0.04, satellites=8, angle=317.4500, fixquality=1
$GPRMC,190705.400,A,4305.1682,N,07740.8342,W,0.00,27.72,220319,,,A*4F
$GPGGA,190705.600,4305.1682,N,07740.8342,W,1,08,1.21,164.8,M,-34.4,M,,*5B
lng=-77.680564, lat=43.086132, altitude=164.80, speed=0.00, satellites=8, angle=27.7200, fixquality=1
$GPRMC,190705.800,A,4305.1682,N,07740.8342,W,0.02,8.66,220319,,,A*79
$GPGGA,190706.000,4305.1682,N,07740.8342,W,1,08,1.49,164.8,M,-34.4,M,,*50
lng=-77.680564, lat=43.086132, altitude=164.80, speed=0.02, satellites=8, angle=8.6600, fixquality=1
$GPRMC,190706.200,A,4305.1682,N,07740.8342,W,0.02,301.96,220319,,,A*75
$GPGGA,190706.400,4305.1682,N,07740.8342,W,1,08,1.21,164.8,M,-34.4,M,,*5A
lng=-77.680564, lat=43.086132, altitude=164.80, speed=0.02, satellites=8, angle=301.9600, fixquality=1
$GPRMC,190706.600,A,4305.1682,N,07740.8342,W,0.02,237.61,220319,,,A*7D
$GPGGA,190706.800,4305.1682,N,07740.8342,W,1,08,1.21,164.8,M,-34.4,M,,*56
lng=-77.680564, lat=43.086132, altitude=164.80, speed=0.02, satellites=8, angle=237.6100, fixquality=1
$GPRMC,190707.000,A,4305.1682,N,07740.8342,W,0.02,144.96,220319,,,A*75
$GPGGA,190707.200,4305.1682,N,07740.8342,W,1,08,1.21,164.8,M,-34.4,M,,*5D
lng=-77.680564, lat=43.086132, altitude=164.80, speed=0.02, satellites=8, angle=144.9600, fixquality=1
$GPRMC,190707.400,A,4305.1682,N,07740.8342,W,0.03,197.71,220319,,,A*77
$GPGGA,190707.600,4305.1682,N,07740.8342,W,1,08,1.21,164.8,M,-34.4,M,,*59
lng=-77.680564, lat=43.086132, altitude=164.80, speed=0.03, satellites=8, angle=197.7100, fixquality=1
$GPRMC,190707.800,A,4305.1682,N,07740.8342,W,0.04,31.52,220319,,,A*40
$GPGGA,190708.000,4305.1682,N,07740.8342,W,1,08,1.21,164.8,M,-34.4,M,,*50
lng=-77.680564, lat=43.086132, altitude=164.80, speed=0.04, satellites=8, angle=31.5200, fixquality=1
$GPRMC,190708.200,A,4305.1682,N,07740.8342,W,0.02,180.83,220319,,,A*74
$GPGGA,190708.400,4305.1682,N,07740.8342,W,1,08,1.21,164.8,M,-34.4,M,,*54
lng=-77.680564, lat=43.086132, altitude=164.80, speed=0.02, satellites=8, angle=180.8300, fixquality=1
$GPRMC,190708.600,A,4305.1682,N,07740.8342,W,0.02,223.43,220319,,,A*76
$GPGGA,190708.800,4305.1682,N,07740.8342,W,1,08,1.21,164.8,M,-34.4,M,,*58
lng=-77.680564, lat=43.086132, altitude=164.80, speed=0.02, satellites=8, angle=223.4300, fixquality=1
$GPRMC,190709.000,A,4305.1682,N,07740.8342,W,0.03,171.89,220319,,,A*72
$GPGGA,190709.200,4305.1682,N,07740.8342,W,1,08,1.21,164.8,M,-34.4,M,,*53
lng=-77.680564, lat=43.086132, altitude=164.80, speed=0.03, satellites=8, angle=171.8900, fixquality=1
$GPRMC,190709.400,A,4305.1682,N,07740.8342,W,0.02,169.96,220319,,,A*70
$GPGGA,190709.600,4305.1682,N,07740.8342,W,1,08,1.21,164.8,M,-34.4,M,,*57
lng=-77.680564, lat=43.086132, altitude=164.80, speed=0.02, satellites=8, angle=169.9600, fixquality=1
$GPRMC,190709.800,A,4305.1682,N,07740.8342,W,0.02,324.42,220319,,,A*7E
$GPGGA,190710.000,4305.1682,N,07740.8342,W,1,08,1.21,164.8,M,-34.4,M,,*59
lng=-77.680564, lat=43.086132, altitude=164.80, speed=0.02, satellites=8, angle=324.4200, fixquality=1
$GPRMC,190710.200,A,4305.1682,N,07740.8342,W,0.03,68.08,220319,,,A*48
$GPGGA,190710.400,4305.1682,N,07740.8342,W,1,08,1.21,164.8,M,-34.4,M,,*5D
lng=-77.680564, lat=43.086132, altitude=164.80, speed=0.03, satellites=8, angle=68.0800, fixquality=1
$GPRMC,190710.600,A,4305.1682,N,07740.8342,W,0.03,88.33,220319,,,A*4A
$GPGGA,190710.800,4305.1682,N,07740.8342,W,1,08,1.21,164.8,M,-34.4,M,,*51
lng=-77.680564, lat=43.086132, altitude=164.80, speed=0.03, satellites=8, angle=88.3300, fixquality=1
$GPRMC,190711.000,A,4305.1682,N,07740.8342,W,0.00,135.30,220319,,,A*7A
$GPGGA,190711.200,4305.1682,N,07740.8342,W,1,08,1.21,164.8,M,-34.4,M,,*5A
lng=-77.680564, lat=43.086132, altitude=164.80, speed=0.00, satellites=8, angle=135.3000, fixquality=1
$GPRMC,190711.400,A,4305.1682,N,07740.8342,W,0.01,55.96,220319,,,A*44
$GPGGA,190711.600,4305.1682,N,07740.8342,W,1,08,1.21,164.8,M,-34.4,M,,*5E
lng=-77.680564, lat=43.086132, altitude=164.80, speed=0.01, satellites=8, angle=55.9600, fixquality=1
$GPRMC,190711.800,A,4305.1682,N,07740.8342,W,0.04,157.31,220319,,,A*73
$GPGGA,190712.000,4305.1682,N,07740.8342,W,1,08,1.21,164.8,M,-34.4,M,,*5B
lng=-77.680564, lat=43.086132, altitude=164.80, speed=0.04, satellites=8, angle=157.3100, fixquality=1
$GPRMC,190712.200,A,4305.1682,N,07740.8342,W,0.01,226.43,220319,,,A*7F
$GPGGA,190712.400,4305.1682,N,07740.8342,W,1,08,1.21,164.8,M,-34.4,M,,*5F
lng=-77.680564, lat=43.086132, altitude=164.80, speed=0.01, satellites=8, angle=226.4300, fixquality=1
$GPRMC,190712.600,A,4305.1682,N,07740.8342,W,0.01,76.49,220319,,,A*46
$GPGGA,190712.800,4305.1682,N,07740.8342,W,1,08,1.49,164.8,M,-34.4,M,,*5D
lng=-77.680564, lat=43.086132, altitude=164.80, speed=0.01, satellites=8, angle=76.4900, fixquality=1
$GPRMC,190713.000,A,4305.1682,N,07740.8342,W,0.01,15.46,220319,,,A*4B
$GPGGA,190713.200,4305.1682,N,07740.8342,W,1,08,1.49,164.8,M,-34.4,M,,*56
lng=-77.680564, lat=43.086132, altitude=164.80, speed=0.01, satellites=8, angle=15.4600, fixquality=1
$GPRMC,190713.400,A,4305.1682,N,07740.8342,W,0.01,145.92,220319,,,A*72
$GPGGA,190713.600,4305.1682,N,07740.8342,W,1,08,1.49,164.8,M,-34.4,M,,*52
lng=-77.680564, lat=43.086132, altitude=164.80, speed=0.01, satellites=8, angle=145.9200, fixquality=1
$GPRMC,190713.800,A,4305.1682,N,07740.8342,W,0.01,338.13,220319,,,A*7F
$GPGGA,190714.000,4305.1682,N,07740.8342,W,1,08,1.49,164.8,M,-34.4,M,,*53
lng=-77.680564, lat=43.086132, altitude=164.80, speed=0.01, satellites=8, angle=338.1300, fixquality=1
$GPRMC,190714.200,A,4305.1682,N,07740.8342,W,0.00,162.19,220319,,,A*74
$GPGGA,190714.400,4305.1682,N,07740.8342,W,1,08,1.49,164.8,M,-34.4,M,,*57
lng=-77.680564, lat=43.086132, altitude=164.80, speed=0.00, satellites=8, angle=162.1900, fixquality=1
$GPRMC,190714.600,A,4305.1682,N,07740.8342,W,0.00,7.48,220319,,,A*76
$GPGGA,190714.800,4305.1682,N,07740.8342,W,1,08,1.49,164.8,M,-34.4,M,,*5B
lng=-77.680564, lat=43.086132, altitude=164.80, speed=0.00, satellites=8, angle=7.4800, fixquality=1
$GPRMC,190715.000,A,4305.1682,N,07740.8342,W,0.01,17.74,220319,,,A*4E
$GPGGA,190715.200,4305.1682,N,07740.8342,W,1,08,1.49,164.8,M,-34.4,M,,*50
lng=-77.680564, lat=43.086132, altitude=164.80, speed=0.01, satellites=8, angle=17.7400, fixquality=1
$GPRMC,190715.400,A,4305.1682,N,07740.8342,W,0.00,296.26,220319,,,A*77
$GPGGA,190715.600,4305.1682,N,07740.8342,W,1,08,1.49,164.8,M,-34.4,M,,*54
lng=-77.680564, lat=43.086132, altitude=164.80, speed=0.00, satellites=8, angle=296.2600, fixquality=1
$GPRMC,190715.800,A,4305.1682,N,07740.8342,W,0.02,147.03,220319,,,A*71
$GPGGA,190716.000,4305.1682,N,07740.8342,W,1,08,1.49,164.8,M,-34.4,M,,*51
lng=-77.680564, lat=43.086132, altitude=164.80, speed=0.02, satellites=8, angle=147.0300, fixquality=1
$GPRMC,190716.200,A,4305.1682,N,07740.8342,W,0.00,201.29,220319,,,A*73
$GPGGA,190716.400,4305.1682,N,07740.8342,W,1,08,1.49,164.8,M,-34.4,M,,*55
lng=-77.680564, lat=43.086132, altitude=164.80, speed=0.00, satellites=8, angle=201.2900, fixquality=1
$GPRMC,190716.600,A,4305.1682,N,07740.8342,W,0.01,347.13,220319,,,A*7C
$GPGGA,190716.800,4305.1682,N,07740.8342,W,1,08,1.49,164.8,M,-34.4,M,,*59
lng=-77.680564, lat=43.086132, altitude=164.80, speed=0.01, satellites=8, angle=347.1300, fixquality=1
$GPRMC,190717.000,A,4305.1682,N,07740.8342,W,0.00,123.74,220319,,,A*7B
$GPGGA,190717.200,4305.1682,N,07740.8342,W,1,08,1.49,164.8,M,-34.4,M,,*52
lng=-77.680564, lat=43.086132, altitude=164.80, speed=0.00, satellites=8, angle=123.7400, fixquality=1
$GPRMC,190717.400,A,4305.1682,N,07740.8342,W,0.00,59.31,220319,,,A*42
$GPGGA,190717.600,4305.1682,N,07740.8342,W,1,08,1.49,164.8,M,-34.4,M,,*56
lng=-77.680564, lat=43.086132, altitude=164.80, speed=0.00, satellites=8, angle=59.3100, fixquality=1
$GPRMC,190717.800,A,4305.1682,N,07740.8342,W,0.00,229.82,220319,,,A*73
$GPGGA,190718.000,4305.1682,N,07740.8342,W,1,08,1.49,164.8,M,-34.4,M,,*5F
lng=-77.680564, lat=43.086132, altitude=164.80, speed=0.00, satellites=8, angle=229.8200, fixquality=1
$GPRMC,190718.200,A,4305.1682,N,07740.8342,W,0.00,233.04,220319,,,A*73
$GPGGA,190718.400,4305.1682,N,07740.8342,W,1,08,1.49,164.8,M,-34.4,M,,*5B
lng=-77.680564, lat=43.086132, altitude=164.80, speed=0.00, satellites=8, angle=233.0400, fixquality=1
$GPRMC,190718.600,A,4305.1682,N,07740.8342,W,0.01,148.59,220319,,,A*71
$GPGGA,190718.800,4305.1682,N,07740.8342,W,1,08,1.49,164.8,M,-34.4,M,,*57
lng=-77.680564, lat=43.086132, altitude=164.80, speed=0.01, satellites=8, angle=148.5900, fixquality=1
$GPRMC,190719.000,A,4305.1682,N,07740.8342,W,0.01,60.58,220319,,,A*4C
$GPGGA,190719.200,4305.1682,N,07740.8342,W,1,08,1.49,164.8,M,-34.4,M,,*5C
lng=-77.680564, lat=43.086132, altitude=164.80, speed=0.01, satellites=8, angle=60.5800, fixquality=1
$GPRMC,190719.400,A,4305.1682,N,07740.8342,W,0.00,193.72,220319,,,A*7C
$GPGGA,190719.600,4305.1682,N,07740.8342,W,1,08,1.49,164.8,M,-34.4,M,,*58
lng=-77.680564, lat=43.086132, altitude=164.80, speed=0.00, satellites=8, angle=193.7200, fixquality=1
$GPRMC,190719.800,A,4305.1682,N,07740.8342,W,0.01,317.40,220319,,,A*7E
$GPGGA,190720.000,4305.1682,N,07740.8342,W,1,08,1.49,164.8,M,-34.4,M,,*54
lng=-77.680564, lat=43.086132, altitude=164.80, speed=0.01, satellites=8, angle=317.4000, fixquality=1
$GPRMC,190720.200,A,4305.1682,N,07740.8342,W,0.00,198.63,220319,,,A*7B
$GPGGA,190720.400,4305.1682,N,07740.8342,W,1,08,1.49,164.8,M,-34.4,M,,*50
lng=-77.680564, lat=43.086132, altitude=164.80, speed=0.00, satellites=8, angle=198.6300, fixquality=1
$GPRMC,190720.600,A,4305.1682,N,07740.8342,W,0.01,190.43,220319,,,A*74
$GPGGA,190720.800,4305.1682,N,07740.8342,W,1,08,1.49,164.8,M,-34.4,M,,*5C
lng=-77.680564, lat=43.086132, altitude=164.80, speed=0.01, satellites=8, angle=190.4300, fixquality=1
$GPRMC,190721.000,A,4305.1682,N,07740.8342,W,0.00,279.75,220319,,,A*73
$GPGGA,190721.200,4305.1682,N,07740.8342,W,1,08,1.49,164.8,M,-34.4,M,,*57
lng=-77.680564, lat=43.086132, altitude=164.80, speed=0.00, satellites=8, angle=279.7500, fixquality=1
$GPRMC,190721.400,A,4305.1682,N,07740.8342,W,0.01,36.48,220319,,,A*41
$GPGGA,190721.600,4305.1682,N,07740.8342,W,1,08,1.49,164.8,M,-34.4,M,,*53
lng=-77.680564, lat=43.086132, altitude=164.80, speed=0.01, satellites=8, angle=36.4800, fixquality=1
$GPRMC,190721.800,A,4305.1682,N,07740.8342,W,0.00,89.99,220319,,,A*44
$GPGGA,190722.000,4305.1682,N,07740.8342,W,1,08,1.49,164.8,M,-34.4,M,,*56
lng=-77.680564, lat=43.086132, altitude=164.80, speed=0.00, satellites=8, angle=89.9900, fixquality=1
$GPRMC,190722.200,A,4305.1682,N,07740.8342,W,0.00,235.08,220319,,,A*70
$GPGGA,190722.400,4305.1682,N,07740.8342,W,1,08,1.49,164.8,M,-34.4,M,,*52
lng=-77.680564, lat=43.086132, altitude=164.80, speed=0.00, satellites=8, angle=235.0800, fixquality=1
$GPRMC,190722.600,A,4305.1682,N,07740.8342,W,0.01,182.31,220319,,,A*70
$GPGGA,190722.800,4305.1682,N,07740.8342,W,1,08,1.49,164.8,M,-34.4,M,,*5E
lng=-77.680564, lat=43.086132, altitude=164.80, speed=0.01, satellites=8, angle=182.3100, fixquality=1
$GPRMC,190723.000,A,4305.1682,N,07740.8342,W,0.00,173.50,220319,,,A*7F
$GPGGA,190723.200,4305.1682,N,07740.8342,W,1,08,1.49,164.8,M,-34.4,M,,*55
lng=-77.680564, lat=43.086132, altitude=164.80, speed=0.00, satellites=8, angle=173.5000, fixquality=1
$GPRMC,190723.400,A,4305.1682,N,07740.8342,W,0.01,226.41,220319,,,A*79
$GPGGA,190723.600,4305.1682,N,07740.8342,W,1,08,1.49,164.8,M,-34.4,M,,*51
lng=-77.680564, lat=43.086132, altitude=164.80, speed=0.01, satellites=8, angle=226.4100, fixquality=1
$GPRMC,190723.800,A,4305.1682,N,07740.8342,W,0.00,101.42,220319,,,A*71
$GPGGA,190724.000,4305.1682,N,07740.8342,W,1,08,1.49,164.8,M,-34.4,M,,*50
lng=-77.680564, lat=43.086132, altitude=164.80, speed=0.00, satellites=8, angle=101.4200, fixquality=1
$GPRMC,190724.200,A,4305.1682,N,07740.8342,W,0.01,273.60,220319,,,A*7B
$GPGGA,190724.400,4305.1682,N,07740.8342,W,1,08,1.49,164.8,M,-34.4,M,,*54
lng=-77.680564, lat=43.086132, altitude=164.80, speed=0.01, satellites=8, angle=273.6000, fixquality=1
$GPRMC,190724.600,A,4305.1682,N,07740.8342,W,0.00,97.33,220319,,,A*40
$GPGGA,190724.800,4305.1682,N,07740.8342,W,1,08,1.49,164.8,M,-34.4,M,,*58
lng=-77.680564, lat=43.086132, altitude=164.80, speed=0.00, satellites=8, angle=97.3300, fixquality=1
$GPRMC,190725.000,A,4305.1682,N,07740.8342,W,0.01,169.36,220319,,,A*73
$GPGGA,190725.200,4305.1682,N,07740.8342,W,1,08,1.49,164.8,M,-34.4,M,,*53
lng=-77.680564, lat=43.086132, altitude=164.80, speed=0.01, satellites=8, angle=169.3600, fixquality=1
$GPRMC,190725.400,A,4305.1682,N,07740.8342,W,0.00,12.31,220319,,,A*4C
$GPGGA,190725.600,4305.1682,N,07740.8342,W,1,08,1.49,164.8,M,-34.4,M,,*57
lng=-77.680564, lat=43.086132, altitude=164.80, speed=0.00, satellites=8, angle=12.3100, fixquality=1
$GPRMC,190725.800,A,4305.1682,N,07740.8342,W,0.01,318.37,220319,,,A*7E
$GPGGA,190726.000,4305.1682,N,07740.8342,W,1,08,1.49,164.8,M,-34.4,M,,*52
lng=-77.680564, lat=43.086132, altitude=164.80, speed=0.01, satellites=8, angle=318.3700, fixquality=1
$GPRMC,190726.200,A,4305.1682,N,07740.8342,W,0.00,207.32,220319,,,A*7C
$GPGGA,190726.400,4305.1682,N,07740.8342,W,1,08,1.49,164.8,M,-34.4,M,,*56
lng=-77.680564, lat=43.086132, altitude=164.80, speed=0.00, satellites=8, angle=207.3200, fixquality=1
$GPRMC,190726.600,A,4305.1682,N,07740.8342,W,0.01,162.56,220319,,,A*7B
$GPGGA,190726.800,4305.1682,N,07740.8342,W,1,08,1.49,164.8,M,-34.4,M,,*5A
lng=-77.680564, lat=43.086132, altitude=164.80, speed=0.01, satellites=8, angle=162.5600, fixquality=1
$GPRMC,190727.000,A,4305.1682,N,07740.8342,W,0.00,280.64,220319,,,A*73
$GPGGA,190727.200,4305.1682,N,07740.8342,W,1,08,1.49,164.8,M,-34.4,M,,*51
lng=-77.680564, lat=43.086132, altitude=164.80, speed=0.00, satellites=8, angle=280.6400, fixquality=1
$GPRMC,190727.400,A,4305.1682,N,07740.8342,W,0.01,294.23,220319,,,A*70
$GPGGA,190727.600,4305.1682,N,07740.8342,W,1,08,1.49,164.8,M,-34.4,M,,*55
lng=-77.680564, lat=43.086132, altitude=164.80, speed=0.01, satellites=8, angle=294.2300, fixquality=1
$GPRMC,190727.800,A,4305.1682,N,07740.8342,W,0.01,183.21,220319,,,A*7B
$GPGGA,190728.000,4305.1682,N,07740.8342,W,1,08,1.49,164.8,M,-34.4,M,,*5C
lng=-77.680564, lat=43.086132, altitude=164.80, speed=0.01, satellites=8, angle=183.2100, fixquality=1
$GPRMC,190728.200,A,4305.1682,N,07740.8342,W,0.01,162.02,220319,,,A*70
$GPGGA,190728.400,4305.1682,N,07740.8342,W,1,08,1.49,164.8,M,-34.4,M,,*58
lng=-77.680564, lat=43.086132, altitude=164.80, speed=0.01, satellites=8, angle=162.0200, fixquality=1
$GPRMC,190728.600,A,4305.1682,N,07740.8342,W,0.00,104.41,220319,,,A*72
$GPGGA,190728.800,4305.1682,N,07740.8342,W,1,08,1.49,164.8,M,-34.4,M,,*54
lng=-77.680564, lat=43.086132, altitude=164.80, speed=0.00, satellites=8, angle=104.4100, fixquality=1
$GPRMC,190729.000,A,4305.1682,N,07740.8342,W,0.01,298.41,220319,,,A*72
$GPGGA,190729.200,4305.1682,N,07740.8342,W,1,08,1.49,164.8,M,-34.4,M,,*5F
lng=-77.680564, lat=43.086132, altitude=164.80, speed=0.01, satellites=8, angle=298.4100, fixquality=1
$GPRMC,190729.400,A,4305.1682,N,07740.8342,W,0.00,259.10,220319,,,A*7E
$GPGGA,190729.600,4305.1682,N,07740.8342,W,1,08,1.49,164.8,M,-34.4,M,,*5B
lng=-77.680564, lat=43.086132, altitude=164.80, speed=0.00, satellites=8, angle=259.1000, fixquality=1
$GPRMC,190729.800,A,4305.1682,N,07740.8342,W,0.00,245.13,220319,,,A*7C
$GPGGA,190730.000,4305.1682,N,07740.8342,W,1,08,1.49,164.8,M,-34.4,M,,*55
lng=-77.680564, lat=43.086132, altitude=164.80, speed=0.00, satellites=8, angle=245.1300, fixquality=1
$GPRMC,190730.200,A,4305.1682,N,07740.8342,W,0.01,160.27,220319,,,A*7C
$GPGGA,190730.400,4305.1682,N,07740.8342,W,1,08,1.49,164.8,M,-34.4,M,,*51
lng=-77.680564, lat=43.086132, altitude=164.80, speed=0.01, satellites=8, angle=160.2700, fixquality=1
$GPRMC,190730.600,A,4305.1682,N,07740.8342,W,0.01,154.38,220319,,,A*71
$GPGGA,190730.800,4305.1682,N,07740.8342,W,1,08,1.49,164.8,M,-34.4,M,,*5D
lng=-77.680564, lat=43.086132, altitude=164.80, speed=0.01, satellites=8, angle=154.3800, fixquality=1
$GPRMC,190731.000,A,4305.1682,N,07740.8342,W,0.01,27.71,220319,,,A*4E
$GPGGA,190731.200,4305.1682,N,07740.8342,W,1,08,1.49,164.8,M,-34.4,M,,*56
lng=-77.680564, lat=43.086132, altitude=164.80, speed=0.01, satellites=8, angle=27.7100, fixquality=1
$GPRMC,190731.400,A,4305.1682,N,07740.8342,W,0.00,10.15,220319,,,A*4D
$GPGGA,190731.600,4305.1682,N,07740.8342,W,1,08,1.49,164.8,M,-34.4,M,,*52
lng=-77.680564, lat=43.086132, altitude=164.80, speed=0.00, satellites=8, angle=10.1500, fixquality=1
$GPRMC,190731.800,A,4305.1682,N,07740.8342,W,0.01,214.55,220319,,,A*72
$GPGGA,190732.000,4305.1682,N,07740.8342,W,1,08,1.49,164.8,M,-34.4,M,,*57
lng=-77.680564, lat=43.086132, altitude=164.80, speed=0.01, satellites=8, angle=214.5500, fixquality=1
$GPRMC,190732.200,A,4305.1682,N,07740.8342,W,0.00,204.33,220319,,,A*7B
$GPGGA,190732.400,4305.1682,N,07740.8342,W,1,08,1.49,164.8,M,-34.4,M,,*53
lng=-77.680564, lat=43.086132, altitude=164.80, speed=0.00, satellites=8, angle=204.3300, fixquality=1
$GPRMC,190732.600,A,4305.1682,N,07740.8342,W,0.00,164.23,220319,,,A*7B
$GPGGA,190732.800,4305.1682,N,07740.8342,W,1,08,1.49,164.8,M,-34.4,M,,*5F
lng=-77.680564, lat=43.086132, altitude=164.80, speed=0.00, satellites=8, angle=164.2300, fixquality=1
$GPRMC,190733.000,A,4305.1682,N,07740.8342,W,0.00,101.02,220319,,,A*7C
$GPGGA,190733.200,4305.1682,N,07740.8342,W,1,08,1.49,164.8,M,-34.4,M,,*54
lng=-77.680564, lat=43.086132, altitude=164.80, speed=0.00, satellites=8, angle=101.0200, fixquality=1
$GPRMC,190733.400,A,4305.1682,N,07740.8342,W,0.01,347.87,220319,,,A*74
$GPGGA,190733.600,4305.1682,N,07740.8342,W,1,08,1.49,164.8,M,-34.4,M,,*50
lng=-77.680564, lat=43.086132, altitude=164.80, speed=0.01, satellites=8, angle=347.8700, fixquality=1
$GPRMC,190733.800,A,4305.1682,N,07740.8342,W,0.01,218.48,220319,,,A*70
$GPGGA,190734.000,4305.1682,N,07740.8342,W,1,08,1.49,164.8,M,-34.4,M,,*51
lng=-77.680564, lat=43.086132, altitude=164.80, speed=0.01, satellites=8, angle=218.4800, fixquality=1
$GPRMC,190734.200,A,4305.1682,N,07740.8342,W,0.01,338.78,220319,,,A*7D
$GPGGA,190734.400,4305.1682,N,07740.8342,W,1,08,1.49,164.8,M,-34.4,M,,*55
lng=-77.680564, lat=43.086132, altitude=164.80, speed=0.01, satellites=8, angle=338.7800, fixquality=1
$GPRMC,190734.600,A,4305.1682,N,07740.8342,W,0.00,169.83,220319,,,A*7A
$GPGGA,190734.800,4305.1682,N,07740.8342,W,1,08,1.49,164.8,M,-34.4,M,,*59
lng=-77.680564, lat=43.086132, altitude=164.80, speed=0.00, satellites=8, angle=169.8300, fixquality=1
$GPRMC,190735.000,A,4305.1682,N,07740.8342,W,0.00,41.53,220319,,,A*4B
$GPGGA,190735.200,4305.1682,N,07740.8342,W,1,08,1.49,164.8,M,-34.4,M,,*52
lng=-77.680564, lat=43.086132, altitude=164.80, speed=0.00, satellites=8, angle=41.5300, fixquality=1
$GPRMC,190735.400,A,4305.1682,N,07740.8342,W,0.01,315.50,220319,,,A*7F
$GPGGA,190735.600,4305.1682,N,07740.8342,W,1,08,1.49,164.8,M,-34.4,M,,*56
lng=-77.680564, lat=43.086132, altitude=164.80, speed=0.01, satellites=8, angle=315.5000, fixquality=1
$GPRMC,190735.800,A,4305.1682,N,07740.8342,W,0.00,246.03,220319,,,A*73
$GPGGA,190736.000,4305.1682,N,07740.8342,W,1,08,1.49,164.8,M,-34.4,M,,*53
lng=-77.680564, lat=43.086132, altitude=164.80, speed=0.00, satellites=8, angle=246.0300, fixquality=1
$GPRMC,190736.200,A,4305.1682,N,07740.8342,W,0.01,275.92,220319,,,A*73
$GPGGA,190736.400,4305.1682,N,07740.8342,W,1,08,1.49,164.8,M,-34.4,M,,*57
lng=-77.680564, lat=43.086132, altitude=164.80, speed=0.01, satellites=8, angle=275.9200, fixquality=1
$GPRMC,190736.600,A,4305.1682,N,07740.8342,W,0.01,296.68,220319,,,A*7F
$GPGGA,190736.800,4305.1682,N,07740.8342,W,1,08,1.49,164.8,M,-34.4,M,,*5B
lng=-77.680564, lat=43.086132, altitude=164.80, speed=0.01, satellites=8, angle=296.6800, fixquality=1
$GPRMC,190737.000,A,4305.1682,N,07740.8342,W,0.00,197.23,220319,,,A*74
$GPGGA,190737.200,4305.1682,N,07740.8342,W,1,08,1.49,164.8,M,-34.4,M,,*50
lng=-77.680564, lat=43.086132, altitude=164.80, speed=0.00, satellites=8, angle=197.2300, fixquality=1
$GPRMC,190737.400,A,4305.1682,N,07740.8342,W,0.01,235.24,220319,,,A*7D
$GPGGA,190737.600,4305.1682,N,07740.8342,W,1,08,1.49,164.8,M,-34.4,M,,*54
lng=-77.680564, lat=43.086132, altitude=164.80, speed=0.01, satellites=8, angle=235.2400, fixquality=1
$GPRMC,190737.800,A,4305.1682,N,07740.8342,W,0.00,0.00,220319,,,A*72
$GPGGA,190738.000,4305.1682,N,07740.8342,W,1,08,1.49,164.8,M,-34.4,M,,*5D
lng=-77.680564, lat=43.086132, altitude=164.80, speed=0.00, satellites=8, angle=0.0000, fixquality=1
$GPRMC,190738.200,A,4305.1682,N,07740.8342,W,0.00,28.09,220319,,,A*44
$GPGGA,190738.400,4305.1682,N,07740.8342,W,1,08,1.49,164.8,M,-34.4,M,,*59
lng=-77.680564, lat=43.086132, altitude=164.80, speed=0.00, satellites=8, angle=28.0900, fixquality=1
$GPRMC,190738.600,A,4305.1682,N,07740.8342,W,0.01,160.78,220319,,,A*7A
$GPGGA,190738.800,4305.1682,N,07740.8342,W,1,08,1.49,164.8,M,-34.4,M,,*55
lng=-77.680564, lat=43.086132, altitude=164.80, speed=0.01, satellites=8, angle=160.7800, fixquality=1
$GPRMC,190739.000,A,4305.1682,N,07740.8342,W,0.00,136.32,220319,,,A*71
$GPGGA,190739.200,4305.1682,N,07740.8342,W,1,08,1.49,164.8,M,-34.4,M,,*5E
lng=-77.680564, lat=43.086132, altitude=164.80, speed=0.00, satellites=8, angle=136.3200, fixquality=1
$GPRMC,190739.400,A,4305.1682,N,07740.8342,W,0.01,191.22,220319,,,A*78
$GPGGA,190739.600,4305.1682,N,07740.8342,W,1,08,1.49,164.8,M,-34.4,M,,*5A
lng=-77.680564, lat=43.086132, altitude=164.80, speed=0.01, satellites=8, angle=191.2200, fixquality=1
$GPRMC,190739.800,A,4305.1682,N,07740.8342,W,0.00,359.30,220319,,,A*70
$GPGGA,190740.000,4305.1682,N,07740.8342,W,1,08,1.49,164.8,M,-34.4,M,,*52
lng=-77.680564, lat=43.086132, altitude=164.80, speed=0.00, satellites=8, angle=359.3000, fixquality=1
$GPRMC,190740.200,A,4305.1682,N,07740.8342,W,0.00,172.68,220319,,,A*72
$GPGGA,190740.400,4305.1682,N,07740.8342,W,1,08,1.49,164.8,M,-34.4,M,,*56
lng=-77.680564, lat=43.086132, altitude=164.80, speed=0.00, satellites=8, angle=172.6800, fixquality=1
$GPRMC,190740.600,A,4305.1682,N,07740.8342,W,0.00,147.02,220319,,,A*7C
$GPGGA,190740.800,4305.1682,N,07740.8342,W,1,08,1.49,164.8,M,-34.4,M,,*5A
lng=-77.680564, lat=43.086132, altitude=164.80, speed=0.00, satellites=8, angle=147.0200, fixquality=1
$GPRMC,190741.000,A,4305.1682,N,07740.8342,W,0.01,150.59,220319,,,A*72
$GPGGA,190741.200,4305.1682,N,07740.8342,W,1,08,1.49,164.8,M,-34.4,M,,*51
lng=-77.680564, lat=43.086132, altitude=164.80, speed=0.01, satellites=8, angle=150.5900, fixquality=1
$GPRMC,190741.400,A,4305.1682,N,07740.8342,W,0.01,152.77,220319,,,A*78
$GPGGA,190741.600,4305.1682,N,07740.8342,W,1,08,1.49,164.8,M,-34.4,M,,*55
lng=-77.680564, lat=43.086132, altitude=164.80, speed=0.01, satellites=8, angle=152.7700, fixquality=1
$GPRMC,190741.800,A,4305.1682,N,07740.8342,W,0.01,285.00,220319,,,A*7D
$GPGGA,190742.000,4305.1682,N,07740.8342,W,1,08,1.49,164.8,M,-34.4,M,,*50
lng=-77.680564, lat=43.086132, altitude=164.80, speed=0.01, satellites=8, angle=285.0000, fixquality=1
$GPRMC,190742.200,A,4305.1682,N,07740.8342,W,0.00,0.00,220319,,,A*7A
$GPGGA,190742.400,4305.1682,N,07740.8342,W,1,08,1.49,164.8,M,-34.4,M,,*54
lng=-77.680564, lat=43.086132, altitude=164.80, speed=0.00, satellites=8, angle=0.0000, fixquality=1
$GPRMC,190742.600,A,4305.1682,N,07740.8342,W,0.00,0.00,220319,,,A*7E
$GPGGA,190742.800,4305.1682,N,07740.8342,W,1,08,1.49,164.8,M,-34.4,M,,*58
lng=-77.680564, lat=43.086132, altitude=164.80, speed=0.00, satellites=8, angle=0.0000, fixquality=1
$GPRMC,190743.000,A,4305.1682,N,07740.8342,W,0.00,114.00,220319,,,A*7D
$GPGGA,190743.200,4305.1682,N,07740.8342,W,1,08,1.49,164.8,M,-34.4,M,,*53
lng=-77.680564, lat=43.086132, altitude=164.80, speed=0.00, satellites=8, angle=114.0000, fixquality=1
$GPRMC,190743.400,A,4305.1682,N,07740.8342,W,0.01,347.50,220319,,,A*79
$GPGGA,190743.600,4305.1682,N,07740.8342,W,1,08,1.49,164.8,M,-34.4,M,,*57
lng=-77.680564, lat=43.086132, altitude=164.80, speed=0.01, satellites=8, angle=347.5000, fixquality=1
$GPRMC,190743.800,A,4305.1682,N,07740.8342,W,0.01,35.92,220319,,,A*4D
$GPGGA,190744.000,4305.1682,N,07740.8342,W,1,08,1.49,164.8,M,-34.4,M,,*56
lng=-77.680564, lat=43.086132, altitude=164.80, speed=0.01, satellites=8, angle=35.9200, fixquality=1
$GPRMC,190744.200,A,4305.1682,N,07740.8342,W,0.00,161.65,220319,,,A*79
$GPGGA,190744.400,4305.1682,N,07740.8342,W,1,08,1.49,164.8,M,-34.4,M,,*52
lng=-77.680564, lat=43.086132, altitude=164.80, speed=0.00, satellites=8, angle=161.6500, fixquality=1
$GPRMC,190744.600,A,4305.1682,N,07740.8342,W,0.00,237.74,220319,,,A*7D
$GPGGA,190744.800,4305.1682,N,07740.8342,W,1,08,1.49,164.8,M,-34.4,M,,*5E
lng=-77.680564, lat=43.086132, altitude=164.80, speed=0.00, satellites=8, angle=237.7400, fixquality=1
$GPRMC,190745.000,A,4305.1682,N,07740.8342,W,0.00,150.99,220319,,,A*7B
$GPGGA,190745.200,4305.1682,N,07740.8342,W,1,08,1.49,164.8,M,-34.4,M,,*55
lng=-77.680564, lat=43.086132, altitude=164.80, speed=0.00, satellites=8, angle=150.9900, fixquality=1
$GPRMC,190745.400,A,4305.1682,N,07740.8342,W,0.00,336.74,220319,,,A*7E
$GPGGA,190745.600,4305.1682,N,07740.8342,W,1,08,1.49,164.8,M,-34.4,M,,*51
lng=-77.680564, lat=43.086132, altitude=164.80, speed=0.00, satellites=8, angle=336.7400, fixquality=1
$GPRMC,190745.800,A,4305.1682,N,07740.8342,W,0.01,170.54,220319,,,A*71
$GPGGA,190746.000,4305.1682,N,07740.8342,W,1,08,1.49,164.8,M,-34.4,M,,*54
lng=-77.680564, lat=43.086132, altitude=164.80, speed=0.01, satellites=8, angle=170.5400, fixquality=1
$GPRMC,190746.200,A,4305.1682,N,07740.8342,W,0.01,181.44,220319,,,A*77
$GPGGA,190746.400,4305.1682,N,07740.8342,W,1,08,1.49,164.8,M,-34.4,M,,*50
lng=-77.680564, lat=43.086132, altitude=164.80, speed=0.01, satellites=8, angle=181.4400, fixquality=1
$GPRMC,190746.600,A,4305.1682,N,07740.8342,W,0.00,0.00,220319,,,A*7A
$GPGGA,190746.800,4305.1682,N,07740.8342,W,1,08,1.49,164.8,M,-34.4,M,,*5C
lng=-77.680564, lat=43.086132, altitude=164.80, speed=0.00, satellites=8, angle=0.0000, fixquality=1
$GPRMC,190747.000,A,4305.1682,N,07740.8342,W,0.01,189.04,220319,,,A*78
$GPGGA,190747.200,4305.1682,N,07740.8342,W,1,08,1.49,164.8,M,-34.4,M,,*57
lng=-77.680564, lat=43.086132, altitude=164.80, speed=0.01, satellites=8, angle=189.0400, fixquality=1
$GPRMC,190747.400,A,4305.1682,N,07740.8342,W,0.00,89.77,220319,,,A*48
$GPGGA,190747.600,4305.1682,N,07740.8342,W,1,08,1.49,164.8,M,-34.4,M,,*53
lng=-77.680564, lat=43.086132, altitude=164.80, speed=0.00, satellites=8, angle=89.7700, fixquality=1
$GPRMC,190747.800,A,4305.1682,N,07740.8342,W,0.00,123.45,220319,,,A*74
$GPGGA,190748.000,4305.1682,N,07740.8342,W,1,08,1.49,164.8,M,-34.4,M,,*5A
lng=-77.680564, lat=43.086132, altitude=164.80, speed=0.00, satellites=8, angle=123.4500, fixquality=1
$GPRMC,190748.200,A,4305.1682,N,07740.8342,W,0.01,57.03,220319,,,A*40
$GPGGA,190748.400,4305.1682,N,07740.8342,W,1,08,1.49,164.8,M,-34.4,M,,*5E
lng=-77.680564, lat=43.086132, altitude=164.80, speed=0.01, satellites=8, angle=57.0300, fixquality=1
$GPRMC,190748.600,A,4305.1682,N,07740.8342,W,0.00,142.65,220319,,,A*70
$GPGGA,190748.800,4305.1682,N,07740.8342,W,1,08,1.49,164.8,M,-34.4,M,,*52
lng=-77.680564, lat=43.086132, altitude=164.80, speed=0.00, satellites=8, angle=142.6500, fixquality=1
$GPRMC,190749.000,A,4305.1682,N,07740.8342,W,0.00,86.36,220319,,,A*48
$GPGGA,190749.200,4305.1682,N,07740.8342,W,1,08,1.49,164.8,M,-34.4,M,,*59
lng=-77.680564, lat=43.086132, altitude=164.80, speed=0.00, satellites=8, angle=86.3600, fixquality=1
$GPRMC,190749.400,A,4305.1682,N,07740.8342,W,0.00,185.51,220319,,,A*7F
$GPGGA,190749.600,4305.1682,N,07740.8342,W,1,08,1.49,164.8,M,-34.4,M,,*5D
lng=-77.680564, lat=43.086132, altitude=164.80, speed=0.00, satellites=8, angle=185.5100, fixquality=1
$GPRMC,190749.800,A,4305.1682,N,07740.8342,W,0.01,328.52,220319,,,A*74
$GPGGA,190750.000,4305.1682,N,07740.8342,W,1,08,1.49,164.8,M,-34.4,M,,*53
lng=-77.680564, lat=43.086132, altitude=164.80, speed=0.01, satellites=8, angle=328.5200, fixquality=1
$GPRMC,190750.200,A,4305.1682,N,07740.8342,W,0.01,270.83,220319,,,A*76
$GPGGA,190750.400,4305.1682,N,07740.8342,W,1,08,1.49,164.8,M,-34.4,M,,*57
lng=-77.680564, lat=43.086132, altitude=164.80, speed=0.01, satellites=8, angle=270.8300, fixquality=1
$GPRMC,190750.600,A,4305.1682,N,07740.8342,W,0.00,6.42,220319,,,A*7D
$GPGGA,190750.800,4305.1682,N,07740.8342,W,1,08,1.49,164.8,M,-34.4,M,,*5B
lng=-77.680564, lat=43.086132, altitude=164.80, speed=0.00, satellites=8, angle=6.4200, fixquality=1
$GPRMC,190751.000,A,4305.1682,N,07740.8342,W,0.01,30.96,220319,,,A*47
$GPGGA,190751.200,4305.1682,N,07740.8342,W,1,08,1.49,164.8,M,-34.4,M,,*50
lng=-77.680564, lat=43.086132, altitude=164.80, speed=0.01, satellites=8, angle=30.9600, fixquality=1
$GPRMC,190751.400,A,4305.1682,N,07740.8342,W,0.07,23.83,220319,,,A*43
$GPGGA,190751.600,4305.1682,N,07740.8342,W,1,08,1.49,164.8,M,-34.4,M,,*54
lng=-77.680564, lat=43.086132, altitude=164.80, speed=0.07, satellites=8, angle=23.8300, fixquality=1
$GPRMC,190751.800,A,4305.1682,N,07740.8342,W,0.11,15.49,220319,,,A*4B
$GPGGA,190752.000,4305.1682,N,07740.8342,W,1,08,1.49,164.8,M,-34.4,M,,*51
lng=-77.680564, lat=43.086132, altitude=164.80, speed=0.11, satellites=8, angle=15.4900, fixquality=1
$GPRMC,190752.200,A,4305.1682,N,07740.8342,W,1.46,358.66,220319,,,A*76
$GPGGA,190752.400,4305.1682,N,07740.8342,W,1,08,1.49,164.8,M,-34.4,M,,*55
lng=-77.680564, lat=43.086132, altitude=164.80, speed=1.46, satellites=8, angle=358.6600, fixquality=1
$GPRMC,190752.600,A,4305.1683,N,07740.8342,W,1.62,8.49,220319,,,A*7E
$GPGGA,190752.800,4305.1684,N,07740.8342,W,1,08,1.49,164.7,M,-34.4,M,,*50
lng=-77.680564, lat=43.086139, altitude=164.80, speed=1.62, satellites=8, angle=8.4900, fixquality=1
$GPRMC,190753.000,A,4305.1685,N,07740.8342,W,1.99,5.48,220319,,,A*77
$GPGGA,190753.200,4305.1686,N,07740.8341,W,1,08,1.49,164.7,M,-34.4,M,,*5A
lng=-77.680564, lat=43.086139, altitude=164.70, speed=1.99, satellites=8, angle=5.4800, fixquality=1
$GPRMC,190753.400,A,4305.1687,N,07740.8341,W,2.33,12.08,220319,,,A*43
$GPGGA,190753.600,4305.1688,N,07740.8341,W,1,08,1.49,164.7,M,-34.4,M,,*50
lng=-77.680564, lat=43.086139, altitude=164.70, speed=2.33, satellites=8, angle=12.0800, fixquality=1
$GPRMC,190753.800,A,4305.1690,N,07740.8340,W,2.73,16.16,220319,,,A*47
$GPGGA,190754.000,4305.1691,N,07740.8340,W,1,08,1.21,164.6,M,-34.4,M,,*57
lng=-77.680564, lat=43.086147, altitude=164.70, speed=2.73, satellites=8, angle=16.1600, fixquality=1
$GPRMC,190754.200,A,4305.1692,N,07740.8339,W,3.05,20.79,220319,,,A*4A
$GPGGA,190754.400,4305.1694,N,07740.8338,W,1,08,1.21,164.6,M,-34.4,M,,*59
lng=-77.680564, lat=43.086158, altitude=164.60, speed=3.05, satellites=8, angle=20.7900, fixquality=1
$GPRMC,190754.600,A,4305.1695,N,07740.8337,W,3.39,29.44,220319,,,A*4F
$GPGGA,190754.800,4305.1697,N,07740.8336,W,1,08,1.21,164.5,M,-34.4,M,,*5B
lng=-77.680557, lat=43.086158, altitude=164.60, speed=3.39, satellites=8, angle=29.4400, fixquality=1
$GPRMC,190755.000,A,4305.1698,N,07740.8334,W,3.74,35.57,220319,,,A*40
$GPGGA,190755.200,4305.1700,N,07740.8333,W,1,08,1.21,164.5,M,-34.4,M,,*5A
lng=-77.680557, lat=43.086166, altitude=164.50, speed=3.74, satellites=8, angle=35.5700, fixquality=1
$GPRMC,190755.400,A,4305.1701,N,07740.8331,W,3.24,46.17,220319,,,A*45
$GPGGA,190755.600,4305.1702,N,07740.8329,W,1,07,1.35,164.5,M,-34.4,M,,*5D
lng=-77.680549, lat=43.086166, altitude=164.50, speed=3.24, satellites=8, angle=46.1700, fixquality=1
$GPRMC,190755.800,A,4305.1702,N,07740.8326,W,3.27,58.47,220319,,,A*45
$GPGGA,190756.000,4305.1703,N,07740.8324,W,1,08,1.21,164.4,M,-34.4,M,,*5F
lng=-77.680541, lat=43.086174, altitude=164.50, speed=3.27, satellites=7, angle=58.4700, fixquality=1
$GPRMC,190756.200,A,4305.1703,N,07740.8322,W,2.79,70.18,220319,,,A*43
$GPGGA,190756.400,4305.1703,N,07740.8320,W,1,07,1.35,164.5,M,-34.4,M,,*54
lng=-77.680534, lat=43.086174, altitude=164.40, speed=2.79, satellites=8, angle=70.1800, fixquality=1
$GPRMC,190756.600,A,4305.1703,N,07740.8318,W,2.20,82.96,220319,,,A*49
$GPGGA,190756.800,4305.1703,N,07740.8317,W,1,07,1.35,164.5,M,-34.4,M,,*5C
lng=-77.680534, lat=43.086174, altitude=164.50, speed=2.20, satellites=7, angle=82.9600, fixquality=1
$GPRMC,190757.000,A,4305.1703,N,07740.8316,W,1.33,90.07,220319,,,A*4A
$GPGGA,190757.200,4305.1703,N,07740.8315,W,1,07,1.35,164.5,M,-34.4,M,,*55
lng=-77.680526, lat=43.086174, altitude=164.50, speed=1.33, satellites=7, angle=90.0700, fixquality=1
$GPRMC,190757.400,A,4305.1702,N,07740.8315,W,0.23,173.84,220319,,,A*7B
$GPGGA,190757.600,4305.1702,N,07740.8316,W,1,07,1.35,164.5,M,-34.4,M,,*53
lng=-77.680526, lat=43.086174, altitude=164.50, speed=0.23, satellites=7, angle=173.8400, fixquality=1
$GPRMC,190757.800,A,4305.1702,N,07740.8318,W,1.41,245.26,220319,,,A*71
$GPGGA,190758.000,4305.1701,N,07740.8321,W,1,07,1.35,164.5,M,-34.4,M,,*5D
lng=-77.680534, lat=43.086174, altitude=164.50, speed=1.41, satellites=7, angle=245.2600, fixquality=1
$GPRMC,190758.200,A,4305.1701,N,07740.8323,W,4.08,256.97,220319,,,A*7F
$GPGGA,190758.400,4305.1700,N,07740.8327,W,1,08,1.49,164.5,M,-34.4,M,,*5A
lng=-77.680541, lat=43.086166, altitude=164.50, speed=4.08, satellites=7, angle=256.9700, fixquality=1
$GPRMC,190758.600,A,4305.1700,N,07740.8332,W,6.70,267.22,220319,,,A*7B
$GPGGA,190758.800,4305.1700,N,07740.8338,W,1,07,1.54,164.5,M,-34.4,M,,*5B
lng=-77.680549, lat=43.086166, altitude=164.50, speed=6.70, satellites=8, angle=267.2200, fixquality=1
$GPRMC,190759.000,A,4305.1699,N,07740.8344,W,8.91,268.07,220319,,,A*75
$GPGGA,190759.200,4305.1699,N,07740.8351,W,1,07,1.54,164.5,M,-34.4,M,,*5E
lng=-77.680572, lat=43.086166, altitude=164.50, speed=8.91, satellites=7, angle=268.0700, fixquality=1
$GPRMC,190759.400,A,4305.1699,N,07740.8359,W,10.82,271.44,220319,,,A*49
$GPGGA,190759.600,4305.1698,N,07740.8369,W,1,07,1.54,164.5,M,-34.4,M,,*50
lng=-77.680595, lat=43.086166, altitude=164.50, speed=10.82, satellites=7, angle=271.4400, fixquality=1
$GPRMC,190759.800,A,4305.1696,N,07740.8379,W,12.79,274.07,220319,,,A*4C
$GPGGA,190800.000,4305.1696,N,07740.8389,W,1,07,1.54,164.5,M,-34.4,M,,*55
lng=-77.680633, lat=43.086158, altitude=164.50, speed=12.79, satellites=7, angle=274.0700, fixquality=1
$GPRMC,190800.200,A,4305.1695,N,07740.8400,W,14.45,275.28,220319,,,A*4A
$GPGGA,190800.400,4305.1695,N,07740.8412,W,1,07,1.54,164.5,M,-34.4,M,,*57
lng=-77.680664, lat=43.086158, altitude=164.50, speed=14.45, satellites=7, angle=275.2800, fixquality=1
$GPRMC,190800.600,A,4305.1694,N,07740.8424,W,16.02,275.40,220319,,,A*46
$GPGGA,190800.800,4305.1694,N,07740.8437,W,1,07,1.54,164.5,M,-34.4,M,,*5D
lng=-77.680702, lat=43.086158, altitude=164.50, speed=16.02, satellites=7, angle=275.4000, fixquality=1
$GPRMC,190801.000,A,4305.1694,N,07740.8451,W,17.23,275.37,220319,,,A*41
$GPGGA,190801.200,4305.1694,N,07740.8464,W,1,07,1.54,164.5,M,-34.4,M,,*50
lng=-77.680755, lat=43.086158, altitude=164.50, speed=17.23, satellites=7, angle=275.3700, fixquality=1
$GPRMC,190801.400,A,4305.1694,N,07740.8478,W,18.17,274.49,220319,,,A*4E
$GPGGA,190801.600,4305.1694,N,07740.8493,W,1,07,1.54,164.5,M,-34.4,M,,*5C
lng=-77.680793, lat=43.086158, altitude=164.50, speed=18.17, satellites=7, angle=274.4900, fixquality=1
$GPRMC,190801.800,A,4305.1694,N,07740.8508,W,18.66,273.30,220319,,,A*4B
$GPGGA,190802.000,4305.1694,N,07740.8522,W,1,06,1.44,164.4,M,-34.4,M,,*53
lng=-77.680839, lat=43.086158, altitude=164.50, speed=18.66, satellites=7, angle=273.3000, fixquality=1
$GPRMC,190802.200,A,4305.1694,N,07740.8536,W,18.60,271.83,220319,,,A*43
$GPGGA,190802.400,4305.1694,N,07740.8551,W,1,06,1.69,164.2,M,-34.4,M,,*5A
lng=-77.680892, lat=43.086158, altitude=164.40, speed=18.60, satellites=6, angle=271.8300, fixquality=1
$GPRMC,190802.600,A,4305.1693,N,07740.8565,W,18.39,269.94,220319,,,A*45
$GPGGA,190802.800,4305.1692,N,07740.8579,W,1,08,1.49,164.2,M,-34.4,M,,*56
lng=-77.680938, lat=43.086158, altitude=164.20, speed=18.39, satellites=6, angle=269.9400, fixquality=1
$GPRMC,190803.000,A,4305.1692,N,07740.8592,W,18.16,268.57,220319,,,A*48
$GPGGA,190803.200,4305.1691,N,07740.8606,W,1,08,1.49,164.2,M,-34.4,M,,*55
lng=-77.680992, lat=43.086158, altitude=164.20, speed=18.16, satellites=8, angle=268.5700, fixquality=1
$GPRMC,190803.400,A,4305.1690,N,07740.8619,W,17.81,267.52,220319,,,A*45
$GPGGA,190803.600,4305.1689,N,07740.8632,W,1,08,1.49,164.2,M,-34.4,M,,*5F
lng=-77.681030, lat=43.086147, altitude=164.20, speed=17.81, satellites=8, angle=267.5200, fixquality=1
$GPRMC,190803.800,A,4305.1688,N,07740.8646,W,17.54,266.17,220319,,,A*42
$GPGGA,190804.000,4305.1687,N,07740.8659,W,1,08,1.48,164.2,M,-34.4,M,,*5C
lng=-77.681076, lat=43.086147, altitude=164.20, speed=17.54, satellites=8, angle=266.1700, fixquality=1
$GPRMC,190804.200,A,4305.1686,N,07740.8671,W,16.93,265.62,220319,,,A*4E
$GPGGA,190804.400,4305.1685,N,07740.8684,W,1,08,1.49,164.2,M,-34.4,M,,*5B
lng=-77.681121, lat=43.086139, altitude=164.20, speed=16.93, satellites=8, angle=265.6200, fixquality=1
$GPRMC,190804.600,A,4305.1684,N,07740.8695,W,15.47,265.37,220319,,,A*48
$GPGGA,190804.800,4305.1683,N,07740.8707,W,1,08,1.48,164.3,M,-34.4,M,,*5B
lng=-77.681159, lat=43.086139, altitude=164.20, speed=15.47, satellites=8, angle=265.3700, fixquality=1
$GPRMC,190805.000,A,4305.1683,N,07740.8717,W,14.10,265.05,220319,,,A*41
$GPGGA,190805.200,4305.1682,N,07740.8728,W,1,08,1.48,164.2,M,-34.4,M,,*5D
lng=-77.681190, lat=43.086139, altitude=164.30, speed=14.10, satellites=8, angle=265.0500, fixquality=1
$GPRMC,190805.400,A,4305.1681,N,07740.8737,W,12.70,266.22,220319,,,A*43
$GPGGA,190805.600,4305.1680,N,07740.8746,W,1,08,1.48,164.0,M,-34.4,M,,*51
lng=-77.681228, lat=43.086132, altitude=164.20, speed=12.70, satellites=8, angle=266.2200, fixquality=1
$GPRMC,190805.800,A,4305.1679,N,07740.8754,W,11.43,268.24,220319,,,A*46
$GPGGA,190806.000,4305.1677,N,07740.8762,W,1,08,1.48,164.1,M,-34.4,M,,*5B
lng=-77.681259, lat=43.086132, altitude=164.00, speed=11.43, satellites=8, angle=268.2400, fixquality=1
$GPRMC,190806.200,A,4305.1675,N,07740.8769,W,10.06,271.54,220319,,,A*42
$GPGGA,190806.400,4305.1674,N,07740.8776,W,1,08,1.49,164.1,M,-34.4,M,,*58
lng=-77.681282, lat=43.086124, altitude=164.10, speed=10.06, satellites=8, angle=271.5400, fixquality=1
$GPRMC,190806.600,A,4305.1673,N,07740.8783,W,8.93,275.41,220319,,,A*71
$GPGGA,190806.800,4305.1673,N,07740.8790,W,1,08,1.49,164.1,M,-34.4,M,,*5B
lng=-77.681304, lat=43.086124, altitude=164.10, speed=8.93, satellites=8, angle=275.4100, fixquality=1
$GPRMC,190807.000,A,4305.1672,N,07740.8796,W,8.68,282.75,220319,,,A*78
$GPGGA,190807.200,4305.1673,N,07740.8803,W,1,07,1.54,164.0,M,-34.4,M,,*57
lng=-77.681320, lat=43.086116, altitude=164.10, speed=8.68, satellites=8, angle=282.7500, fixquality=1
$GPRMC,190807.400,A,4305.1674,N,07740.8809,W,8.85,292.42,220319,,,A*75
$GPGGA,190807.600,4305.1675,N,07740.8815,W,1,07,1.54,164.1,M,-34.4,M,,*53
lng=-77.681350, lat=43.086124, altitude=164.00, speed=8.85, satellites=7, angle=292.4200, fixquality=1
$GPRMC,190807.800,A,4305.1676,N,07740.8820,W,8.28,298.21,220319,,,A*78
$GPGGA,190808.000,4305.1679,N,07740.8825,W,1,07,1.35,164.1,M,-34.4,M,,*52
lng=-77.681365, lat=43.086124, altitude=164.10, speed=8.28, satellites=7, angle=298.2100, fixquality=1
