Vers 57
USE_SERIAL_FEEDBACK=false
DEVELOPMENT_MODE=false
USE_RMC_ONLY=false

$GPGGA,150748.600,4308.4629,N,07726.4292,W,1,04,4.48,148.3,M,-34.4,M,,*54
$GPRMC,150748.600,A,4308.4629,N,07726.4292,W,11.26,278.52,050319,,,A*4A
lng=-77.440483, lat=43.141048, altitude=148.30, speed=11.79, satellites=4, angle=277.1500, fixquality=1
$GPGGA,150748.800,4308.4626,N,07726.4299,W,1,04,4.48,146.5,M,-34.4,M,,*56
$GPRMC,150748.800,A,4308.4626,N,07726.4299,W,10.52,277.60,050319,,,A*4C
lng=-77.440498, lat=43.141040, altitude=146.50, speed=11.26, satellites=4, angle=278.5200, fixquality=1
$GPGGA,150749.000,4308.4620,N,07726.4307,W,1,04,4.48,144.3,M,-34.4,M,,*5B
$GPRMC,150749.000,A,4308.4620,N,07726.4307,W,9.72,278.13,050319,,,A*74
lng=-77.440513, lat=43.141033, altitude=144.30, speed=10.52, satellites=4, angle=277.6000, fixquality=1
$GPGGA,150749.200,4308.4620,N,07726.4316,W,1,04,4.48,143.4,M,-34.4,M,,*59
$GPRMC,150749.200,A,4308.4620,N,07726.4316,W,9.47,278.84,050319,,,A*7E
lng=-77.440528, lat=43.141033, altitude=143.40, speed=9.72, satellites=4, angle=278.1300, fixquality=1
$GPGGA,150749.400,4308.4618,N,07726.4323,W,1,04,4.48,142.2,M,-34.4,M,,*55
$GPRMC,150749.400,A,4308.4618,N,07726.4323,W,8.67,282.12,050319,,,A*7C
lng=-77.440536, lat=43.141033, altitude=142.20, speed=9.47, satellites=4, angle=278.8400, fixquality=1
$GPGGA,150749.600,4308.4612,N,07726.4329,W,1,04,4.48,139.9,M,-34.4,M,,*50
$GPRMC,150749.600,A,4308.4612,N,07726.4329,W,7.89,284.67,050319,,,A*75
lng=-77.440551, lat=43.141025, altitude=139.90, speed=8.67, satellites=4, angle=282.1200, fixquality=1
$GPGGA,150749.800,4308.4610,N,07726.4334,W,1,04,5.78,139.1,M,-34.4,M,,*5A
$GPRMC,150749.800,A,4308.4610,N,07726.4334,W,7.00,285.30,050319,,,A*77
lng=-77.440559, lat=43.141014, altitude=139.10, speed=7.89, satellites=4, angle=284.6700, fixquality=1
$GPGGA,150750.000,4308.4607,N,07726.4339,W,1,04,5.78,138.1,M,-34.4,M,,*50
$GPRMC,150750.000,A,4308.4607,N,07726.4339,W,6.06,282.40,050319,,,A*7B
lng=-77.440567, lat=43.141014, altitude=138.10, speed=7.00, satellites=4, angle=285.3000, fixquality=1
$GPGGA,150750.200,4308.4605,N,07726.4343,W,1,04,4.48,137.3,M,-34.4,M,,*52
$GPRMC,150750.200,A,4308.4605,N,07726.4343,W,5.80,282.98,050319,,,A*7E
lng=-77.440567, lat=43.141006, altitude=137.30, speed=6.06, satellites=4, angle=282.4000, fixquality=1
$GPGGA,150750.400,4308.4603,N,07726.4347,W,1,04,4.48,136.4,M,-34.4,M,,*50
$GPRMC,150750.400,A,4308.4603,N,07726.4347,W,5.31,284.66,050319,,,A*77
lng=-77.440574, lat=43.141006, altitude=136.40, speed=5.80, satellites=4, angle=282.9800, fixquality=1
$GPGGA,150750.600,4308.4600,N,07726.4350,W,1,04,4.48,135.7,M,-34.4,M,,*57
$GPRMC,150750.600,A,4308.4600,N,07726.4350,W,4.57,285.94,050319,,,A*7D
lng=-77.440582, lat=43.140998, altitude=135.70, speed=5.31, satellites=4, angle=284.6600, fixquality=1
$GPGGA,150750.800,4308.4598,N,07726.4351,W,1,04,5.78,134.9,M,-34.4,M,,*57
$GPRMC,150750.800,A,4308.4598,N,07726.4351,W,3.71,289.46,050319,,,A*70
lng=-77.440582, lat=43.140998, altitude=134.90, speed=4.57, satellites=4, angle=285.9400, fixquality=1
$GPGGA,150751.000,4308.4596,N,07726.4354,W,1,04,4.48,134.2,M,-34.4,M,,*5C
$GPRMC,150751.000,A,4308.4596,N,07726.4354,W,3.25,291.57,050319
lng=-77.440589, lat=43.140991, altitude=134.20, speed=3.71, satellites=4, angle=289.4600, fixquality=1
$GPGGA,150751.200,4308.4594,N,07726.4357,W,1,04,4.48,133.5,M,-34.4,M,,*5F
$GPRMC,150751.200,A,4308.4594,N,07726.4357,W,3.13,293.77,050319,,,A*7C
lng=-77.440589, lat=43.140991, altitude=133.50, speed=3.25, satellites=4, angle=291.5700, fixquality=1
$GPGGA,150751.400,4308.4592,N,07726.4359,W,1,04,4.47,132.8,M,-34.4,M,,*52
$GPRMC,150751.400,A,4308.4592,N,07726.4359,W,2.59,296.76,0503199
lng=-77.440597, lat=43.140983, altitude=132.80, speed=3.13, satellites=4, angle=293.7700, fixquality=1
$GPGGA,150751.600,4308.4590,N,07726.4360,W,1,04,4.47,131.9,M,-34.4,M,,*5A
$GPRMC,150751.600,A,4308.4590,N,07726.4360,W,1.84,293.87,050319,,,A*7B
lng=-77.440597, lat=43.140983, altitude=131.90, speed=2.59, satellites=4, angle=296.7600, fixquality=1
$GPGGA,150751.800,4308.4588,N,07726.4361,W,1,04,4.48,131.3,M,-34.4,M,,*59
$GPRMC,150751.800,A,4308.4588,N,07726.4361,W,1.05,297.06,0503199
lng=-77.440597, lat=43.140983, altitude=131.30, speed=1.84, satellites=4, angle=293.8700, fixquality=1
$GPGGA,150752.000,4308.4586,N,07726.4361,W,1,04,4.47,130.6,M,-34.4,M,,*57
$GPRMC,150752.000,A,4308.4586,N,07726.4361,W,0.55,299.56,050319,,,A*73
lng=-77.440597, lat=43.140975, altitude=130.60, speed=1.05, satellites=4, angle=297.0600, fixquality=1
$GPGGA,150752.200,4308.4585,N,07726.4361,W,1,04,4.47,130.1,M,-34.4,M,,*51
$GPRMC,150752.200,A,4308.4585,N,07726.4361,W,0.50,308.53,050319,,,A*7B
lng=-77.440597, lat=43.140975, altitude=130.10, speed=0.55, satellites=4, angle=299.5600, fixquality=1
$GPGGA,150752.400,4308.4584,N,07726.4361,W,1,04,4.47,129.7,M,-34.4,M,,*58
$GPRMC,150752.400,A,4308.4584,N,07726.4361,W,0.43,323.94,050319,,,A*7C
lng=-77.440597, lat=43.140975, altitude=129.70, speed=0.50, satellites=4, angle=308.5300, fixquality=1
$GPGGA,150752.600,4308.4583,N,07726.4361,W,1,04,4.47,129.2,M,-34.4,M,,*58
$GPRMC,150752.600,A,4308.4583,N,07726.4361,W,0.43,339.18,050319,,,A*76
lng=-77.440597, lat=43.140975, altitude=129.20, speed=0.43, satellites=4, angle=323.9400, fixquality=1
$GPGGA,150752.800,4308.4582,N,07726.4361,W,1,04,4.47,128.8,M,-34.4,M,,*5C
$GPRMC,150752.800,A,4308.4582,N,07726.4361,W,0.41,337.45,050319,,,A*7D
lng=-77.440597, lat=43.140968, altitude=128.80, speed=0.43, satellites=4, angle=339.1800, fixquality=1
$GPGGA,150753.000,4308.4581,N,07726.4362,W,1,04,4.47,128.4,M,-34.4,M,,*59
$GPRMC,150753.000,A,4308.4581,N,07726.4362,W,0.40,321.19,050319,,,A*7B
lng=-77.440597, lat=43.140968, altitude=128.40, speed=0.41, satellites=4, angle=337.4500, fixquality=1
$GPGGA,150753.200,4308.4580,N,07726.4362,W,1,04,4.47,128.0,M,-34.4,M,,*5E
$GPRMC,150753.200,A,4308.4580,N,07726.4362,W,0.42,316.92,050319,,,A*7D
lng=-77.440597, lat=43.140968, altitude=128.00, speed=0.40, satellites=4, angle=321.1900, fixquality=1
$GPGGA,150753.400,4308.4580,N,07726.4363,W,1,04,4.47,127.8,M,-34.4,M,,*5E
$GPRMC,150753.400,A,4308.4580,N,07726.4363,W,0.45,302.46,050319,,,A*71
lng=-77.440605, lat=43.140968, altitude=127.80, speed=0.42, satellites=4, angle=316.9200, fixquality=1
$GPGGA,150753.600,4308.4579,N,07726.4363,W,1,04,4.47,127.5,M,-34.4,M,,*57
$GPRMC,150753.600,A,4308.4579,N,07726.4363,W,0.51,287.54,050319,,,A*7F
lng=-77.440605, lat=43.140968, altitude=127.50, speed=0.45, satellites=4, angle=302.4600, fixquality=1
$GPGGA,150753.800,4308.4578,N,07726.4365,W,1,04,4.47,127.2,M,-34.4,M,,*59
$GPRMC,150753.800,A,4308.4578,N,07726.4365,W,0.70,276.51,050319,,,A*7E
lng=-77.440605, lat=43.140968, altitude=127.20, speed=0.51, satellites=4, angle=287.5400, fixquality=1
$GPGGA,150754.000,4308.4577,N,07726.4367,W,1,04,4.47,127.0,M,-34.4,M,,*59
$GPRMC,150754.000,A,4308.4577,N,07726.4367,W,0.94,275.86,050319,,,A*7F
lng=-77.440605, lat=43.140956, altitude=127.00, speed=0.70, satellites=4, angle=276.5100, fixquality=1
$GPGGA,150754.200,4308.4577,N,07726.4368,W,1,04,4.47,126.6,M,-34.4,M,,*53
$GPRMC,150754.200,A,4308.4577,N,07726.4368,W,1.02,276.38,050319,,,A*7A
lng=-77.440620, lat=43.140956, altitude=126.60, speed=0.94, satellites=4, angle=275.8600, fixquality=1
$GPGGA,150754.400,4308.4577,N,07726.4370,W,1,04,4.47,126.4,M,-34.4,M,,*5E
$GPRMC,150754.400,A,4308.4577,N,07726.4370,W,1.28,278.64,050319,,,A*7A
lng=-77.440620, lat=43.140956, altitude=126.40, speed=1.02, satellites=4, angle=276.3800, fixquality=1
$GPGGA,150754.600,4308.4577,N,07726.4373,W,1,04,4.47,126.0,M,-34.4,M,,*5B
$GPRMC,150754.600,A,4308.4577,N,07726.4373,W,1.58,280.75,050319,,,A*7B
lng=-77.440628, lat=43.140956, altitude=126.00, speed=1.28, satellites=4, angle=278.6400, fixquality=1
$GPGGA,150754.800,4308.4577,N,07726.4376,W,1,04,4.47,125.8,M,-34.4,M,,*5B
$GPRMC,150754.800,A,4308.4577,N,07726.4376,W,1.79,283.44,050319,,,A*72
lng=-77.440628, lat=43.140956, altitude=125.80, speed=1.58, satellites=4, angle=280.7500, fixquality=1
$GPGGA,150755.000,4308.4577,N,07726.4379,W,1,04,4.47,125.4,M,-34.4,M,,*51
$GPRMC,150755.000,A,4308.4577,N,07726.4379,W,2.36,285.65,050319,,,A*79
lng=-77.440635, lat=43.140956, altitude=125.40, speed=1.79, satellites=4, angle=283.4400, fixquality=1
$GPGGA,150755.200,4308.4577,N,07726.4381,W,1,04,4.46,125.2,M,-34.4,M,,*53
$GPRMC,150755.200,A,4308.4577,N,07726.4381,W,2.49,285.60,050319,,,A*71
lng=-77.440635, lat=43.140956, altitude=125.20, speed=2.36, satellites=4, angle=285.6500, fixquality=1
$GPGGA,150755.400,4308.4577,N,07726.4384,W,1,04,4.46,124.8,M,-34.4,M,,*5B
$GPRMC,150755.400,A,4308.4577,N,07726.4384,W,2.91,280.53,050319,,,A*72
lng=-77.440643, lat=43.140956, altitude=124.80, speed=2.49, satellites=4, angle=285.6000, fixquality=1
$GPGGA,150755.600,4308.4577,N,07726.4388,W,1,04,4.47,124.6,M,-34.4,M,,*5A
$GPRMC,150755.600,A,4308.4577,N,07726.4388,W,3.31,279.75,050319,,,A*75
lng=-77.440650, lat=43.140956, altitude=124.60, speed=2.91, satellites=4, angle=280.5300, fixquality=1
$GPGGA,150755.800,4308.4579,N,07726.4392,W,1,04,4.47,124.4,M,-34.4,M,,*53
$GPRMC,150755.800,A,4308.4579,N,07726.4392,W,3.64,290.51,050319,,,A*7F
lng=-77.440650, lat=43.140968, altitude=124.40, speed=3.31, satellites=4, angle=279.7500, fixquality=1
$GPGGA,150756.000,4308.4580,N,07726.4396,W,1,04,4.46,124.1,M,-34.4,M,,*5E
$GPRMC,150756.000,A,4308.4580,N,07726.4396,W,4.01,292.74,050319,,,A*77
lng=-77.440658, lat=43.140968, altitude=124.10, speed=3.64, satellites=4, angle=290.5100, fixquality=1
$GPGGA,150756.200,4308.4580,N,07726.4400,W,1,04,4.46,123.7,M,-34.4,M,,*55
$GPRMC,150756.200,A,4308.4580,N,07726.4400,W,4.29,292.46,050319,,,A*76
lng=-77.440666, lat=43.140968, altitude=123.70, speed=4.01, satellites=4, angle=292.7400, fixquality=1
$GPGGA,150756.400,4308.4580,N,07726.4405,W,1,04,4.46,123.1,M,-34.4,M,,*50
$GPRMC,150756.400,A,4308.4580,N,07726.4405,W,4.55,290.91,050319,,,A*76
lng=-77.440673, lat=43.140968, altitude=123.10, speed=4.29, satellites=4, angle=292.4600, fixquality=1
$GPGGA,150756.600,4308.4581,N,07726.4410,W,1,04,4.46,122.8,M,-34.4,M,,*5F
$GPRMC,150756.600,A,4308.4581,N,07726.4410,W,4.70,289.03,050319,,,A*75
lng=-77.440681, lat=43.140968, altitude=122.80, speed=4.55, satellites=4, angle=290.9100, fixquality=1
$GPGGA,150756.800,4308.4581,N,07726.4413,W,1,04,4.46,122.5,M,-34.4,M,,*5F
$GPRMC,150756.800,A,4308.4581,N,07726.4413,W,4.33,284.89,050319
lng=-77.440689, lat=43.140968, altitude=122.50, speed=4.70, satellites=4, angle=289.0300, fixquality=1
$GPGGA,150757.000,4308.4580,N,07726.4416,W,1,04,5.78,122.2,M,-34.4,M,,*59
$GPRMC,150757.000,A,4308.4580,N,07726.4416,W,3.70,280.06,050319,,,A*7E
lng=-77.440689, lat=43.140968, altitude=122.20, speed=4.33, satellites=4, angle=284.8900, fixquality=1
$GPGGA,150757.200,4308.4580,N,07726.4419,W,1,04,4.46,122.0,M,-34.4,M,,*5A
$GPRMC,150757.200,A,4308.4580,N,07726.4419,W,3.46,280.56,0503193
lng=-77.440696, lat=43.140968, altitude=122.00, speed=3.70, satellites=4, angle=280.0600, fixquality=1
$GPGGA,150757.400,4308.4580,N,07726.4422,W,1,04,4.46,121.8,M,-34.4,M,,*5F
$GPRMC,150757.400,A,4308.4580,N,07726.4422,W,3.01,285.87,050319,,,A*77
lng=-77.440704, lat=43.140968, altitude=121.80, speed=3.46, satellites=4, angle=280.5600, fixquality=1
$GPGGA,150757.600,4308.4580,N,07726.4425,W,1,04,4.46,121.7,M,-34.4,M,,*55
$GPRMC,150757.600,A,4308.4580,N,07726.4425,W,2.95,288.33,050319C
lng=-77.440704, lat=43.140968, altitude=121.70, speed=3.01, satellites=4, angle=285.8700, fixquality=1
$GPGGA,150757.800,4308.4580,N,07726.4427,W,1,04,4.46,121.6,M,-34.4,M,,*58
$GPRMC,150757.800,A,4308.4580,N,07726.4427,W,2.58,290.48,050319,,,A*74
lng=-77.440711, lat=43.140968, altitude=121.60, speed=2.95, satellites=4, angle=288.3300, fixquality=1
$GPGGA,150758.000,4308.4579,N,07726.4428,W,1,04,4.46,121.2,M,-34.4,M,,*52
$GPRMC,150758.000,A,4308.4579,N,07726.4428,W,1.92,286.82,050319E
lng=-77.440711, lat=43.140968, altitude=121.20, speed=2.58, satellites=4, angle=290.4800, fixquality=1
$GPGGA,150758.200,4308.4578,N,07726.4429,W,1,04,4.46,120.9,M,-34.4,M,,*5A
$GPRMC,150758.200,A,4308.4578,N,07726.4429,W,1.72,286.63,050319,,,A*7D
lng=-77.440711, lat=43.140968, altitude=120.90, speed=1.92, satellites=4, angle=286.8200, fixquality=1
$GPGGA,150758.400,4308.4578,N,07726.4430,W,1,04,4.46,120.7,M,-34.4,M,,*5A
$GPRMC,150758.400,A,4308.4578,N,07726.4430,W,1.30,288.48,050319,,,A*72
lng=-77.440711, lat=43.140968, altitude=120.70, speed=1.72, satellites=4, angle=286.6300, fixquality=1
$GPGGA,150758.600,4308.4577,N,07726.4430,W,1,04,4.46,120.6,M,-34.4,M,,*56
$GPRMC,150758.600,A,4308.4577,N,07726.4430,W,1.03,290.65,050319,,,A*79
lng=-77.440711, lat=43.140956, altitude=120.60, speed=1.30, satellites=4, angle=288.4800, fixquality=1
$GPGGA,150758.800,4308.4577,N,07726.4431,W,1,04,4.46,120.3,M,-34.4,M,,*5C
$GPRMC,150758.800,A,4308.4577,N,07726.4431,W,0.79,298.69,050319,,,A*7E
lng=-77.440711, lat=43.140956, altitude=120.30, speed=1.03, satellites=4, angle=290.6500, fixquality=1
$GPGGA,150759.000,4308.4576,N,07726.4431,W,1,04,4.46,119.9,M,-34.4,M,,*54
$GPRMC,150759.000,A,4308.4576,N,07726.4431,W,0.73,313.41,050319,,,A*74
lng=-77.440711, lat=43.140956, altitude=119.90, speed=0.79, satellites=4, angle=298.6900, fixquality=1
$GPGGA,150759.200,4308.4575,N,07726.4432,W,1,04,4.46,119.5,M,-34.4,M,,*5A
$GPRMC,150759.200,A,4308.4575,N,07726.4432,W,0.68,316.81,050319,,,A*75
lng=-77.440719, lat=43.140956, altitude=119.50, speed=0.73, satellites=4, angle=313.4100, fixquality=1
$GPGGA,150759.400,4308.4574,N,07726.4432,W,1,04,4.46,119.2,M,-34.4,M,,*5A
$GPRMC,150759.400,A,4308.4574,N,07726.4432,W,0.60,315.99,050319,,,A*70
lng=-77.440719, lat=43.140956, altitude=119.20, speed=0.68, satellites=4, angle=316.8100, fixquality=1
$GPGGA,150759.600,4308.4574,N,07726.4432,W,1,04,4.46,119.0,M,-34.4,M,,*5A
$GPRMC,150759.600,A,4308.4574,N,07726.4432,W,0.53,319.65,050319,,,A*7D
lng=-77.440719, lat=43.140956, altitude=119.00, speed=0.60, satellites=4, angle=315.9900, fixquality=1
$GPGGA,150759.800,4308.4573,N,07726.4433,W,1,04,4.46,118.7,M,-34.4,M,,*54
$GPRMC,150759.800,A,4308.4573,N,07726.4433,W,0.50,334.12,050319,,,A*79
lng=-77.440719, lat=43.140956, altitude=118.70, speed=0.53, satellites=4, angle=319.6500, fixquality=1
$GPGGA,150800.000,4308.4572,N,07726.4433,W,1,04,4.45,118.4,M,-34.4,M,,*5E
$GPRMC,150800.000,A,4308.4572,N,07726.4433,W,0.43,337.18,050319,,,A*78
lng=-77.440719, lat=43.140949, altitude=118.40, speed=0.50, satellites=4, angle=334.1200, fixquality=1
$GPGGA,150800.200,4308.4585,N,07726.4429,W,1,05,2.82,122.8,M,-34.4,M,,*56
$GPRMC,150800.200,A,4308.4585,N,07726.4429,W,0.39,338.35,050319,,,A*74
lng=-77.440711, lat=43.140975, altitude=122.80, speed=0.43, satellites=5, angle=337.1800, fixquality=1
$GPGGA,150800.400,4308.4638,N,07726.4415,W,1,05,2.82,140.7,M,-34.4,M,,*51
$GPRMC,150800.400,A,4308.4638,N,07726.4415,W,0.36,337.82,050319,,,A*74
lng=-77.440689, lat=43.141063, altitude=140.70, speed=0.39, satellites=5, angle=338.3500, fixquality=1
$GPGGA,150800.600,4308.4643,N,07726.4413,W,1,05,2.82,142.5,M,-34.4,M,,*59
$GPRMC,150800.600,A,4308.4643,N,07726.4413,W,0.23,350.68,050319,,,A*7D
lng=-77.440689, lat=43.141071, altitude=142.50, speed=0.36, satellites=5, angle=337.8200, fixquality=1
$GPGGA,150800.800,4308.4643,N,07726.4412,W,1,05,3.72,143.1,M,-34.4,M,,*5D
$GPRMC,150800.800,A,4308.4643,N,07726.4412,W,0.10,4.80,050319,,,A*76
lng=-77.440689, lat=43.141071, altitude=143.10, speed=0.23, satellites=5, angle=350.6800, fixquality=1
$GPGGA,150801.000,4308.4644,N,07726.4412,W,1,05,3.72,143.5,M,-34.4,M,,*57
$GPRMC,150801.000,A,4308.4644,N,07726.4412,W,0.11,10.01,050319,,,A*45
lng=-77.440689, lat=43.141071, altitude=143.50, speed=0.10, satellites=5, angle=4.8000, fixquality=1
$GPGGA,150801.200,4308.4645,N,07726.4411,W,1,05,3.72,143.8,M,-34.4,M,,*5A
$GPRMC,150801.200,A,4308.4645,N,07726.4411,W,0.11,16.55,050319,,,A*42
lng=-77.440681, lat=43.141071, altitude=143.80, speed=0.11, satellites=5, angle=10.0100, fixquality=1
$GPGGA,150801.400,4308.4645,N,07726.4411,W,1,05,2.82,144.0,M,-34.4,M,,*5D
$GPRMC,150801.400,A,4308.4645,N,07726.4411,W,0.13,359.43,050319,,,A*79
lng=-77.440681, lat=43.141071, altitude=144.00, speed=0.11, satellites=5, angle=16.5500, fixquality=1
$GPGGA,150801.600,4308.4646,N,07726.4412,W,1,05,3.72,144.2,M,-34.4,M,,*53
$GPRMC,150801.600,A,4308.4646,N,07726.4412,W,0.13,350.92,050319,,,A*7E
lng=-77.440689, lat=43.141071, altitude=144.20, speed=0.13, satellites=5, angle=359.4300, fixquality=1
$GPGGA,150801.800,4308.4646,N,07726.4412,W,1,05,3.72,144.3,M,-34.4,M,,*5C
$GPRMC,150801.800,A,4308.4646,N,07726.4412,W,0.12,351.10,050319,,,A*7A
lng=-77.440689, lat=43.141071, altitude=144.30, speed=0.13, satellites=5, angle=350.9200, fixquality=1
$GPGGA,150802.000,4308.4646,N,07726.4412,W,1,05,3.72,144.4,M,-34.4,M,,*50
$GPRMC,150802.000,A,4308.4646,N,07726.4412,W,0.07,351.55,050319,,,A*74
lng=-77.440689, lat=43.141071, altitude=144.40, speed=0.12, satellites=5, angle=351.1000, fixquality=1
$GPGGA,150802.200,4308.4646,N,07726.4412,W,1,05,3.72,144.5,M,-34.4,M,,*53
$GPRMC,150802.200,A,4308.4646,N,07726.4412,W,0.05,334.95,050319,,,A*7B
lng=-77.440689, lat=43.141071, altitude=144.50, speed=0.07, satellites=5, angle=351.5500, fixquality=1
$GPGGA,150802.400,4308.4646,N,07726.4412,W,1,05,2.82,144.5,M,-34.4,M,,*5B
$GPRMC,150802.400,A,4308.4646,N,07726.4412,W,0.05,338.14,050319,,,A*78
lng=-77.440689, lat=43.141071, altitude=144.50, speed=0.05, satellites=5, angle=334.9500, fixquality=1
$GPGGA,150802.600,4308.4646,N,07726.4412,W,1,05,2.82,144.6,M,-34.4,M,,*5A
$GPRMC,150802.600,A,4308.4646,N,07726.4412,W,0.10,0.55,050319,,$GPGGA,150802.800,4308.4646,N,07726.4412,W,1,05,3.72,144.6,M,-34.4,M,,*5A
lng=-77.440689, lat=43.141071, altitude=144.60, speed=0.05, satellites=5, angle=338.1400, fixquality=1
$GPRMC,150803.000,A,4308.4646,N,07726.4413,W,0.03,343.94,050319,,,A*7E
$GPGGA,150803.200,4308.4646,N,07726.4413,W,1,05,2.82,144.7,M,-34.4,M,,*5F
lng=-77.440689, lat=43.141071, altitude=144.60, speed=0.03, satellites=5, angle=343.9400, fixquality=1
$GPRMC,150803.400,A,4308.4646,N,07726.4413,W,0.03,268.73,050319,,,A*7B
$GPGGA,150803.600,4308.4646,N,07726.4413,W,1,05,2.82,144.7,M,-34.4,M,,*5B
lng=-77.440689, lat=43.141071, altitude=144.70, speed=0.03, satellites=5, angle=268.7300, fixquality=1
$GPRMC,150803.800,A,4308.4647,N,07726.4413,W,0.04,356.39,050319,,,A*73
$GPGGA,150804.000,4308.4647,N,07726.4414,W,1,05,3.72,144.8,M,-34.4,M,,*5D
lng=-77.440689, lat=43.141078, altitude=144.70, speed=0.04, satellites=5, angle=356.3900, fixquality=1
$GPRMC,150804.200,A,4308.4647,N,07726.4414,W,0.02,181.17,050319,,,A*7B
$GPGGA,150804.400,4308.4647,N,07726.4414,W,1,05,2.82,144.8,M,-34.4,M,,*57
lng=-77.440689, lat=43.141078, altitude=144.80, speed=0.02, satellites=5, angle=181.1700, fixquality=1
$GPRMC,150804.600,A,4308.4647,N,07726.4414,W,0.01,359.68,050319,,,A*73
$GPGGA,150804.800,4308.4647,N,07726.4414,W,1,05,3.72,144.8,M,-34.4,M,,*55
lng=-77.440689, lat=43.141078, altitude=144.80, speed=0.01, satellites=5, angle=359.6800, fixquality=1
$GPRMC,150805.000,A,4308.4647,N,07726.4414,W,0.03,233.72,050319,,,A*70
$GPGGA,150805.200,4308.4647,N,07726.4414,W,1,05,2.82,144.9,M,-34.4,M,,*51
lng=-77.440689, lat=43.141078, altitude=144.80, speed=0.03, satellites=5, angle=233.7200, fixquality=1
$GPRMC,150805.400,A,4308.4647,N,07726.4414,W,0.02,62.56,050319,,,A*45
$GPGGA,150805.600,4308.4647,N,07726.4414,W,1,05,2.82,145.0,M,-34.4,M,,*5D
lng=-77.440689, lat=43.141078, altitude=144.90, speed=0.02, satellites=5, angle=62.5600, fixquality=1
$GPRMC,150805.800,A,4308.4647,N,07726.4414,W,0.03,334.68,050319,,,A*75
$GPGGA,150806.000,4308.4647,N,07726.4414,W,1,05,2.82,145.1,M,-34.4,M,,*59
lng=-77.440689, lat=43.141078, altitude=145.00, speed=0.03, satellites=5, angle=334.6800, fixquality=1
$GPRMC,150806.200,A,4308.4647,N,07726.4414,W,0.01,317.10,050319,,,A*70
$GPGGA,150806.400,4308.4647,N,07726.4413,W,1,05,2.82,145.1,M,-34.4,M,,*5A
lng=-77.440689, lat=43.141078, altitude=145.10, speed=0.01, satellites=5, angle=317.1000, fixquality=1
$GPRMC,150806.600,A,4308.4646,N,07726.4413,W,0.03,119.06,050319,,,A*7B
$GPGGA,150806.800,4308.4647,N,07726.4413,W,1,05,2.82,145.2,M,-34.4,M,,*55
lng=-77.440689, lat=43.141071, altitude=145.10, speed=0.03, satellites=5, angle=119.0600, fixquality=1
$GPRMC,150807.000,A,4308.4647,N,07726.4413,W,0.02,344.87,050319,,,A*7F
$GPGGA,150807.200,4308.4647,N,07726.4413,W,1,05,2.82,145.3,M,-34.4,M,,*5F
lng=-77.440689, lat=43.141078, altitude=145.20, speed=0.02, satellites=5, angle=344.8700, fixquality=1
$GPRMC,150807.400,A,4308.4647,N,07726.4413,W,0.01,89.35,050319,,,A*43
$GPGGA,150807.600,4308.4647,N,07726.4413,W,1,05,2.82,145.3,M,-34.4,M,,*5B
lng=-77.440689, lat=43.141078, altitude=145.30, speed=0.01, satellites=5, angle=89.3500, fixquality=1
$GPRMC,150807.800,A,4308.4647,N,07726.4412,W,0.02,5.25,050319,,,A*78
$GPGGA,150808.000,4308.4647,N,07726.4412,W,1,05,3.71,145.4,M,-34.4,M,,*59
lng=-77.440689, lat=43.141078, altitude=145.30, speed=0.02, satellites=5, angle=5.2500, fixquality=1
$GPRMC,150808.200,A,4308.4647,N,07726.4412,W,0.03,264.04,050319,,,A*7A
$GPGGA,150808.400,4308.4647,N,07726.4412,W,1,05,2.82,145.5,M,-34.4,M,,*51
lng=-77.440689, lat=43.141078, altitude=145.40, speed=0.03, satellites=5, angle=264.0400, fixquality=1
$GPRMC,150808.600,A,4308.4647,N,07726.4412,W,0.02,327.17,050319,,,A*7B
$GPGGA,150808.800,4308.4647,N,07726.4412,W,1,05,2.82,145.5,M,-34.4,M,,*5D
lng=-77.440689, lat=43.141078, altitude=145.50, speed=0.02, satellites=5, angle=327.1700, fixquality=1
$GPRMC,150809.000,A,4308.4647,N,07726.4412,W,0.03,277.36,050319,,,A*7A
$GPGGA,150809.200,4308.4647,N,07726.4412,W,1,05,2.82,145.6,M,-34.4,M,,*55
lng=-77.440689, lat=43.141078, altitude=145.50, speed=0.03, satellites=5, angle=277.3600, fixquality=1
$GPRMC,150809.400,A,4308.4647,N,07726.4412,W,0.01,303.14,050319,,,A*7E
$GPGGA,150809.600,4308.4647,N,07726.4412,W,1,05,2.82,145.6,M,-34.4,M,,*51
lng=-77.440689, lat=43.141078, altitude=145.60, speed=0.01, satellites=5, angle=303.1400, fixquality=1
$GPRMC,150809.800,A,4308.4647,N,07726.4411,W,0.02,358.46,050319,,,A*7B
$GPGGA,150810.000,4308.4648,N,07726.4411,W,1,05,3.71,145.6,M,-34.4,M,,*5E
lng=-77.440681, lat=43.141078, altitude=145.60, speed=0.02, satellites=5, angle=358.4600, fixquality=1
$GPRMC,150810.200,A,4308.4648,N,07726.4411,W,0.03,269.44,050319,,,A*76
$GPGGA,150810.400,4308.4648,N,07726.4411,W,1,05,2.82,145.7,M,-34.4,M,,*56
lng=-77.440681, lat=43.141078, altitude=145.60, speed=0.03, satellites=5, angle=269.4400, fixquality=1
$GPRMC,150810.600,A,4308.4648,N,07726.4411,W,0.03,298.98,050319,,,A*7D
$GPGGA,150810.800,4308.4648,N,07726.4411,W,1,05,2.82,145.6,M,-34.4,M,,*5B
lng=-77.440681, lat=43.141078, altitude=145.70, speed=0.03, satellites=5, angle=298.9800, fixquality=1
$GPRMC,150811.000,A,4308.4648,N,07726.4411,W,0.04,252.61,050319,,,A*7D
$GPGGA,150811.200,4308.4648,N,07726.4411,W,1,05,2.82,145.6,M,-34.4,M,,*50
lng=-77.440681, lat=43.141078, altitude=145.60, speed=0.04, satellites=5, angle=252.6100, fixquality=1
$GPRMC,150811.400,A,4308.4648,N,07726.4411,W,0.03,36.72,050319,,,A*4C
$GPGGA,150811.600,4308.4648,N,07726.4411,W,1,05,2.82,145.6,M,-34.4,M,,*54
lng=-77.440681, lat=43.141078, altitude=145.60, speed=0.03, satellites=5, angle=36.7200, fixquality=1
$GPRMC,150811.800,A,4308.4648,N,07726.4411,W,0.01,144.22,050319,,,A*73
$GPGGA,150812.000,4308.4648,N,07726.4411,W,1,05,2.82,145.6,M,-34.4,M,,*51
lng=-77.440681, lat=43.141078, altitude=145.60, speed=0.01, satellites=5, angle=144.2200, fixquality=1
$GPRMC,150812.200,A,4308.4648,N,07726.4411,W,0.05,51.01,050319,,,A*4A
$GPGGA,150812.400,4308.4648,N,07726.4411,W,1,05,2.82,145.6,M,-34.4,M,,*55
lng=-77.440681, lat=43.141078, altitude=145.60, speed=0.05, satellites=5, angle=51.0100, fixquality=1
$GPRMC,150812.600,A,4308.4648,N,07726.4411,W,0.02,237.28,050319,,,A*70
$GPGGA,150812.800,4308.4648,N,07726.4411,W,1,05,2.82,145.5,M,-34.4,M,,*5A
lng=-77.440681, lat=43.141078, altitude=145.60, speed=0.02, satellites=5, angle=237.2800, fixquality=1
$GPRMC,150813.000,A,4308.4648,N,07726.4411,W,0.05,189.66,050319,,,A*7C
$GPGGA,150813.200,4308.4648,N,07726.4411,W,1,05,2.82,145.5,M,-34.4,M,,*51
lng=-77.440681, lat=43.141078, altitude=145.50, speed=0.05, satellites=5, angle=189.6600, fixquality=1
$GPRMC,150813.400,A,4308.4648,N,07726.4411,W,0.02,50.48,050319,,,A*46
$GPGGA,150813.600,4308.4648,N,07726.4411,W,1,05,2.82,145.6,M,-34.4,M,,*56
lng=-77.440681, lat=43.141078, altitude=145.50, speed=0.02, satellites=5, angle=50.4800, fixquality=1
$GPRMC,150813.800,A,4308.4649,N,07726.4411,W,0.02,309.38,050319,,,A*73
$GPGGA,150814.000,4308.4649,N,07726.4411,W,1,05,2.82,145.5,M,-34.4,M,,*55
lng=-77.440681, lat=43.141078, altitude=145.60, speed=0.02, satellites=5, angle=309.3800, fixquality=1
$GPRMC,150814.200,A,4308.4649,N,07726.4411,W,0.02,25.68,050319,,,A*46
$GPGGA,150814.400,4308.4649,N,07726.4411,W,1,05,2.82,145.5,M,-34.4,M,,*51
lng=-77.440681, lat=43.141078, altitude=145.50, speed=0.02, satellites=5, angle=25.6800, fixquality=1
$GPRMC,150814.600,A,4308.4649,N,07726.4411,W,0.01,182.07,050319,,,A*74
$GPGGA,150814.800,4308.4649,N,07726.4411,W,1,05,2.82,145.5,M,-34.4,M,,*5D
lng=-77.440681, lat=43.141078, altitude=145.50, speed=0.01, satellites=5, angle=182.0700, fixquality=1
$GPRMC,150815.000,A,4308.4649,N,07726.4411,W,0.02,1.36,050319,,,A*78
$GPGGA,150815.200,4308.4649,N,07726.4411,W,1,05,3.70,145.4,M,-34.4,M,,*5B
lng=-77.440681, lat=43.141078, altitude=145.50, speed=0.02, satellites=5, angle=1.3600, fixquality=1
$GPRMC,150815.400,A,4308.4649,N,07726.4411,W,0.01,28.88,050319,,,A*41
$GPGGA,150815.600,4308.4649,N,07726.4411,W,1,05,2.82,145.4,M,-34.4,M,,*53
lng=-77.440681, lat=43.141078, altitude=145.40, speed=0.01, satellites=5, angle=28.8800, fixquality=1
$GPRMC,150815.800,A,4308.4649,N,07726.4411,W,0.02,304.05,050319,,,A*76
$GPGGA,150816.000,4308.4650,N,07726.4411,W,1,05,2.82,145.3,M,-34.4,M,,*59
lng=-77.440681, lat=43.141078, altitude=145.40, speed=0.02, satellites=5, angle=304.0500, fixquality=1
$GPRMC,150816.200,A,4308.4650,N,07726.4411,W,0.02,232.74,050319,,,A*75
$GPGGA,150816.400,4308.4650,N,07726.4411,W,1,05,2.82,145.3,M,-34.4,M,,*5D
lng=-77.440681, lat=43.141078, altitude=145.30, speed=0.02, satellites=5, angle=232.7400, fixquality=1
$GPRMC,150816.600,A,4308.4650,N,07726.4411,W,0.02,336.39,050319,,,A*7D
$GPGGA,150816.800,4308.4650,N,07726.4411,W,1,05,2.82,145.3,M,-34.4,M,,*51
lng=-77.440681, lat=43.141078, altitude=145.30, speed=0.02, satellites=5, angle=336.3900, fixquality=1
$GPRMC,150817.000,A,4308.4650,N,07726.4411,W,0.00,156.57,050319,,,A*74
$GPGGA,150817.200,4308.4650,N,07726.4410,W,1,05,2.82,145.2,M,-34.4,M,,*5A
lng=-77.440681, lat=43.141078, altitude=145.30, speed=0.00, satellites=5, angle=156.5700, fixquality=1
$GPRMC,150817.400,A,4308.4650,N,07726.4410,W,0.06,288.06,050319,,,A*73
$GPGGA,150817.600,4308.4650,N,07726.4411,W,1,05,2.82,145.2,M,-34.4,M,,*5F
lng=-77.440681, lat=43.141078, altitude=145.20, speed=0.06, satellites=5, angle=288.0600, fixquality=1
$GPRMC,150817.800,A,4308.4650,N,07726.4412,W,1.04,276.41,050319,,,A*7C
$GPGGA,150818.000,4308.4651,N,07726.4413,W,1,05,2.82,145.2,M,-34.4,M,,*55
lng=-77.440689, lat=43.141078, altitude=145.20, speed=1.04, satellites=5, angle=276.4100, fixquality=1
$GPRMC,150818.200,A,4308.4654,N,07726.4414,W,3.38,284.14,050319,,,A*7B
$GPGGA,150818.400,4308.4654,N,07726.4417,W,1,07,1.52,145.4,M,-34.4,M,,*5A
lng=-77.440689, lat=43.141090, altitude=145.20, speed=3.38, satellites=5, angle=284.1400, fixquality=1
$GPRMC,150818.600,A,4308.4654,N,07726.4421,W,4.51,276.14,050319,,,A*7C
$GPGGA,150818.800,4308.4655,N,07726.4425,W,1,07,2.70,145.4,M,-34.4,M,,*55
lng=-77.440696, lat=43.141090, altitude=145.40, speed=4.51, satellites=7, angle=276.1400, fixquality=1
$GPRMC,150819.000,A,4308.4656,N,07726.4430,W,5.94,277.72,050319,,,A*70
$GPGGA,150819.200,4308.4658,N,07726.4435,W,1,07,1.52,145.4,M,-34.4,M,,*51
lng=-77.440711, lat=43.141098, altitude=145.40, speed=5.94, satellites=7, angle=277.7200, fixquality=1
$GPRMC,150819.400,A,4308.4660,N,07726.4443,W,8.08,276.35,050319,,,A*7F
$GPGGA,150819.600,4308.4664,N,07726.4451,W,1,07,2.70,145.4,M,-34.4,M,,*5B
lng=-77.440742, lat=43.141098, altitude=145.40, speed=8.08, satellites=7, angle=276.3500, fixquality=1
$GPRMC,150819.800,A,4308.4669,N,07726.4460,W,10.25,278.82,050319,,,A*4F
$GPGGA,150820.000,4308.4677,N,07726.4467,W,1,07,2.70,145.5,M,-34.4,M,,*51
lng=-77.440765, lat=43.141113, altitude=145.40, speed=10.25, satellites=7, angle=278.8200, fixquality=1
$GPRMC,150820.200,A,4308.4682,N,07726.4476,W,11.61,278.46,050319,,,A*44
$GPGGA,150820.400,4308.4688,N,07726.4486,W,1,07,1.52,145.6,M,-34.4,M,,*5A
lng=-77.440795, lat=43.141136, altitude=145.50, speed=11.61, satellites=7, angle=278.4600, fixquality=1
$GPRMC,150820.600,A,4308.4692,N,07726.4496,W,13.31,278.14,050319,,,A*4F
$GPGGA,150820.800,4308.4694,N,07726.4508,W,1,07,1.52,145.7,M,-34.4,M,,*5D
lng=-77.440826, lat=43.141155, altitude=145.60, speed=13.31, satellites=7, angle=278.1400, fixquality=1
$GPRMC,150821.000,A,4308.4698,N,07726.4520,W,15.18,278.47,050319,,,A*45
$GPGGA,150821.200,4308.4701,N,07726.4533,W,1,07,1.52,145.9,M,-34.4,M,,*5D
lng=-77.440872, lat=43.141162, altitude=145.70, speed=15.18, satellites=7, angle=278.4700, fixquality=1
$GPRMC,150821.400,A,4308.4705,N,07726.4547,W,16.92,278.13,050319,,,A*45
$GPGGA,150821.600,4308.4708,N,07726.4561,W,1,07,2.70,146.1,M,-34.4,M,,*5F
lng=-77.440910, lat=43.141178, altitude=145.90, speed=16.92, satellites=7, angle=278.1300, fixquality=1
$GPRMC,150821.800,A,4308.4711,N,07726.4576,W,18.74,277.22,050319,,,A*45
$GPGGA,150822.000,4308.4713,N,07726.4593,W,1,07,2.70,146.3,M,-34.4,M,,*5F
lng=-77.440956, lat=43.141185, altitude=146.10, speed=18.74, satellites=7, angle=277.2200, fixquality=1
$GPRMC,150822.200,A,4308.4715,N,07726.4609,W,20.80,274.52,050319,,,A*47
$GPGGA,150822.400,4308.4717,N,07726.4627,W,1,07,1.52,146.4,M,-34.4,M,,*57
lng=-77.441017, lat=43.141193, altitude=146.30, speed=20.80, satellites=7, angle=274.5200, fixquality=1
$GPRMC,150822.600,A,4308.4718,N,07726.4646,W,22.71,273.87,050319,,,A*46
$GPGGA,150822.800,4308.4720,N,07726.4666,W,1,07,2.70,146.6,M,-34.4,M,,*5B
lng=-77.441070, lat=43.141193, altitude=146.40, speed=22.71, satellites=7, angle=273.8700, fixquality=1
$GPRMC,150823.000,A,4308.4721,N,07726.4686,W,24.49,274.18,050319,,,A*4B
$GPGGA,150823.200,4308.4722,N,07726.4706,W,1,07,1.52,146.8,M,-34.4,M,,*58
lng=-77.441146, lat=43.141201, altitude=146.60, speed=24.49, satellites=7, angle=274.1800, fixquality=1
$GPRMC,150823.400,A,4308.4724,N,07726.4727,W,25.57,274.58,050319,,,A*4A
$GPGGA,150823.600,4308.4725,N,07726.4748,W,1,07,1.52,147.0,M,-34.4,M,,*58
lng=-77.441207, lat=43.141201, altitude=146.80, speed=25.57, satellites=7, angle=274.5800, fixquality=1
$GPRMC,150823.800,A,4308.4726,N,07726.4770,W,27.35,273.93,050319,,,A*40
$GPGGA,150824.000,4308.4728,N,07726.4792,W,1,07,1.52,147.1,M,-34.4,M,,*52
lng=-77.441284, lat=43.141212, altitude=147.00, speed=27.35, satellites=7, angle=273.9300, fixquality=1
$GPRMC,150824.200,A,4308.4730,N,07726.4816,W,29.53,275.52,050319,,,A*40
$GPGGA,150824.400,4308.4732,N,07726.4839,W,1,07,1.52,147.3,M,-34.4,M,,*51
lng=-77.441360, lat=43.141220, altitude=147.10, speed=29.53, satellites=7, angle=275.5200, fixquality=1
$GPRMC,150824.600,A,4308.4733,N,07726.4862,W,30.56,276.21,050319,,,A*4E
$GPGGA,150824.800,4308.4735,N,07726.4885,W,1,07,1.52,147.6,M,-34.4,M,,*58
lng=-77.441436, lat=43.141220, altitude=147.30, speed=30.56, satellites=7, angle=276.2100, fixquality=1
$GPRMC,150825.000,A,4308.4737,N,07726.4909,W,31.56,276.24,050319,,,A*45
$GPGGA,150825.200,4308.4740,N,07726.4934,W,1,07,1.52,147.8,M,-34.4,M,,*54
lng=-77.441513, lat=43.141227, altitude=147.60, speed=31.56, satellites=7, angle=276.2400, fixquality=1
$GPRMC,150825.400,A,4308.4742,N,07726.4958,W,32.66,276.29,050319,,,A*4A
$GPGGA,150825.600,4308.4744,N,07726.4984,W,1,07,1.52,148.0,M,-34.4,M,,*58
lng=-77.441596, lat=43.141235, altitude=147.80, speed=32.66, satellites=7, angle=276.2900, fixquality=1
$GPRMC,150825.800,A,4308.4746,N,07726.5010,W,33.74,275.55,050319,,,A*4C
$GPGGA,150826.000,4308.4748,N,07726.5036,W,1,07,2.70,148.1,M,-34.4,M,,*52
lng=-77.441680, lat=43.141242, altitude=148.00, speed=33.74, satellites=7, angle=275.5500, fixquality=1
$GPRMC,150826.200,A,4308.4749,N,07726.5062,W,34.72,275.07,050319,,,A*49
$GPGGA,150826.400,4308.4751,N,07726.5089,W,1,07,2.69,148.3,M,-34.4,M,,*50
lng=-77.441772, lat=43.141250, altitude=148.10, speed=34.72, satellites=7, angle=275.0700, fixquality=1
$GPRMC,150826.600,A,4308.4754,N,07726.5117,W,35.86,275.47,050319,,,A*4C
$GPGGA,150826.800,4308.4756,N,07726.5144,W,1,07,2.70,148.4,M,-34.4,M,,*54
lng=-77.441864, lat=43.141258, altitude=148.30, speed=35.86, satellites=7, angle=275.4700, fixquality=1
$GPRMC,150827.000,A,4308.4758,N,07726.5173,W,36.93,275.94,050319,,,A*4C
$GPGGA,150827.200,4308.4761,N,07726.5201,W,1,07,1.52,148.6,M,-34.4,M,,*58
lng=-77.441947, lat=43.141258, altitude=148.40, speed=36.93, satellites=7, angle=275.9400, fixquality=1
$GPRMC,150827.400,A,4308.4763,N,07726.5230,W,37.88,274.83,050319,,,A*48
$GPGGA,150827.600,4308.4765,N,07726.5260,W,1,07,2.70,148.9,M,-34.4,M,,*53
lng=-77.442047, lat=43.141269, altitude=148.60, speed=37.88, satellites=7, angle=274.8300, fixquality=1
$GPRMC,150827.800,A,4308.4767,N,07726.5289,W,38.77,274.54,050319,,,A*47
$GPGGA,150828.000,4308.4769,N,07726.5320,W,1,07,2.70,149.1,M,-34.4,M,,*5A
lng=-77.442146, lat=43.141277, altitude=148.90, speed=38.77, satellites=7, angle=274.5400, fixquality=1
$GPRMC,150828.200,A,4308.4771,N,07726.5350,W,39.56,274.66,050319,,,A*43
$GPGGA,150828.400,4308.4773,N,07726.5380,W,1,07,2.70,149.2,M,-34.4,M,,*5C
lng=-77.442253, lat=43.141284, altitude=149.10, speed=39.56, satellites=7, angle=274.6600, fixquality=1
$GPRMC,150828.600,A,4308.4775,N,07726.5411,W,40.24,274.40,050319,,,A*4E
$GPGGA,150828.800,4308.4777,N,07726.5442,W,1,07,2.70,149.4,M,-34.4,M,,*5B
lng=-77.442352, lat=43.141292, altitude=149.20, speed=40.24, satellites=7, angle=274.4000, fixquality=1
$GPRMC,150829.000,A,4308.4778,N,07726.5473,W,40.26,274.41,050319,,,A*43
$GPGGA,150829.200,4308.4780,N,07726.5504,W,1,07,1.52,149.5,M,-34.4,M,,*59
lng=-77.442459, lat=43.141300, altitude=149.40, speed=40.26, satellites=7, angle=274.4100, fixquality=1
$GPRMC,150829.400,A,4308.4782,N,07726.5535,W,40.69,274.35,050319,,,A*49
$GPGGA,150829.600,4308.4783,N,07726.5567,W,1,07,1.52,149.6,M,-34.4,M,,*58
lng=-77.442558, lat=43.141300, altitude=149.50, speed=40.69, satellites=7, angle=274.3500, fixquality=1
$GPRMC,150829.800,A,4308.4785,N,07726.5598,W,40.84,273.95,050319,,,A*4B
$GPGGA,150830.000,4308.4788,N,07726.5630,W,1,07,2.70,149.9,M,-34.4,M,,*50
lng=-77.442657, lat=43.141307, altitude=149.60, speed=40.84, satellites=7, angle=273.9500, fixquality=1
$GPRMC,150830.200,A,4308.4789,N,07726.5661,W,41.15,273.32,050319,,,A*44
$GPGGA,150830.400,4308.4791,N,07726.5693,W,1,08,1.07,150.1,M,-34.4,M,,*59
lng=-77.442764, lat=43.141315, altitude=149.90, speed=41.15, satellites=7, angle=273.3200, fixquality=1
$GPRMC,150830.600,A,4308.4793,N,07726.5726,W,41.38,273.12,050319,,,A*44
$GPGGA,150830.800,4308.4795,N,07726.5759,W,1,08,1.07,150.3,M,-34.4,M,,*54
lng=-77.442878, lat=43.141323, altitude=150.10, speed=41.38, satellites=8, angle=273.1200, fixquality=1
$GPRMC,150831.000,A,4308.4796,N,07726.5792,W,43.18,273.00,050319,,,A*4A
$GPGGA,150831.200,4308.4798,N,07726.5825,W,1,08,1.03,150.5,M,-34.4,M,,*54
lng=-77.442985, lat=43.141323, altitude=150.30, speed=43.18, satellites=8, angle=273.0000, fixquality=1
$GPRMC,150831.400,A,4308.4800,N,07726.5859,W,43.83,272.85,050319,,,A*48
$GPGGA,150831.600,4308.4802,N,07726.5892,W,1,08,1.07,150.7,M,-34.4,M,,*56
lng=-77.443099, lat=43.141334, altitude=150.50, speed=43.83, satellites=8, angle=272.8500, fixquality=1
$GPRMC,150831.800,A,4308.4803,N,07726.5926,W,44.34,272.50,050319,,,A*4D
$GPGGA,150832.000,4308.4804,N,07726.5961,W,1,08,1.07,150.8,M,-34.4,M,,*57
lng=-77.443214, lat=43.141342, altitude=150.70, speed=44.34, satellites=8, angle=272.5000, fixquality=1
$GPRMC,150832.200,A,4308.4805,N,07726.5995,W,44.79,272.34,050319,,,A*41
$GPGGA,150832.400,4308.4806,N,07726.6030,W,1,08,1.07,151.0,M,-34.4,M,,*56
lng=-77.443328, lat=43.141342, altitude=150.80, speed=44.79, satellites=8, angle=272.3400, fixquality=1
$GPRMC,150832.600,A,4308.4807,N,07726.6064,W,45.24,272.10,050319,,,A*4C
$GPGGA,150832.800,4308.4808,N,07726.6099,W,1,08,1.07,151.1,M,-34.4,M,,*56
lng=-77.443443, lat=43.141342, altitude=151.00, speed=45.24, satellites=8, angle=272.1000, fixquality=1
$GPRMC,150833.000,A,4308.4808,N,07726.6135,W,45.51,271.73,050319,,,A*45
$GPGGA,150833.200,4308.4809,N,07726.6170,W,1,08,1.03,151.2,M,-34.4,M,,*5D
lng=-77.443557, lat=43.141349, altitude=151.10, speed=45.51, satellites=8, angle=271.7300, fixquality=1
$GPRMC,150833.400,A,4308.4809,N,07726.6206,W,46.33,271.53,050319,,,A*46
$GPGGA,150833.600,4308.4810,N,07726.6241,W,1,08,1.07,151.3,M,-34.4,M,,*55
lng=-77.443679, lat=43.141349, altitude=151.20, speed=46.33, satellites=8, angle=271.5300, fixquality=1
$GPRMC,150833.800,A,4308.4810,N,07726.6278,W,47.01,270.91,050319,,,A*44
$GPGGA,150834.000,4308.4810,N,07726.6314,W,1,07,1.26,151.5,M,-34.4,M,,*5F
lng=-77.443801, lat=43.141349, altitude=151.30, speed=47.01, satellites=8, angle=270.9100, fixquality=1
$GPRMC,150834.200,A,4308.4810,N,07726.6350,W,47.23,270.71,050319,,,A*4C
$GPGGA,150834.400,4308.4810,N,07726.6386,W,1,07,1.21,151.5,M,-34.4,M,,*57
lng=-77.443916, lat=43.141349, altitude=151.50, speed=47.23, satellites=7, angle=270.7100, fixquality=1
$GPRMC,150834.600,A,4308.4809,N,07726.6421,W,47.33,269.44,050319,,,A*4E
$GPGGA,150834.800,4308.4807,N,07726.6457,W,1,07,1.21,151.7,M,-34.4,M,,*54
lng=-77.444038, lat=43.141349, altitude=151.50, speed=47.33, satellites=7, angle=269.4400, fixquality=1
$GPRMC,150835.000,A,4308.4806,N,07726.6493,W,46.93,268.15,050319,,,A*41
$GPGGA,150835.200,4308.4805,N,07726.6528,W,1,07,1.21,151.9,M,-34.4,M,,*5A
lng=-77.444160, lat=43.141342, altitude=151.70, speed=46.93, satellites=7, angle=268.1500, fixquality=1
$GPRMC,150835.400,A,4308.4803,N,07726.6563,W,46.33,267.85,050319,,,A*42
$GPGGA,150835.600,4308.4802,N,07726.6598,W,1,07,1.21,152.0,M,-34.4,M,,*58
lng=-77.444267, lat=43.141342, altitude=151.90, speed=46.33, satellites=7, angle=267.8500, fixquality=1
$GPRMC,150835.800,A,4308.4800,N,07726.6633,W,46.05,267.21,050319,,,A*40
$GPGGA,150836.000,4308.4799,N,07726.6668,W,1,07,1.21,152.3,M,-34.4,M,,*5F
lng=-77.444381, lat=43.141334, altitude=152.00, speed=46.05, satellites=7, angle=267.2100, fixquality=1
$GPRMC,150836.200,A,4308.4797,N,07726.6702,W,45.93,267.08,050319,,,A*4C
$GPGGA,150836.400,4308.4796,N,07726.6737,W,1,08,1.03,152.5,M,-34.4,M,,*56
lng=-77.444503, lat=43.141323, altitude=152.30, speed=45.93, satellites=7, angle=267.0800, fixquality=1
$GPRMC,150836.600,A,4308.4795,N,07726.6772,W,45.80,266.60,050319,,,A*40
$GPGGA,150836.800,4308.4794,N,07726.6807,W,1,08,1.07,152.8,M,-34.4,M,,*5D
lng=-77.444618, lat=43.141323, altitude=152.50, speed=45.80, satellites=8, angle=266.6000, fixquality=1
$GPRMC,150837.000,A,4308.4793,N,07726.6842,W,45.70,266.46,050319,,,A*46
$GPGGA,150837.200,4308.4792,N,07726.6876,W,1,08,1.03,153.1,M,-34.4,M,,*5A
lng=-77.444732, lat=43.141323, altitude=152.80, speed=45.70, satellites=8, angle=266.4600, fixquality=1
$GPRMC,150837.400,A,4308.4791,N,07726.6911,W,45.68,266.64,050319,,,A*4E
$GPGGA,150837.600,4308.4791,N,07726.6946,W,1,08,1.07,153.5,M,-34.4,M,,*5F
lng=-77.444847, lat=43.141315, altitude=153.10, speed=45.68, satellites=8, angle=266.6400, fixquality=1
$GPRMC,150837.800,A,4308.4789,N,07726.6981,W,45.71,266.20,050319,,,A*4A
$GPGGA,150838.000,4308.4788,N,07726.7015,W,1,08,1.07,153.8,M,-34.4,M,,*5D
lng=-77.444969, lat=43.141315, altitude=153.50, speed=45.71, satellites=8, angle=266.2000, fixquality=1
$GPRMC,150838.200,A,4308.4787,N,07726.7049,W,45.71,265.92,050319,,,A*47
$GPGGA,150838.400,4308.4785,N,07726.7084,W,1,08,1.03,154.1,M,-34.4,M,,*56
lng=-77.445083, lat=43.141307, altitude=153.80, speed=45.71, satellites=8, angle=265.9200, fixquality=1
$GPRMC,150838.600,A,4308.4783,N,07726.7118,W,45.66,265.50,050319,,,A*4A
$GPGGA,150838.800,4308.4782,N,07726.7153,W,1,07,1.26,154.4,M,-34.4,M,,*5B
lng=-77.445198, lat=43.141307, altitude=154.10, speed=45.66, satellites=8, angle=265.5000, fixquality=1
$GPRMC,150839.000,A,4308.4780,N,07726.7187,W,45.59,265.24,050319,,,A*47
$GPGGA,150839.200,4308.4778,N,07726.7222,W,1,07,1.21,154.6,M,-34.4,M,,*55
lng=-77.445312, lat=43.141300, altitude=154.40, speed=45.59, satellites=7, angle=265.2400, fixquality=1
$GPRMC,150839.400,A,4308.4776,N,07726.7256,W,45.49,265.49,050319,,,A*4F
$GPGGA,150839.600,4308.4774,N,07726.7291,W,1,08,1.03,154.8,M,-34.4,M,,*54
lng=-77.445426, lat=43.141292, altitude=154.60, speed=45.49, satellites=7, angle=265.4900, fixquality=1
$GPRMC,150839.800,A,4308.4773,N,07726.7325,W,45.40,265.78,050319,,,A*48
$GPGGA,150840.000,4308.4771,N,07726.7359,W,1,08,1.07,155.1,M,-34.4,M,,*50
lng=-77.445541, lat=43.141292, altitude=154.80, speed=45.40, satellites=8, angle=265.7800, fixquality=1
$GPRMC,150840.200,A,4308.4769,N,07726.7393,W,45.29,265.70,050319,,,A*4D
$GPGGA,150840.400,4308.4767,N,07726.7427,W,1,08,1.07,155.4,M,-34.4,M,,*58
lng=-77.445655, lat=43.141284, altitude=155.10, speed=45.29, satellites=8, angle=265.7000, fixquality=1
$GPRMC,150840.600,A,4308.4766,N,07726.7462,W,45.20,265.82,050319,,,A*4B
$GPGGA,150840.800,4308.4764,N,07726.7496,W,1,08,1.07,155.6,M,-34.4,M,,*5F
lng=-77.445770, lat=43.141277, altitude=155.40, speed=45.20, satellites=8, angle=265.8200, fixquality=1
$GPRMC,150841.000,A,4308.4763,N,07726.7530,W,45.15,266.01,050319,,,A*41
$GPGGA,150841.200,4308.4761,N,07726.7565,W,1,08,1.03,155.8,M,-34.4,M,,*56
lng=-77.445884, lat=43.141269, altitude=155.60, speed=45.15, satellites=8, angle=266.0100, fixquality=1
$GPRMC,150841.400,A,4308.4760,N,07726.7599,W,45.20,266.21,050319,,,A*41
$GPGGA,150841.600,4308.4758,N,07726.7633,W,1,08,1.07,156.1,M,-34.4,M,,*56
lng=-77.445999, lat=43.141269, altitude=155.80, speed=45.20, satellites=8, angle=266.2100, fixquality=1
$GPRMC,150841.800,A,4308.4757,N,07726.7667,W,45.22,266.08,050319,,,A*42
$GPGGA,150842.000,4308.4755,N,07726.7701,W,1,08,1.07,156.5,M,-34.4,M,,*5A
lng=-77.446113, lat=43.141258, altitude=156.10, speed=45.22, satellites=8, angle=266.0800, fixquality=1
$GPRMC,150842.200,A,4308.4754,N,07726.7735,W,44.95,266.07,050319,,,A*4C
$GPGGA,150842.400,4308.4752,N,07726.7768,W,1,08,1.03,156.8,M,-34.4,M,,*5F
lng=-77.446220, lat=43.141258, altitude=156.50, speed=44.95, satellites=8, angle=266.0700, fixquality=1
$GPRMC,150842.600,A,4308.4750,N,07726.7802,W,45.01,265.78,050319,,,A*40
$GPGGA,150842.800,4308.4748,N,07726.7835,W,1,08,1.07,157.0,M,-34.4,M,,*52
lng=-77.446334, lat=43.141250, altitude=156.80, speed=45.01, satellites=8, angle=265.7800, fixquality=1
$GPRMC,150843.000,A,4308.4746,N,07726.7869,W,45.02,265.73,050319,,,A*45
$GPGGA,150843.200,4308.4744,N,07726.7902,W,1,08,1.03,157.2,M,-34.4,M,,*56
lng=-77.446449, lat=43.141242, altitude=157.00, speed=45.02, satellites=8, angle=265.7300, fixquality=1
$GPRMC,150843.400,A,4308.4742,N,07726.7936,W,45.05,265.68,050319,,,A*43
$GPGGA,150843.600,4308.4740,N,07726.7970,W,1,08,1.03,157.5,M,-34.4,M,,*54
lng=-77.446556, lat=43.141235, altitude=157.20, speed=45.05, satellites=8, angle=265.6800, fixquality=1
$GPRMC,150843.800,A,4308.4738,N,07726.8002,W,45.04,265.69,050319,,,A*43
$GPGGA,150844.000,4308.4735,N,07726.8036,W,1,08,1.03,157.6,M,-34.4,M,,*50
lng=-77.446670, lat=43.141227, altitude=157.50, speed=45.04, satellites=8, angle=265.6900, fixquality=1
$GPRMC,150844.200,A,4308.4733,N,07726.8069,W,45.00,265.47,050319,,,A*40
$GPGGA,150844.400,4308.4731,N,07726.8103,W,1,08,1.03,157.8,M,-34.4,M,,*59
lng=-77.446784, lat=43.141220, altitude=157.60, speed=45.00, satellites=8, angle=265.4700, fixquality=1
$GPRMC,150844.600,A,4308.4729,N,07726.8136,W,44.72,265.29,050319,,,A*48
$GPGGA,150844.800,4308.4726,N,07726.8169,W,1,08,1.07,157.9,M,-34.4,M,,*5A
lng=-77.446891, lat=43.141212, altitude=157.80, speed=44.72, satellites=8, angle=265.2900, fixquality=1
$GPRMC,150845.000,A,4308.4724,N,07726.8203,W,44.73,265.48,050319,,,A*41
$GPGGA,150845.200,4308.4722,N,07726.8236,W,1,08,1.03,158.0,M,-34.4,M,,*5E
lng=-77.447006, lat=43.141201, altitude=157.90, speed=44.73, satellites=8, angle=265.4800, fixquality=1
$GPRMC,150845.400,A,4308.4720,N,07726.8270,W,44.78,265.41,050319,,,A*47
$GPGGA,150845.600,4308.4718,N,07726.8303,W,1,08,1.03,158.1,M,-34.4,M,,*55
lng=-77.447120, lat=43.141201, altitude=158.00, speed=44.78, satellites=8, angle=265.4100, fixquality=1
$GPRMC,150845.800,A,4308.4716,N,07726.8337,W,44.80,265.42,050319,,,A*48
$GPGGA,150846.000,4308.4714,N,07726.8371,W,1,08,1.03,158.2,M,-34.4,M,,*5A
lng=-77.447227, lat=43.141193, altitude=158.10, speed=44.80, satellites=8, angle=265.4200, fixquality=1
$GPRMC,150846.200,A,4308.4712,N,07726.8405,W,45.00,265.72,050319,,,A*49
$GPGGA,150846.400,4308.4710,N,07726.8439,W,1,08,1.03,158.2,M,-34.4,M,,*51
lng=-77.447341, lat=43.141185, altitude=158.20, speed=45.00, satellites=8, angle=265.7200, fixquality=1
$GPRMC,150846.600,A,4308.4707,N,07726.8473,W,45.25,265.39,050319,,,A*40
$GPGGA,150846.800,4308.4705,N,07726.8508,W,1,08,1.07,158.2,M,-34.4,M,,*5E
lng=-77.447456, lat=43.141178, altitude=158.20, speed=45.25, satellites=8, angle=265.3900, fixquality=1
$GPRMC,150847.000,A,4308.4703,N,07726.8542,W,45.33,265.33,050319,,,A*4D
$GPGGA,150847.200,4308.4701,N,07726.8577,W,1,08,1.03,158.1,M,-34.4,M,,*5E
lng=-77.447563, lat=43.141170, altitude=158.20, speed=45.33, satellites=8, angle=265.3300, fixquality=1
$GPRMC,150847.400,A,4308.4699,N,07726.8611,W,45.42,265.14,050319,,,A*4D
$GPGGA,150847.600,4308.4697,N,07726.8646,W,1,08,1.07,158.1,M,-34.4,M,,*51
lng=-77.447685, lat=43.141162, altitude=158.10, speed=45.42, satellites=8, angle=265.1400, fixquality=1
$GPRMC,150847.800,A,4308.4695,N,07726.8681,W,45.60,264.92,050319,,,A*4B
$GPGGA,150848.000,4308.4692,N,07726.8715,W,1,08,1.07,158.1,M,-34.4,M,,*5A
lng=-77.447799, lat=43.141162, altitude=158.10, speed=45.60, satellites=8, angle=264.9200, fixquality=1
$GPRMC,150848.200,A,4308.4690,N,07726.8750,W,45.68,264.81,050319,,,A*4C
$GPGGA,150848.400,4308.4688,N,07726.8784,W,1,09,0.95,158.1,M,-34.4,M,,*56
lng=-77.447914, lat=43.141155, altitude=158.10, speed=45.68, satellites=8, angle=264.8100, fixquality=1
$GPRMC,150848.600,A,4308.4685,N,07726.8819,W,45.89,264.84,050319,,,A*44
$GPGGA,150848.800,4308.4683,N,07726.8854,W,1,09,0.99,158.1,M,-34.4,M,,*5F
lng=-77.448028, lat=43.141136, altitude=158.10, speed=45.89, satellites=9, angle=264.8400, fixquality=1
$GPRMC,150849.000,A,4308.4681,N,07726.8889,W,46.17,264.98,050319,,,A*47
$GPGGA,150849.200,4308.4679,N,07726.8924,W,1,09,0.95,158.0,M,-34.4,M,,*5A
lng=-77.448143, lat=43.141136, altitude=158.10, speed=46.17, satellites=9, angle=264.9800, fixquality=1
$GPRMC,150849.400,A,4308.4676,N,07726.8959,W,45.94,265.02,050319,,,A*4D
$GPGGA,150849.600,4308.4674,N,07726.8994,W,1,09,0.99,158.0,M,-34.4,M,,*54
lng=-77.448265, lat=43.141128, altitude=158.00, speed=45.94, satellites=9, angle=265.0200, fixquality=1
$GPRMC,150849.800,A,4308.4672,N,07726.9029,W,46.18,265.20,050319,,,A*4D
$GPGGA,150850.000,4308.4670,N,07726.9064,W,1,09,0.99,158.0,M,-34.4,M,,*59
lng=-77.448379, lat=43.141120, altitude=158.00, speed=46.18, satellites=9, angle=265.2000, fixquality=1
$GPRMC,150850.200,A,4308.4668,N,07726.9099,W,46.21,265.58,050319,,,A*4A
$GPGGA,150850.400,4308.4666,N,07726.9134,W,1,08,1.14,157.9,M,-34.4,M,,*5D
lng=-77.448493, lat=43.141113, altitude=158.00, speed=46.21, satellites=9, angle=265.5800, fixquality=1
$GPRMC,150850.600,A,4308.4663,N,07726.9169,W,46.42,265.40,050319,,,A*47
$GPGGA,150850.800,4308.4661,N,07726.9205,W,1,09,0.99,157.9,M,-34.4,M,,*52
lng=-77.448616, lat=43.141105, altitude=157.90, speed=46.42, satellites=8, angle=265.4000, fixquality=1
$GPRMC,150851.000,A,4308.4659,N,07726.9240,W,46.52,265.33,050319,,,A*44
$GPGGA,150851.200,4308.4657,N,07726.9275,W,1,09,0.95,157.7,M,-34.4,M,,*59
lng=-77.448730, lat=43.141098, altitude=157.90, speed=46.52, satellites=9, angle=265.3300, fixquality=1
$GPRMC,150851.400,A,4308.4654,N,07726.9311,W,46.52,264.89,050319,,,A*48
$GPGGA,150851.600,4308.4652,N,07726.9346,W,1,09,0.99,157.5,M,-34.4,M,,*57
lng=-77.448852, lat=43.141090, altitude=157.70, speed=46.52, satellites=9, angle=264.8900, fixquality=1
$GPRMC,150851.800,A,4308.4649,N,07726.9381,W,46.55,265.12,050319,,,A*45
$GPGGA,150852.000,4308.4647,N,07726.9417,W,1,09,0.99,157.4,M,-34.4,M,,*54
lng=-77.448966, lat=43.141078, altitude=157.50, speed=46.55, satellites=9, angle=265.1200, fixquality=1
$GPRMC,150852.200,A,4308.4645,N,07726.9453,W,46.78,265.29,050319,,,A*4F
$GPGGA,150852.400,4308.4642,N,07726.9488,W,1,09,0.99,157.3,M,-34.4,M,,*54
lng=-77.449089, lat=43.141071, altitude=157.40, speed=46.78, satellites=9, angle=265.2900, fixquality=1
$GPRMC,150852.600,A,4308.4640,N,07726.9524,W,46.82,265.14,050319,,,A*44
$GPGGA,150852.800,4308.4638,N,07726.9560,W,1,09,0.99,157.1,M,-34.4,M,,*50
lng=-77.449211, lat=43.141063, altitude=157.30, speed=46.82, satellites=9, angle=265.1400, fixquality=1
$GPRMC,150853.000,A,4308.4636,N,07726.9595,W,47.06,265.49,050319,,,A*4D
$GPGGA,150853.200,4308.4634,N,07726.9631,W,1,09,0.95,156.9,M,-34.4,M,,*55
lng=-77.449325, lat=43.141056, altitude=157.10, speed=47.06, satellites=9, angle=265.4900, fixquality=1
$GPRMC,150853.400,A,4308.4631,N,07726.9667,W,47.28,265.40,050319,,,A*45
$GPGGA,150853.600,4308.4629,N,07726.9703,W,1,09,0.95,156.8,M,-34.4,M,,*5C
lng=-77.449447, lat=43.141048, altitude=156.90, speed=47.28, satellites=9, angle=265.4000, fixquality=1
$GPRMC,150853.800,A,4308.4627,N,07726.9739,W,47.28,265.28,050319,,,A*4A
$GPGGA,150854.000,4308.4624,N,07726.9775,W,1,09,0.99,156.6,M,-34.4,M,,*53
lng=-77.449569, lat=43.141048, altitude=156.80, speed=47.28, satellites=9, angle=265.2800, fixquality=1
$GPRMC,150854.200,A,4308.4622,N,07726.9811,W,47.22,265.21,050319,,,A*44
$GPGGA,150854.400,4308.4620,N,07726.9847,W,1,09,0.95,156.4,M,-34.4,M,,*53
lng=-77.449684, lat=43.141040, altitude=156.60, speed=47.22, satellites=9, angle=265.2100, fixquality=1
$GPRMC,150854.600,A,4308.4617,N,07726.9883,W,47.23,264.91,050319,,,A*46
$GPGGA,150854.800,4308.4615,N,07726.9919,W,1,09,0.99,156.2,M,-34.4,M,,*59
lng=-77.449806, lat=43.141033, altitude=156.40, speed=47.23, satellites=9, angle=264.9100, fixquality=1
$GPRMC,150855.000,A,4308.4612,N,07726.9955,W,47.45,264.98,050319,,,A*47
$GPGGA,150855.200,4308.4609,N,07726.9991,W,1,09,0.95,156.0,M,-34.4,M,,*51
lng=-77.449928, lat=43.141025, altitude=156.20, speed=47.45, satellites=9, angle=264.9800, fixquality=1
$GPRMC,150855.400,A,4308.4607,N,07727.0027,W,47.72,265.00,050319,,,A*47
$GPGGA,150855.600,4308.4605,N,07727.0063,W,1,09,0.99,155.9,M,-34.4,M,,*53
lng=-77.450050, lat=43.141014, altitude=156.00, speed=47.72, satellites=9, angle=265.0000, fixquality=1
$GPRMC,150855.800,A,4308.4602,N,07727.0100,W,47.91,265.32,050319,,,A*46
$GPGGA,150856.000,4308.4600,N,07727.0136,W,1,08,1.22,155.7,M,-34.4,M,,*5C
lng=-77.450164, lat=43.140998, altitude=155.90, speed=47.91, satellites=9, angle=265.3200, fixquality=1
$GPRMC,150856.200,A,4308.4598,N,07727.0173,W,47.96,265.41,050319,,,A*48
$GPGGA,150856.400,4308.4596,N,07727.0210,W,1,07,1.23,155.5,M,-34.4,M,,*5F
lng=-77.450286, lat=43.140998, altitude=155.70, speed=47.96, satellites=8, angle=265.4100, fixquality=1
$GPRMC,150856.600,A,4308.4594,N,07727.0247,W,48.40,265.71,050319,,,A*43
$GPGGA,150856.800,4308.4593,N,07727.0285,W,1,07,2.33,155.3,M,-34.4,M,,*5E
lng=-77.450416, lat=43.140991, altitude=155.50, speed=48.40, satellites=7, angle=265.7100, fixquality=1
$GPRMC,150857.000,A,4308.4591,N,07727.0323,W,48.83,266.55,050319,,,A*48
$GPGGA,150857.200,4308.4590,N,07727.0360,W,1,08,1.14,155.1,M,-34.4,M,,*57
lng=-77.450538, lat=43.140983, altitude=155.30, speed=48.83, satellites=7, angle=266.5500, fixquality=1
$GPRMC,150857.400,A,4308.4589,N,07727.0398,W,49.20,267.09,050319,,,A*45
$GPGGA,150857.600,4308.4588,N,07727.0436,W,1,08,1.11,154.9,M,-34.4,M,,*52
lng=-77.450668, lat=43.140983, altitude=155.10, speed=49.20, satellites=8, angle=267.0900, fixquality=1
$GPRMC,150857.800,A,4308.4587,N,07727.0474,W,49.29,267.65,050319,,,A*41
$GPGGA,150858.000,4308.4586,N,07727.0511,W,1,09,0.95,154.8,M,-34.4,M,,*5C
lng=-77.450790, lat=43.140975, altitude=154.90, speed=49.29, satellites=8, angle=267.6500, fixquality=1
$GPRMC,150858.200,A,4308.4585,N,07727.0549,W,49.51,267.99,050319,,,A*45
$GPGGA,150858.400,4308.4585,N,07727.0587,W,1,08,1.11,154.6,M,-34.4,M,,*56
lng=-77.450912, lat=43.140975, altitude=154.80, speed=49.51, satellites=9, angle=267.9900, fixquality=1
$GPRMC,150858.600,A,4308.4585,N,07727.0625,W,49.73,268.97,050319,,,A*49
$GPGGA,150858.800,4308.4585,N,07727.0664,W,1,09,0.95,154.4,M,-34.4,M,,*5A
lng=-77.451042, lat=43.140975, altitude=154.60, speed=49.73, satellites=8, angle=268.9700, fixquality=1
$GPRMC,150859.000,A,4308.4585,N,07727.0702,W,50.00,269.60,050319,,,A*4F
$GPGGA,150859.200,4308.4586,N,07727.0740,W,1,09,0.95,154.2,M,-34.4,M,,*53
lng=-77.451171, lat=43.140975, altitude=154.40, speed=50.00, satellites=9, angle=269.6000, fixquality=1
$GPRMC,150859.400,A,4308.4587,N,07727.0777,W,49.53,270.82,050319,,,A*41
$GPGGA,150859.600,4308.4588,N,07727.0815,W,1,09,0.95,154.0,M,-34.4,M,,*54
lng=-77.451293, lat=43.140975, altitude=154.20, speed=49.53, satellites=9, angle=270.8200, fixquality=1
$GPRMC,150859.800,A,4308.4590,N,07727.0853,W,49.17,272.34,050319,,,A*4D
$GPGGA,150900.000,4308.4591,N,07727.0890,W,1,09,0.99,153.8,M,-34.4,M,,*59
lng=-77.451423, lat=43.140983, altitude=154.00, speed=49.17, satellites=9, angle=272.3400, fixquality=1
$GPRMC,150900.200,A,4308.4593,N,07727.0927,W,48.83,273.25,050319,,,A*46
$GPGGA,150900.400,4308.4595,N,07727.0964,W,1,09,0.95,153.6,M,-34.4,M,,*51
lng=-77.451545, lat=43.140991, altitude=153.80, speed=48.83, satellites=9, angle=273.2500, fixquality=1
$GPRMC,150900.600,A,4308.4597,N,07727.1001,W,48.32,274.42,050319,,,A*46
$GPGGA,150900.800,4308.4600,N,07727.1037,W,1,08,1.14,153.4,M,-34.4,M,,*57
lng=-77.451667, lat=43.140991, altitude=153.60, speed=48.32, satellites=9, angle=274.4200, fixquality=1
$GPRMC,150901.000,A,4308.4602,N,07727.1074,W,48.15,275.07,050319,,,A*49
$GPGGA,150901.200,4308.4605,N,07727.1110,W,1,09,0.95,153.2,M,-34.4,M,,*52
lng=-77.451789, lat=43.140998, altitude=153.40, speed=48.15, satellites=8, angle=275.0700, fixquality=1
$GPRMC,150901.400,A,4308.4609,N,07727.1146,W,47.74,276.12,050319,,,A*49
$GPGGA,150901.600,4308.4612,N,07727.1182,W,1,09,0.99,153.1,M,-34.4,M,,*54
lng=-77.451911, lat=43.141014, altitude=153.20, speed=47.74, satellites=9, angle=276.1200, fixquality=1
$GPRMC,150901.800,A,4308.4617,N,07727.1217,W,47.59,277.29,050319,,,A*4B
$GPGGA,150902.000,4308.4621,N,07727.1253,W,1,09,0.99,153.1,M,-34.4,M,,*5E
lng=-77.452026, lat=43.141033, altitude=153.10, speed=47.59, satellites=9, angle=277.2900, fixquality=1
$GPRMC,150902.200,A,4308.4625,N,07727.1288,W,47.41,278.17,050319,,,A*4E
$GPGGA,150902.400,4308.4629,N,07727.1323,W,1,09,0.95,153.1,M,-34.4,M,,*58
lng=-77.452148, lat=43.141040, altitude=153.10, speed=47.41, satellites=9, angle=278.1700, fixquality=1
$GPRMC,150902.600,A,4308.4634,N,07727.1358,W,46.74,278.81,050319,,,A*4E
$GPGGA,150902.800,4308.4638,N,07727.1393,W,1,09,0.99,153.1,M,-34.4,M,,*53
lng=-77.452262, lat=43.141056, altitude=153.10, speed=46.74, satellites=9, angle=278.8100, fixquality=1
$GPRMC,150903.000,A,4308.4643,N,07727.1427,W,46.23,279.31,050319,,,A*4E
$GPGGA,150903.200,4308.4648,N,07727.1462,W,1,09,0.95,153.1,M,-34.4,M,,*5A
lng=-77.452377, lat=43.141071, altitude=153.10, speed=46.23, satellites=9, angle=279.3100, fixquality=1
$GPRMC,150903.400,A,4308.4653,N,07727.1496,W,46.12,279.57,050319,,,A*43
$GPGGA,150903.600,4308.4657,N,07727.1531,W,1,09,0.99,153.2,M,-34.4,M,,*58
lng=-77.452491, lat=43.141090, altitude=153.10, speed=46.12, satellites=9, angle=279.5700, fixquality=1
$GPRMC,150903.800,A,4308.4662,N,07727.1564,W,45.86,279.72,050319,,,A*48
$GPGGA,150904.000,4308.4666,N,07727.1598,W,1,09,0.99,153.3,M,-34.4,M,,*59
lng=-77.452606, lat=43.141105, altitude=153.20, speed=45.86, satellites=9, angle=279.7200, fixquality=1
$GPRMC,150904.200,A,4308.4670,N,07727.1632,W,45.66,279.78,050319,,,A*42
$GPGGA,150904.400,4308.4675,N,07727.1665,W,1,09,0.95,153.3,M,-34.4,M,,*52
lng=-77.452720, lat=43.141113, altitude=153.30, speed=45.66, satellites=9, angle=279.7800, fixquality=1
$GPRMC,150904.600,A,4308.4679,N,07727.1698,W,45.40,279.89,050319,,,A*45
$GPGGA,150904.800,4308.4684,N,07727.1731,W,1,09,0.99,153.3,M,-34.4,M,,*5C
lng=-77.452835, lat=43.141128, altitude=153.30, speed=45.40, satellites=9, angle=279.8900, fixquality=1
$GPRMC,150905.000,A,4308.4689,N,07727.1764,W,44.18,280.52,050319,,,A*43
$GPGGA,150905.200,4308.4693,N,07727.1796,W,1,09,0.95,153.2,M,-34.4,M,,*51
lng=-77.452934, lat=43.141147, altitude=153.30, speed=44.18, satellites=9, angle=280.5200, fixquality=1
$GPRMC,150905.400,A,4308.4698,N,07727.1829,W,43.91,280.53,050319,,,A*46
$GPGGA,150905.600,4308.4702,N,07727.1861,W,1,09,0.95,153.2,M,-34.4,M,,*5B
lng=-77.453048, lat=43.141162, altitude=153.20, speed=43.91, satellites=9, angle=280.5300, fixquality=1
$GPRMC,150905.800,A,4308.4706,N,07727.1894,W,43.54,280.50,050319,,,A*40
$GPGGA,150906.000,4308.4711,N,07727.1926,W,1,09,0.99,153.1,M,-34.4,M,,*51
lng=-77.453155, lat=43.141178, altitude=153.20, speed=43.54, satellites=9, angle=280.5000, fixquality=1
$GPRMC,150906.200,A,4308.4715,N,07727.1958,W,43.09,280.23,050319,,,A*46
$GPGGA,150906.400,4308.4719,N,07727.1990,W,1,09,0.95,153.0,M,-34.4,M,,*5D
lng=-77.453262, lat=43.141193, altitude=153.10, speed=43.09, satellites=9, angle=280.2300, fixquality=1
$GPRMC,150906.600,A,4308.4723,N,07727.2022,W,42.86,279.65,050319,,,A*42
$GPGGA,150906.800,4308.4727,N,07727.2054,W,1,09,0.99,153.0,M,-34.4,M,,*52
lng=-77.453369, lat=43.141201, altitude=153.00, speed=42.86, satellites=9, angle=279.6500, fixquality=1
$GPRMC,150907.000,A,4308.4731,N,07727.2086,W,42.65,279.53,050319,,,A*40
$GPGGA,150907.200,4308.4736,N,07727.2118,W,1,09,0.95,152.9,M,-34.4,M,,*54
lng=-77.453475, lat=43.141220, altitude=153.00, speed=42.65, satellites=9, angle=279.5300, fixquality=1
$GPRMC,150907.400,A,4308.4740,N,07727.2150,W,42.64,279.65,050319,,,A*4C
$GPGGA,150907.600,4308.4744,N,07727.2182,W,1,09,0.95,152.9,M,-34.4,M,,*56
lng=-77.453582, lat=43.141235, altitude=152.90, speed=42.64, satellites=9, angle=279.6500, fixquality=1
$GPRMC,150907.800,A,4308.4748,N,07727.2213,W,42.61,279.49,050319,,,A*47
$GPGGA,150908.000,4308.4752,N,07727.2245,W,1,09,0.99,152.8,M,-34.4,M,,*5D
lng=-77.453689, lat=43.141242, altitude=152.90, speed=42.61, satellites=9, angle=279.4900, fixquality=1
$GPRMC,150908.200,A,4308.4756,N,07727.2277,W,42.63,279.23,050319,,,A*41
$GPGGA,150908.400,4308.4760,N,07727.2309,W,1,09,0.99,152.8,M,-34.4,M,,*51
lng=-77.453788, lat=43.141258, altitude=152.80, speed=42.63, satellites=9, angle=279.2300, fixquality=1
$GPRMC,150908.600,A,4308.4764,N,07727.2341,W,42.68,279.23,050319,,,A*4B
$GPGGA,150908.800,4308.4768,N,07727.2374,W,1,09,0.99,152.8,M,-34.4,M,,*5F
lng=-77.453895, lat=43.141277, altitude=152.80, speed=42.68, satellites=9, angle=279.2300, fixquality=1
$GPRMC,150909.000,A,4308.4772,N,07727.2406,W,42.73,279.51,050319,,,A*40
$GPGGA,150909.200,4308.4776,N,07727.2438,W,1,09,0.95,152.8,M,-34.4,M,,*58
lng=-77.454010, lat=43.141284, altitude=152.80, speed=42.73, satellites=9, angle=279.5100, fixquality=1
$GPRMC,150909.400,A,4308.4780,N,07727.2470,W,42.80,279.40,050319,,,A*44
$GPGGA,150909.600,4308.4784,N,07727.2502,W,1,09,0.95,152.7,M,-34.4,M,,*56
lng=-77.454116, lat=43.141300, altitude=152.80, speed=42.80, satellites=9, angle=279.4000, fixquality=1
$GPRMC,150909.800,A,4308.4788,N,07727.2534,W,42.83,279.46,050319,,,A*44
$GPGGA,150910.000,4308.4792,N,07727.2566,W,1,09,0.99,152.7,M,-34.4,M,,*51
lng=-77.454223, lat=43.141315, altitude=152.70, speed=42.83, satellites=9, angle=279.4600, fixquality=1
$GPRMC,150910.200,A,4308.4796,N,07727.2598,W,42.66,279.13,050319,,,A*44
$GPGGA,150910.400,4308.4799,N,07727.2630,W,1,09,0.99,152.7,M,-34.4,M,,*5E
lng=-77.454330, lat=43.141323, altitude=152.70, speed=42.66, satellites=9, angle=279.1300, fixquality=1
$GPRMC,150910.600,A,4308.4803,N,07727.2662,W,42.61,279.05,050319,,,A*45
$GPGGA,150910.800,4308.4808,N,07727.2694,W,1,09,0.99,152.8,M,-34.4,M,,*54
